     2.10           OBSERVATION DATA    G (GPS)             RINEX VERSION / TYPE
teqc  2005Sep1      gpsops              20060720 00:03:29UTCPGM / RUN BY / DATE
    30.0000                                                 INTERVAL
     1     1                                                WAVELENGTH FACT L1/2
     7    L1    L2    P1    P2    C1    S1    S2            # / TYPES OF OBSERV
Linux 2.4.20-8|Pentium IV|gcc|Linux|486/DX+                 COMMENT
soc2rnx ver 1.15    gpsops              20-Jul-2006 00:03:28COMMENT
S1, if present, is the SNR for the C/A data stream on L1.   COMMENT
 SNR is mapped to RINEX snr flag value [1,4-9]              COMMENT
    SNR:   >316  >100  >31.6  >10  >3.2    >0 bad=0         COMMENT
L1 & L2:      9     8     7     6     5     4     1         COMMENT
                                                            COMMENT
This data is provided as a public service by NASA/JPL.      COMMENT
No warranty is expressed or implied regarding suitability   COMMENT
for use.  For further information, contact:                 COMMENT
Dave Stowers, NASA/JPL m/s 238-600                          COMMENT
4800 Oak Grove Drive, Pasadena CA 91109 USA                 COMMENT
                                                            COMMENT
Forced Modulo Decimation to 30 seconds                      COMMENT
  2006     7    19     0     0    0.0000000     GPS         TIME OF FIRST OBS
DSN                 JPL                                     OBSERVER / AGENCY
451-U               AOAD/M_T        NONE                    ANT # / TYPE
  4849202.3940  -360328.9929  4114913.1862                  COMMENT
  4849202.3737  -360328.9388  4114913.2119                  APPROX POSITION XYZ
        0.0254        0.0000        0.0000                  ANTENNA: DELTA H/E/N
LP03574             ASHTECH Z-XII3      CC00                REC # / TYPE / VERS
MADR                                                        MARKER NAME
13407S012                                                   MARKER NUMBER
                                                            END OF HEADER
 06  7 19  0  0  0.0000000  0  9G25G15G 3G19G16G18G 7G21G22
 129717745.46948 101078748.15548  24684478.8114   24684484.3644   24684477.9514
       203.000         144.000
 107198081.96848  83530959.59948  20399127.6014   20399130.7484   20399128.4364
       250.000         224.000
 109479441.84948  85308638.92548  20833257.4294   20833260.7454   20833257.3354
       245.000         216.000
 121491191.45348  94668464.01648  23119002.6114   23119004.0754   23119003.9024
       230.000         188.000
 106850607.47548  83260197.99348  20333004.2544   20333006.3274   20333004.2524
       244.000         229.000
 119436271.75648  93067233.34148  22727958.1824   22727960.4804   22727958.1404
       233.000         192.000
 109409996.43148  85254545.69248  20820026.0314   20820029.5364   20820026.8874
       249.000         224.000
 116135426.88748  90495131.26648  22099842.1154   22099843.8324   22099842.5034
       238.000         198.000
 120553011.35948  93937386.53348  22940494.4254   22940494.9384   22940495.3194
       229.000         179.000
 06  7 19  0  0 30.0000000  0  9G25G15G 3G19G16G18G 7G21G22
 129812679.10448 101152722.41048  24702543.1464   24702549.3394   24702543.5044
       205.000         142.000
 107229649.86548  83555557.96748  20405134.6614   20405137.9874   20405135.3984
       249.000         224.000
 109435030.52248  85274032.71048  20824806.3894   20824809.4574   20824806.7664
       245.000         216.000
 121418840.49948  94612086.68848  23105233.9894   23105236.0024   23105234.9924
       228.000         188.000
 106868904.89148  83274455.72648  20336486.1284   20336488.1744   20336486.5244
       244.000         229.000
 119407013.26548  93044434.52548  22722390.5934   22722392.8914   22722390.7204
       234.000         191.000
 109436379.22248  85275103.71048  20825046.6114   20825050.0594   20825047.4034
       249.000         224.000
 116207194.05748  90551053.73348  22113498.7904   22113500.5074   22113499.4664
       237.000         199.000
 120470556.26748  93873135.82048  22924804.5074   22924805.0384   22924804.2894
       230.000         181.000
 06  7 19  0  1  0.0000000  0  9G25G15G 3G19G16G18G 7G21G22
 129907556.07048 101226652.52448  24720598.3694   24720602.8734   24720598.1314
       200.000         140.000
 107261696.07548  83580529.04748  20411232.6814   20411236.0904   20411233.3164
       249.000         224.000
 109390871.31448  85239622.95248  20816403.0014   20816406.1154   20816402.9004
       246.000         217.000
 121346601.04848  94555796.24848  23091486.9544   23091488.6174   23091487.7174
       231.000         190.000
 106887703.55548  83289104.04248  20340063.2544   20340065.4024   20340063.6494
       243.000         228.000
 119378259.67848  93022029.16648  22716918.6764   22716921.2884   22716919.1634
       233.000         191.000
 109462979.80048  85295831.43548  20830108.6544   20830111.9204   20830109.4424
       250.000         224.000
 116279248.95048  90607200.40148  22127210.5714   22127212.1154   22127211.0034
       238.000         198.000
 120388362.50148  93809088.76248  22909163.2644   22909163.7824   22909163.2254
       230.000         182.000
 06  7 19  0  1 30.0000000  0  9G25G15G 3G19G16G18G 7G21G22
 130002371.25848 101300534.46448  24738642.2124   24738645.5064   24738642.6434
       203.000         136.000
 107294216.75748  83605869.84548  20417421.2554   20417424.6104   20417421.9004
       250.000         224.000
 109346962.42348  85205408.24348  20808047.5714   20808050.5104   20808048.0744
       246.000         217.000
 121274471.42048  94499591.37048  23077762.0174   23077763.0444   23077763.1234
       230.000         192.000
 106907001.70248  83304141.56248  20343735.6064   20343737.6344   20343735.7614
       244.000         228.000
 119350010.98148  93000017.21148  22711543.1924   22711545.8604   22711543.7764
       233.000         192.000
 109489795.79348  85316727.01748  20835211.5554   20835214.8544   20835212.3114
       250.000         224.000
 116351587.22548  90663567.88748  22140976.1044   22140977.8174   22140976.6784
       236.000         198.000
 120306430.93448  93745245.98848  22893572.1894   22893572.4254   22893571.9354
       231.000         182.000
 06  7 19  0  2  0.0000000  0  9G25G15G 3G19G16G18G 7G21G22
 130097122.82548 101374366.88648  24756671.5754   24756674.4974   24756672.6924
       198.000         133.000
 107327210.96448  83631579.62348  20423699.8904   20423703.0984   20423700.8864
       250.000         224.000
 109303305.22148  85171389.65748  20799739.7734   20799742.9124   20799739.9544
       246.000         217.000
 121202452.31248  94443472.62448  23064056.4214   23064058.6774   23064057.0314
       228.000         189.000
 106926800.22348  83319568.98548  20347503.2154   20347505.2224   20347503.7594
       244.000         228.000
 119322268.82448  92978399.95948  22706264.2634   22706266.6754   22706264.6534
       234.000         192.000
 109516827.88048  85337790.98148  20840355.5284   20840358.9484   20840356.2354
       249.000         224.000
 116424207.36548  90720155.00948  22154794.9524   22154797.0034   22154795.0924
       237.000         197.000
 120224765.18648  93681610.35648  22878031.3704   22878032.4804   22878031.8944
       229.000         182.000
 06  7 19  0  2 30.0000000  0  9G25G15G 3G19G16G18G 7G21G22
 130191808.58448 101448147.94348  24774691.1934   24774693.9174   24774689.8644
       194.000         134.000
 107360677.48448  83657657.43948  20430068.2214   20430071.7144   20430068.9884
       249.000         224.000
 109259900.48848  85137567.80348  20791480.2284   20791483.0544   20791480.4194
       246.000         217.000
 121130544.27648  94387440.43048  23050372.9464   23050374.6494   23050373.3934
       231.000         190.000
 106947099.52548  83335386.63048  20351365.9694   20351368.0834   20351366.2514
       244.000         228.000
 119295035.50048  92957179.21148  22701081.6164   22701083.8894   22701082.0694
       234.000         192.000
 109544076.52848  85359023.69848  20845540.7114   20845543.9814   20845541.3074
       249.000         224.000
 116497107.88548  90776960.59748  22168667.5304   22168669.3274   22168668.0124
       238.000         198.000
 120143368.52448  93618184.40748  22862542.3044   22862543.1224   22862542.6174
       229.000         184.000
 06  7 19  0  3  0.0000000  0  9G25G15G 3G19G16G18G 7G21G22
 130286425.22848 101521875.20548  24792694.0554   24792700.3474   24792693.7624
       188.000         132.000
 107394614.22548  83684101.66248  20436526.1254   20436529.4724   20436526.4974
       249.000         224.000
 109216748.29448  85103942.73548  20783268.5484   20783271.4724   20783268.8614
       246.000         217.000
 121058747.28048  94331494.75148  23036710.2424   23036712.0474   23036711.1944
       230.000         191.000
 106967899.24448  83351594.21348  20355324.0724   20355326.0344   20355324.3874
       243.000         228.000
 119268311.48248  92936355.32248  22695996.2994   22695998.8844   22695996.8074
       234.000         193.000
 109571541.29348  85380424.81348  20850767.0564   20850770.6654   20850767.6064
       250.000         224.000
 116570286.02948  90833982.54048  22182592.9674   22182594.5424   22182593.7734
       236.000         197.000
 120062243.18748  93554969.90448  22847104.2804   22847105.3674   22847104.7954
       228.000         182.000
 06  7 19  0  3 30.0000000  0  9G25G15G 3G19G16G18G 7G21G22
 130380970.97148 101595547.15848  24810685.7604   24810689.8324   24810685.9744
       194.000         132.000
 107429019.93448  83710911.31348  20443073.3414   20443076.8624   20443073.8184
       249.000         224.000
 109173849.70548  85070515.27348  20775105.2594   20775108.2004   20775105.5724
       246.000         217.000
 120987061.94648  94275636.06248  23023068.8384   23023070.9704   23023068.8064
       231.000         192.000
 106989200.01548  83368192.22048  20359377.3804   20359379.4084   20359377.7024
       244.000         228.000
 119242098.83248  92915929.89648  22691008.2174   22691010.5384   22691008.5174
       234.000         192.000
 109599222.66248  85401994.71548  20856034.6554   20856038.0954   20856035.2124
       250.000         224.000
 116643740.20248  90891219.54948  22196570.5854   22196572.8504   22196570.6564
       236.000         196.000
 119981392.95648  93491969.75148  22831719.0304   22831720.3644   22831718.5794
       228.000         183.000
 06  7 19  0  4  0.0000000  0  9G25G15G 3G19G16G18G 7G21G22
 130475442.98048 101669161.67548  24828665.9234   24828668.2254   24828664.5064
       191.000         131.000
 107463893.08848  83738085.20448  20449709.5994   20449712.9194   20449710.0184
       249.000         224.000
 109131205.12648  85037285.74748  20766990.2874   20766993.3124   20766990.6404
       247.000         218.000
 120915488.62448  94219864.67448  23009449.4854   23009450.9674   23009450.1274
       231.000         192.000
 107011002.14148  83385180.89848  20363526.2674   20363528.2524   20363526.6974
       244.000         228.000
 119216398.88448  92895903.98248  22686117.8074   22686119.8894   22686118.0914
       235.000         193.000
 109627120.65648  85423733.41648  20861343.3504   20861346.8304   20861343.9344
       249.000         224.000
 116717468.28548  90948669.99748  22210600.5404   22210602.5894   22210601.6254
       237.000         195.000
 119900820.64548  93429186.15548  22816386.9094   22816388.2284   22816387.1454
       230.000         184.000
 06  7 19  0  4 30.0000000  0  9G25G15G 3G19G16G18G 7G21G22
 140569708.97658  91742588.15358  24846621.8755   24846632.3535   24846621.7185
       176.000         127.000
 107499231.18248  83765621.38948  20456434.1944   20456437.4594   20456434.6974
       249.000         224.000
 109088814.34148  85004253.97948  20758923.5134   20758926.5174   20758923.8534
       246.000         217.000
 120844026.34648  94164179.79748  22995850.7024   22995852.0784   22995851.0054
       235.000         193.000
 107033304.88748  83402559.66048  20367770.3744   20367772.4254   20367770.8634
       244.000         228.000
 119191211.98848  92876277.85448  22681324.9484   22681326.8354   22681325.0024
       234.000         193.000
 109655234.56548  85445640.35848  20866693.4154   20866696.8374   20866694.1514
       250.000         224.000
 116791467.40248  91006331.63448  22224682.2424   22224684.2644   22224683.1524
       234.000         194.000
 119820528.30948  93366620.72348  22801107.7224   22801108.5884   22801108.3634
       230.000         183.000
 06  7 19  0  5  0.0000000  0  9G25G15G 3G19G16G18G 7G21G22
 120664059.43858 111816112.59158  24864574.3775   24864577.7415   24864574.5915
       189.000         128.000
 107535033.71648  83793519.47748  20463247.1134   20463250.4124   20463247.7114
       249.000         224.000
 109046679.12148  84971421.35148  20750905.3714   20750908.4344   20750905.4744
       247.000         218.000
 120772676.45148  94108582.46848  22982273.1864   22982274.1764   22982273.7374
       233.000         192.000
 107056109.50948  83420329.50448  20372109.9294   20372112.0624   20372110.1224
       244.000         228.000
 119166540.92448  92857053.67248  22676630.0374   22676632.1994   22676629.8494
       234.000         193.000
 109683565.34148  85467716.29748  20872084.6244   20872087.6764   20872085.3764
       249.000         224.000
 116865736.66748  91064203.79348  22238815.1814   22238817.0354   22238815.4714
       236.000         193.000
 119740519.76348  93304276.42148  22785882.3564   22785883.1994   22785882.2144
       232.000         184.000
 06  7 19  0  5 30.0000000  0  9G25G15G 3G19G16G18G 7G21G22
 120758294.49048 111889542.55948  24882507.7604   24882510.4624   24882506.2404
       187.000         127.000
 107571298.65848  83821777.88148  20470148.2054   20470151.4104   20470148.8574
       249.000         223.000
 109004799.51448  84938787.90848  20742935.9114   20742939.0814   20742936.3254
       246.000         218.000
 120701438.95748  94053072.75848  22968716.9754   22968718.4264   22968718.0614
       233.000         194.000
 107079415.42848  83438489.96048  20376544.8384   20376547.1444   20376545.0044
       244.000         228.000
 119142386.87148  92838232.35448  22672033.6424   22672036.0014   22672033.7834
       234.000         193.000
 109712112.86448  85489961.11948  20877516.9894   20877520.7304   20877517.7714
       250.000         224.000
 116940273.53848  91122284.47248  22252999.0334   22253000.7824   22252999.4924
       235.000         193.000
 119660797.81948  93242155.43448  22770712.2464   22770712.6784   22770712.0674
       233.000         185.000
 06  7 19  0  6  0.0000000  0  9G25G15G 3G19G16G18G 7G21G22
 120852444.86648 111962906.56448  24900422.3344   24900425.3934   24900422.8204
       183.000         125.000
 107608023.61248  83850394.73848  20477136.7704   20477139.9304   20477137.3434
       249.000         223.000
 108963175.56348  84906353.66948  20735015.3284   20735018.2194   20735015.3944
       247.000         218.000
 120630313.51548  93997650.38048  22955182.4264   22955184.3514   22955184.1614
       233.000         195.000
 107103222.21248  83457040.70248  20381075.2064   20381077.4524   20381075.4904
       244.000         228.000
 119118750.22848  92819814.22048  22667535.7444   22667537.8954   22667535.7754
       236.000         195.000
 109740876.41048  85512374.26748  20882990.4254   20882993.9214   20882991.0864
       249.000         222.000
 117015075.19948  91180571.46948  22267233.3954   22267235.0854   22267233.8914
       236.000         193.000
 119581364.59148  93180259.42648  22755596.6044   22755597.0314   22755596.9234
       230.000         184.000
 06  7 19  0  6 30.0000000  0  9G25G15G 3G19G16G18G 7G21G22
 140946461.59058  92036161.05358  24918320.9895   24918325.0665   24918320.8085
       191.000         131.000
 107645207.49948  83879369.20548  20484212.5054   20484215.7124   20484212.9514
       249.000         223.000
 108921808.21248  84874119.38548  20727143.3864   20727146.3204   20727143.8154
       246.000         218.000
 120559300.61048  93942315.67948  22941668.9834   22941670.7854   22941670.3974
       234.000         195.000
 107127530.49048  83475982.22048  20385700.9514   20385703.1684   20385701.3104
       244.000         228.000
 119095632.57348  92801800.48548  22663136.6974   22663138.8814   22663137.1034
       237.000         194.000
 109769856.71248  85534956.34048  20888505.1014   20888507.9454   20888505.6964
       248.000         223.000
 117090139.95548  91239063.48048  22281517.7784   22281519.7044   22281519.0664
       235.000         193.000
 119502223.65948  93118591.17948  22740536.1384   22740536.9044   22740536.1774
       231.000         184.000
 06  7 19  0  7  0.0000000  0  9G25G15G 3G19G16G18G 7G21G22
 141040436.12348  92109388.00748  24936206.2524   24936210.2674   24936206.0614
       197.000         134.000
 107682849.00448  83908700.25848  20491375.4264   20491378.7444   20491376.1094
       249.000         223.000
 108880698.27748  84842085.67448  20719320.3404   20719323.2844   20719320.5024
       247.000         218.000
 120488401.07848  93887069.31248  22928177.2284   22928178.3544   22928178.5684
       235.000         194.000
 107152340.56148  83495314.74748  20390422.1034   20390424.2554   20390422.4054
       244.000         228.000
 119073035.58948  92784192.46948  22658836.7034   22658838.6124   22658837.1804
       235.000         195.000
 109799053.84048  85557707.34548  20894061.2364   20894065.4274   20894061.7694
       250.000         224.000
 117165466.54348  91297759.52548  22295851.8494   22295853.5634   22295852.3164
       235.000         192.000
 119423378.05748  93057153.05848  22725532.5134   22725533.0794   22725532.6904
       231.000         182.000
 06  7 19  0  7 30.0000000  0  9G25G15G 3G19G16G18G 7G21G22
 141134319.38248  92182543.88448  24954069.8084   24954075.7294   24954071.8034
       179.000         128.000
 107720946.32548  83938386.48848  20498625.1264   20498628.3174   20498625.9074
       249.000         223.000
 108839846.63148  84810253.23348  20711546.5224   20711549.5874   20711546.7644
       247.000         218.000
 120417615.10548  93831911.42748  22914707.1364   22914708.4184   22914708.8414
       235.000         196.000
 107177652.53548  83515038.36348  20395238.6094   20395240.9524   20395238.7704
       244.000         228.000
 119050960.65348  92766991.24348  22654635.9254   22654638.3084   22654636.2934
       235.000         195.000
 109828468.20248  85580627.63048  20899658.6924   20899662.2384   20899659.3754
       249.000         223.000
 117241052.79248  91356657.89848  22310235.6344   22310236.8554   22310236.2994
       238.000         193.000
 119344830.92148  92995947.50648  22710585.5024   22710586.0844   22710585.5054
       229.000         184.000
 06  7 19  0  8  0.0000000  0  9G25G15G 3G19G16G18G 7G21G22
 121228214.77458 112255728.69858  24971917.6755   24971921.1865   24971918.1155
       192.000         126.000
 107759496.91148  83968425.91348  20505961.0184   20505964.3714   20505962.0054
       249.000         223.000
 108799252.75148  84778621.64848  20703821.6674   20703824.7604   20703822.0504
       247.000         218.000
 120346942.12148  93776841.60448  22901258.5504   22901259.8734   22901259.8114
       235.000         196.000
 107203465.51948  83535152.37648  20400150.7574   20400153.0624   20400151.0684
       244.000         228.000
 119029408.19048  92750197.14648  22650534.4394   22650536.7914   22650534.9624
       234.000         195.000
 109858099.04348  85603716.61048  20905297.2964   20905299.9224   20905297.9954
       249.000         223.000
 117316895.81048  91415756.35948  22324668.4034   22324669.3964   22324669.8064
       237.000         193.000
 119266584.19348  92934976.05748  22695695.3474   22695696.1264   22695695.7934
       230.000         185.000
 06  7 19  0  8 30.0000000  0  9G25G15G 3G19G16G18G 7G21G22
 121321907.45648 112328736.09248  24989747.4614   24989748.4794   24989749.7014
       188.000         128.000
 107798500.99248  83998818.70948  20513383.2124   20513386.5124   20513383.7114
       248.000         223.000
 108758918.98648  84747192.74948  20696146.4064   20696149.4164   20696146.7254
       247.000         218.000
 120276384.08748  93721861.32748  22887831.8334   22887832.7854   22887833.0274
       234.000         194.000
 107229781.27348  83555658.15648  20405158.6264   20405160.5334   20405159.0144
       244.000         227.000
 119008380.92348  92733812.28548  22646533.0814   22646535.3714   22646533.3814
       235.000         195.000
 109887947.90048  85626975.45748  20910977.3884   20910981.0454   20910977.9844
       250.000         224.000
 117392995.23648  91475054.62048  22339149.7034   22339150.6424   22339150.1454
       238.000         193.000
 119188642.28548  92874242.13548  22680863.4404   22680864.7174   22680863.6574
       232.000         187.000
 06  7 19  0  9  0.0000000  0  9G25G15G 3G19G16G18G 7G21G22
 141415350.16758  92401516.26058  25007551.3755   25007564.8675   25007549.6615
       181.000         126.000
 107837955.77948  84029562.70448  20520891.2664   20520894.5284   20520891.7324
       249.000         223.000
 108718845.27848  84715966.49448  20688520.6214   20688523.7354   20688520.9814
       247.000         219.000
 120205940.41948  93666970.16748  22874426.6484   22874427.5074   22874427.5334
       233.000         194.000
 107256599.07948  83576555.14948  20410261.8144   20410263.6174   20410262.1874
       244.000         227.000
 118987879.46248  92717837.15348  22642631.9834   22642634.1824   22642632.5604
       235.000         195.000
 109918014.16348  85650403.71248  20916698.6694   20916702.0774   20916699.4924
       249.000         223.000
 117469348.16048  91534550.41148  22353678.8594   22353680.2884   22353679.8294
       237.000         194.000
 119111007.55548  92813747.55148  22666090.2334   22666091.0214   22666090.3034
       233.000         188.000
 06  7 19  0  9 30.0000000  0  9G25G15G 3G19G16G18G 7G21G22
 141508842.89248  92474367.61548  25025346.6574   25025353.6964   25025348.4014
       195.000         129.000
 107877859.93748  84060656.85848  20528484.7484   20528488.0044   20528485.3444
       249.000         223.000
 108679032.37548  84684943.46348  20680944.5084   20680947.5384   20680944.9174
       247.000         219.000
 120135611.96648  93612168.79648  22861043.4194   22861044.8054   22861044.3024
       233.000         196.000
 107283919.29048  83597843.62748  20415460.6584   20415462.4814   20415460.9514
       244.000         227.000
 118967905.16648  92702272.78748  22638830.7104   22638833.0354   22638830.9464
       235.000         194.000
 109948298.25148  85674001.70948  20922461.6154   20922464.4414   20922462.2234
       250.000         222.000
 117545953.22848  91594242.67648  22368256.0524   22368257.9784   22368256.6164
       238.000         193.000
 119033683.17648  92753494.80948  22651376.0764   22651376.7454   22651376.5674
       234.000         189.000
 06  7 19  0 10  0.0000000  0  9G25G15G 3G19G16G18G 7G21G22
 141602231.96548  92547138.39048  25043122.7134   25043123.2084   25043123.7814
       193.000         132.000
 107918211.62348  84092099.73548  20536163.3554   20536166.7734   20536163.9824
       249.000         223.000
 108639480.92348  84654124.15948  20673418.1404   20673421.1384   20673418.4004
       246.000         219.000
 120065398.65948  93557457.14848  22847682.4284   22847684.3124   22847682.8694
       234.000         197.000
 107311741.54348  83619523.29448  20420755.1224   20420756.9684   20420755.5114
       243.000         227.000
 118948459.46448  92687120.32348  22635130.3194   22635132.6164   22635130.7214
       235.000         195.000
 109978800.27748  85697769.52648  20928265.9194   20928269.3094   20928266.7234
       249.000         223.000
 117622808.09248  91654129.58548  22382881.2294   22382883.3384   22382881.9834
       237.000         195.000
 118956671.73848  92693485.89048  22636721.3444   22636721.7204   22636721.3834
       234.000         187.000
 06  7 19  0 10 30.0000000  0  8G15G 3G19G16G18G 7G21G22
 107959008.70248  84123889.67148  20543926.8154   20543930.1484   20543927.4884
       250.000         223.000
 108600190.78048  84623508.47248  20665941.5144   20665944.4454   20665941.6324
       247.000         220.000
 119995300.26748  93502835.04348  22834343.2144   22834344.4514   22834343.9624
       235.000         196.000
 107340065.22148  83641593.69748  20426144.8004   20426146.8894   20426145.0574
       243.000         227.000
 118929542.51648  92672379.86848  22631530.5764   22631532.9634   22631530.9934
       237.000         195.000
 110009519.77448  85721706.79248  20934111.6594   20934115.1374   20934112.2674
       250.000         223.000
 117699909.92148  91714208.93748  22397553.2274   22397555.5944   22397553.7634
       238.000         194.000
 118879975.99048  92633722.97848  22622126.5854   22622127.0874   22622126.8574
       233.000         186.000
 06  7 19  0 11  0.0000000  0  8G15G 3G19G16G18G 7G21G22
 108000248.97748  84156024.96048  20551774.7194   20551777.8234   20551775.5304
       249.000         223.000
 108561162.51548  84593096.84848  20658514.6884   20658517.5714   20658514.8124
       248.000         220.000
 119925316.77348  93448302.47048  22821025.9314   22821026.8304   22821027.0174
       234.000         197.000
 107368890.27548  83664054.77548  20431630.1234   20431632.0354   20431630.4824
       243.000         227.000
 118911155.45448  92658052.31948  22628031.8454   22628033.8004   22628032.3864
       237.000         196.000
 110040456.32048  85745813.19748  20939998.6724   20940001.8964   20939999.4064
       249.000         223.000
 117777256.48148  91774478.97248  22412271.5974   22412274.3354   22412272.5294
       237.000         193.000
 118803598.26648  92574207.88548  22607592.5674   22607592.8454   22607592.9824
       233.000         187.000
 06  7 19  0 11 30.0000000  0  8G15G 3G19G16G18G 7G21G22
 108041931.07148  84188504.51648  20559706.4454   20559709.6774   20559706.8054
       249.000         223.000
 108522397.03848  84562889.99048  20651138.0484   20651140.9394   20651138.5374
       248.000         220.000
 119855449.03048  93393860.09748  22807730.2634   22807731.8134   22807730.9484
       236.000         199.000
 107398216.88148  83686906.67848  20437210.8074   20437212.7674   20437211.0584
       244.000         227.000
 118893299.63348  92644138.71648  22624633.7704   22624636.1484   22624634.2474
       236.000         196.000
 110071610.64848  85770089.29848  20945927.1704   20945930.5044   20945927.8054
       250.000         223.000
 117854846.12148  91834938.43448  22427036.6384   22427039.2534   22427037.4834
       235.000         193.000
 118727541.83448  92514943.16048  22593119.3154   22593120.1234   22593119.4654
       233.000         188.000
 06  7 19  0 12  0.0000000  0  8G15G 3G19G16G18G 7G21G22
 108084053.72048  84221327.36148  20567722.2144   20567725.4364   20567722.7184
       248.000         222.000
 108483895.38448  84532888.71448  20643811.2534   20643814.2274   20643811.5884
       248.000         220.000
 119785697.74448  93339508.48948  22794457.1124   22794458.7804   22794458.3564
       234.000         199.000
 107428045.32748  83710149.61548  20442886.9094   20442889.2814   20442887.3054
       243.000         227.000
 118875976.59548  92630640.26748  22621337.4284   22621339.7454   22621337.6884
       237.000         196.000
 110102983.27748  85794535.50248  20951897.0934   20951900.6604   20951897.7344
       250.000         223.000
 117932677.58848  91895586.32648  22441847.4974   22441849.9634   22441847.7634
       236.000         193.000
 118651810.23348  92455931.54848  22578707.9044   22578708.8664   22578707.6854
       234.000         190.000
 06  7 19  0 12 30.0000000  0  8G15G 3G19G16G18G 7G21G22
 108126614.44848  84254491.57348  20575821.0704   20575824.4274   20575821.3564
       248.000         222.000
 108445657.65748  84503093.09448  20636534.7744   20636537.7704   20636535.0734
       247.000         220.000
 119716062.34648  93285247.16348  22781205.8444   22781207.2624   22781206.8404
       233.000         198.000
 107458374.84248  83733782.99748  20448658.3644   20448660.7884   20448658.5844
       244.000         227.000
 118859186.93348  92617557.43048  22618142.4724   22618144.4354   22618142.5844
       237.000         196.000
 110134573.63048  85819151.35648  20957908.5554   20957912.0384   20957909.2474
       249.000         223.000
 118010748.08548  91956420.46148  22456704.0314   22456706.1934   22456705.1264
       237.000         192.000
 118576405.39148  92397174.55048  22564359.0074   22564359.5934   22564359.0544
       235.000         192.000
 06  7 19  0 13  0.0000000  0  8G15G 3G19G16G18G 7G21G22
 108169611.49148  84287995.76548  20584003.2134   20584006.5604   20584003.5904
       248.000         222.000
 108407684.35648  84473503.51848  20629308.7224   20629311.7074   20629308.9364
       248.000         220.000
 119646543.58648  93231076.71948  22767976.8554   22767978.2504   22767977.3784
       234.000         198.000
 107489205.22448  83757806.66748  20454525.3444   20454527.5494   20454525.6404
       243.000         227.000
 118842931.78048  92604891.09048  22615049.3884   22615051.2744   22615049.5904
       237.000         196.000
 110166381.96448  85843937.06648  20963961.4224   20963964.9024   20963962.1134
       249.000         222.000
 118089055.65748  92017439.35148  22471605.3234   22471607.1614   22471606.0594
       234.000         190.000
 118501330.24648  92338674.45348  22550072.7944   22550073.1224   22550072.8674
       236.000         192.000
 06  7 19  0 13 30.0000000  0  8G15G 3G19G16G18G 7G21G22
 108213043.83548  84321839.15348  20592267.9774   20592271.4054   20592268.8334
       249.000         222.000
 108369976.65648  84444120.90948  20622133.1344   20622136.1484   20622133.6734
       248.000         220.000
 119577141.83048  93176997.44548  22754770.0944   22754771.0234   22754770.9394
       233.000         197.000
 107520537.10448  83782221.12148  20460487.5604   20460489.6484   20460487.9924
       244.000         227.000
 118827212.41548  92592642.25548  22612057.9044   22612060.1234   22612058.0564
       237.000         197.000
 110198408.83248  85868893.06348  20970056.0024   20970059.4864   20970056.6694
       249.000         222.000
 118167598.98648  92078641.93948  22486551.3914   22486553.1444   22486551.4774
       235.000         190.000
 118426588.31648  92280434.02248  22535849.7394   22535850.1464   22535849.4184
       234.000         190.000
 06  7 19  0 14  0.0000000  0  8G15G 3G19G16G18G 7G21G22
 108256910.05148  84356020.62548  20600615.5334   20600618.8954   20600616.4534
       249.000         222.000
 108332535.58848  84414946.05248  20615008.3074   20615011.3814   20615008.3884
       248.000         220.000
 119507857.79948  93123009.92148  22741585.5004   22741586.9174   22741586.3644
       234.000         199.000
 107552370.42748  83807026.30648  20466545.1144   20466547.2874   20466545.4554
       243.000         226.000
 118812030.42748  92580812.15448  22609168.7844   22609171.0354   22609169.1574
       235.000         197.000
 110230654.64748  85894019.66948  20976192.2754   20976195.6764   20976192.9264
       249.000         222.000
 118246376.03048  92140026.65348  22501542.3304   22501543.4564   22501542.7604
       234.000         189.000
 118352182.71448  92222455.66248  22521690.6764   22521691.3714   22521690.3624
       235.000         190.000
 06  7 19  0 14 30.0000000  0  8G15G 3G19G16G18G 7G21G22
 108301207.03048  84390537.74848  20609044.9264   20609048.3634   20609045.9164
       248.000         221.000
 108295360.55748  84385978.50448  20607934.2164   20607936.9844   20607934.6844
       248.000         221.000
 119438691.22348  93069113.89748  22728423.9054   22728425.3924   22728424.8314
       234.000         199.000
 107584703.75348  83832221.10548  20472698.0334   20472700.1664   20472698.2954
       244.000         226.000
 118797385.31648  92569400.42048  22606382.1174   22606383.9914   22606382.1224
       237.000         197.000
 110263118.49448  85919316.16448  20982369.8944   20982373.2214   20982370.4694
       249.000         222.000
 118325383.96048  92201591.27948  22516577.0114   22516577.8214   22516577.0684
       235.000         189.000
 118278114.96148  92164740.56348  22507596.1474   22507596.4924   22507596.3524
       235.000         190.000
 06  7 19  0 15  0.0000000  0  8G15G 3G19G16G18G 7G21G22
 108345932.81648  84425389.01048  20617555.9924   20617559.2524   20617556.0784
       247.000         221.000
 108258452.14348  84357218.71048  20600910.9084   20600913.7324   20600911.2774
       248.000         221.000
 119369641.89148  93015309.24048  22715284.3894   22715285.2804   22715284.9214
       234.000         199.000
 107617537.09048  83857805.52148  20478945.9024   20478948.0814   20478946.2304
       244.000         226.000
 118783277.86648  92558407.62748  22603697.4424   22603699.3914   22603697.7394
       237.000         196.000
 110295800.37348  85944782.56048  20988589.1034   20988592.5634   20988589.7644
       249.000         222.000
 118404620.78948  92263334.26248  22531655.3414   22531655.9394   22531655.8284
       234.000         187.000
 118204388.15548  92107291.13148  22493566.3654   22493566.7944   22493566.3624
       235.000         192.000
 06  7 19  0 15 30.0000000  0  8G15G 3G19G16G18G 7G21G22
 108391086.20548  84460573.47348  20626148.3484   20626151.6604   20626148.5384
       247.000         221.000
 108221811.59148  84328667.64148  20593938.2584   20593941.1024   20593938.5894
       248.000         221.000
 119300710.65848  92961596.60748  22702167.2654   22702168.5684   22702167.9374
       235.000         201.000
 107650870.66348  83883779.72648  20485289.1224   20485291.2044   20485289.5084
       243.000         226.000
 118769709.86848  92547835.17648  22601115.5054   22601117.4114   22601115.6844
       236.000         195.000
 110328700.84148  85970419.28648  20994849.8324   20994853.2544   20994850.4844
       249.000         222.000
 118484084.91048  92325254.36348  22546777.0204   22546777.2994   22546777.4454
       236.000         188.000
 118131005.14748  92050109.58948  22479602.1034   22479602.7924   22479602.1244
       237.000         193.000
 06  7 19  0 16  0.0000000  0  8G15G 3G19G16G18G 7G21G22
 108436664.88348  84496089.32748  20634821.7034   20634825.1024   20634821.9154
       248.000         221.000
 108185438.85048  84300325.25148  20587016.7924   20587019.6984   20587017.1614
       248.000         221.000
 119231897.47748  92907975.97048  22689072.3494   22689073.7734   22689073.4284
       234.000         200.000
 107684703.43648  83910142.92448  20491727.2254   20491729.3884   20491727.4534
       244.000         226.000
 118756682.05448  92537683.65748  22598636.0834   22598638.2554   22598636.2494
       236.000         195.000
 110361819.75548  85996226.23048  21001152.1304   21001155.6114   21001152.8174
       249.000         222.000
 118563773.75548  92387349.56948  22561941.2064   22561942.3294   22561941.6814
       235.000         190.000
 118057968.61848  91993198.04048  22465703.4404   22465704.1354   22465703.5714
       236.000         193.000
 06  7 19  0 16 30.0000000  0  8G15G 3G19G16G18G 7G21G22
 108482667.72648  84531935.70048  20643575.7904   20643579.0734   20643576.1844
       248.000         221.000
 108149335.36248  84272192.67048  20580146.4394   20580149.3954   20580146.5404
       248.000         221.000
 119163203.19848  92854447.98848  22676000.1174   22676001.4354   22676000.9584
       234.000         200.000
 107719035.98748  83936895.55848  20498260.6504   20498262.6394   20498260.9584
       244.000         226.000
 118744195.62348  92527953.99748  22596259.9924   22596262.0934   22596260.0134
       237.000         196.000
 110395157.66548  86022203.81948  21007496.1204   21007499.5344   21007496.8344
       249.000         221.000
 118643686.06148  92449618.90248  22577147.8294   22577149.6644   22577148.4814
       234.000         190.000
 117985282.23848  91936559.32448  22451871.8934   22451872.2484   22451871.7254
       237.000         193.000
 06  7 19  0 17  0.0000000  0  8G15G 3G19G16G18G 7G21G22
 108529092.27148  84568110.67748  20652410.1184   20652413.4814   20652410.2694
       248.000         222.000
 108113501.12148  84244269.89648  20573327.3434   20573330.4484   20573327.5644
       248.000         221.000
 119094627.73548  92801012.57748  22662950.6574   22662951.9694   22662951.9914
       235.000         202.000
 107753867.77048  83964037.20548  20504888.8884   20504891.0364   20504889.2874
       244.000         226.000
 118732250.53648  92518646.14948  22593987.0264   22593989.2904   22593987.5464
       235.000         196.000
 110428714.21048  86048351.77548  21013881.7034   21013885.1544   21013882.3724
       248.000         221.000
 118723819.43148  92512060.48948  22592396.7154   22592399.2594   22592397.2594
       234.000         192.000
 117912947.95048  91880194.97548  22438106.9724   22438107.4174   22438107.1844
       235.000         192.000
 06  7 19  0 17 30.0000000  0  8G15G 3G19G16G18G 7G21G22
 108575936.96048  84604613.03548  20661324.4154   20661327.7264   20661324.5604
       248.000         221.000
 108077937.10448  84216557.68248  20566559.8524   20566562.8794   20566560.0944
       249.000         221.000
 119026171.55248  92747670.12448  22649924.0034   22649925.2364   22649925.1544
       234.000         200.000
 107789198.50748  83991567.64748  20511612.1714   20511614.3314   20511612.5544
       244.000         226.000
 118720848.30748  92509761.32148  22591817.2004   22591819.4034   22591817.1324
       236.000         196.000
 110462489.86248  86074670.46348  21020309.0334   21020312.4414   21020309.7724
       249.000         221.000
 118804171.99448  92574672.86448  22607687.1074   22607690.5244   22607687.4614
       234.000         193.000
 117840968.71448  91824107.28648  22424409.9064   22424410.4524   22424410.0354
       236.000         193.000
 06  7 19  0 18  0.0000000  0  8G15G 3G19G16G18G 7G21G22
 108623200.85648  84641442.05048  20670318.4944   20670321.6304   20670319.0374
       248.000         221.000
 108042644.71648  84189057.12948  20559843.9914   20559846.9084   20559844.4444
       249.000         222.000
 118957835.98648  92694421.63348  22636920.1594   22636920.8774   22636920.4584
       234.000         200.000
 107825028.38648  84019487.02648  20518430.2634   20518432.5324   20518430.4814
       244.000         226.000
 118709990.27748  92501300.53448  22589750.7484   22589753.2824   22589750.9464
       236.000         196.000
 110496485.40248  86101160.49548  21026778.0984   21026781.6524   21026778.8574
       248.000         221.000
 118884742.35148  92637454.94848  22623019.5244   22623022.6304   22623019.3704
       236.000         194.000
 117769348.03848  91768298.98248  22410780.7964   22410781.4604   22410780.9654
       237.000         193.000
 06  7 19  0 18 30.0000000  0  8G15G 3G19G16G18G 7G21G22
 108670881.25348  84678595.61248  20679391.5494   20679394.9384   20679392.2394
       248.000         220.000
 108007623.77548  84161768.09548  20553179.6234   20553182.6694   20553179.7424
       249.000         221.000
 118889620.48548  92641266.70548  22623939.2344   22623940.0614   22623940.1024
       236.000         201.000
 107861356.63648  84047794.74848  20525343.2694   20525345.6024   20525343.5364
       244.000         225.000
 118699676.83848  92493264.10648  22587788.2594   22587790.6304   22587788.6704
       237.000         195.000
 110530700.16048  86127821.34148  21033289.0264   21033292.4034   21033289.7784
       248.000         221.000
 118965527.96748  92700404.77948  22638392.7384   22638395.4414   22638393.0254
       237.000         193.000
 117698087.93748  91712771.64548  22397220.4444   22397220.6824   22397220.5734
       236.000         193.000
 06  7 19  0 19  0.0000000  0  8G15G 3G19G16G18G 7G21G22
 108718975.65548  84716071.77548  20688543.6284   20688547.0024   20688544.2064
       248.000         220.000
 107972874.38848  84134690.65448  20546567.0304   20546569.9534   20546567.3764
       249.000         222.000
 118821524.78548  92588205.14448  22610980.9894   22610982.3554   22610982.2714
       233.000         201.000
 107898182.49348  84076490.21748  20532351.0084   20532353.2354   20532351.3974
       244.000         225.000
 118689908.10648  92485652.11448  22585929.4684   22585931.4834   22585929.8794
       237.000         196.000
 110565133.92148  86154652.84048  21039841.5184   21039845.0234   21039842.0574
       248.000         221.000
 119046526.52548  92763520.52748  22653806.0054   22653808.2994   22653806.5354
       236.000         190.000
 117627190.76248  91657527.11948  22383729.0094   22383729.6394   22383729.2834
       236.000         193.000
 06  7 19  0 19 30.0000000  0  8G15G 3G19G16G18G 7G21G22
 108767483.33748  84753869.96548  20697774.4644   20697777.6964   20697775.0404
       248.000         221.000
 107938398.28348  84107826.17348  20540006.3474   20540009.4614   20540006.7074
       248.000         221.000
 118753550.39748  92535238.09748  22598045.7254   22598047.1364   22598045.6944
       233.000         199.000
 107935506.43148  84105573.80048  20539453.5374   20539455.7204   20539453.8304
       244.000         225.000
 118680685.67248  92478465.81848  22584174.7834   22584176.4784   22584174.9714
       237.000         196.000
 110599787.84648  86181655.88848  21046436.0274   21046439.3364   21046436.6724
       249.000         221.000
 119127736.89448  92826801.33448  22669259.8424   22669261.3004   22669260.4214
       236.000         190.000
 117556660.47548  91602568.47248  22370307.4674   22370307.9504   22370307.4534
       236.000         194.000
 06  7 19  0 20  0.0000000  0  8G15G 3G19G16G18G 7G21G22
 108816401.99248  84791988.40048  20707083.2704   20707086.6424   20707084.1264
       248.000         220.000
 107904196.03148  84081175.07048  20533497.9364   20533500.8374   20533498.0584
       249.000         222.000
 118685697.40548  92482365.65048  22585133.4294   22585135.0314   22585134.6774
       235.000         201.000
 107973327.84648  84135045.03348  20546650.6964   20546652.8464   20546651.0134
       244.000         225.000
 118672010.37848  92471705.85448  22582523.4104   22582525.8324   22582523.6074
       236.000         195.000
 110634661.83148  86208830.42248  21053072.3734   21053075.6084   21053073.1044
       249.000         221.000
 119209157.24748  92890245.76848  22684753.4994   22684754.5404   22684754.1344
       235.000         189.000
 117486499.29848  91547897.44548  22356956.3714   22356956.7034   22356956.2334
       238.000         194.000
 06  7 19  0 20 30.0000000  0  8G15G 3G19G16G18G 7G21G22
 108865729.10448  84830425.12148  20716469.9634   20716473.2624   20716470.6524
       248.000         220.000
 107870267.50048  84054737.26648  20527041.5714   20527044.6994   20527042.0684
       249.000         222.000
 118617965.64948  92429587.68148  22572244.5724   22572246.1064   22572245.7894
       235.000         202.000
 108011645.68348  84164903.08148  20553942.4934   20553944.4194   20553942.8584
       244.000         225.000
 118663882.10648  92465372.15448  22580976.8774   22580978.7574   22580977.1034
       237.000         194.000
 110669755.18248  86236175.88848  21059750.4094   21059753.6384   21059751.4534
       248.000         221.000
 119290784.71248  92953851.59148  22700286.5684   22700287.4094   22700286.4234
       232.000         187.000
 117416709.55048  91493515.83448  22343675.7614   22343676.3294   22343675.8934
       237.000         194.000
 06  7 19  0 21  0.0000000  0  8G15G 3G19G16G18G 7G21G22
 108915463.52748  84869179.21848  20725934.1274   20725937.3994   20725934.5574
       247.000         220.000
 107836614.02148  84028513.77848  20520637.5524   20520640.5514   20520637.8484
       248.000         222.000
 118550356.17248  92376904.97448  22559379.2784   22559380.5364   22559379.3204
       235.000         202.000
 108050460.13748  84195148.11548  20561328.5434   20561330.5254   20561328.7874
       244.000         225.000
 118656302.17248  92459465.71748  22579534.2834   22579536.5384   22579534.8154
       238.000         194.000
 110705068.89848  86263693.05748  21066470.2774   21066473.5444   21066471.0494
       248.000         220.000
 119372617.98248  93017617.78748  22715858.9244   22715859.7524   22715858.7874
       234.000         187.000
 117347294.30348  91439426.04148  22330466.5984   22330466.9754   22330466.8834
       238.000         194.000
 06  7 19  0 21 30.0000000  0  8G15G 3G19G16G18G 7G21G22
 108965602.72848  84908248.72848  20735475.3374   20735478.2864   20735475.6574
       248.000         220.000
 107803235.31148  84002504.40148  20514285.8484   20514288.7284   20514286.0404
       249.000         222.000
 118482868.28248  92324317.01748  22546536.6354   22546537.5484   22546537.5444
       235.000         201.000
 108089769.99648  84225779.17348  20568808.8754   20568811.0074   20568809.1764
       244.000         225.000
 118649270.41148  92453986.43148  22578196.1494   22578198.2404   22578196.6314
       237.000         194.000
 110740602.19348  86291381.33948  21073232.0284   21073235.3314   21073232.7754
       248.000         220.000
 119454653.98348  93081541.96548  22731469.7604   22731470.8714   22731470.0064
       233.000         187.000
 117278255.72148  91385629.73848  22317329.1234   22317329.6474   22317328.8224
       237.000         195.000
 06  7 19  0 22  0.0000000  0  8G15G 3G19G16G18G 7G21G22
 109016144.69248  84947632.08748  20745093.2724   20745096.0984   20745094.3644
       249.000         220.000
 107770132.22848  83976709.79748  20507986.3594   20507989.3944   20507986.5914
       249.000         222.000
 118415502.52048  92271824.23648  22533717.2154   22533718.3894   22533718.4424
       233.000         201.000
 108129574.75348  84256795.86448  20576383.4244   20576385.6484   20576383.7414
       243.000         225.000
 118642787.50148  92448934.83148  22576962.7004   22576964.6004   22576963.1384
       237.000         195.000
 110776355.34548  86319240.93548  21080035.6224   21080038.9794   21080036.3864
       248.000         220.000
 119536891.25148  93145622.95248  22747119.0494   22747120.6824   22747119.2854
       232.000         186.000
 117209596.52448  91332129.07648  22304263.6644   22304264.0124   22304264.0574
       238.000         196.000
 06  7 19  0 22 30.0000000  0  8G15G 3G19G16G18G 7G21G22
 109067087.91448  84987328.10448  20754787.3234   20754790.2674   20754788.0774
       249.000         220.000
 107737305.72848  83951130.71248  20501739.6994   20501742.6934   20501740.0594
       249.000         222.000
 118348260.18148  92219427.61648  22520921.3614   22520922.7834   22520921.3014
       233.000         202.000
 108169874.55348  84288198.30248  20584052.1784   20584054.4804   20584052.4974
       244.000         224.000
 118636854.61148  92444311.80248  22575833.6114   22575835.8794   22575834.0404
       237.000         194.000
 110812329.09148  86347272.41948  21086881.1844   21086884.5624   21086881.8974
       248.000         220.000
 119619328.50848  93209859.76848  22762806.4674   22762808.1524   22762807.0744
       233.000         188.000
 117141319.72948  91278926.39848  22291270.8244   22291271.5834   22291270.7224
       238.000         197.000
 06  7 19  0 23  0.0000000  0  8G15G 3G19G16G18G 7G21G22
 109118430.20048  85027335.08248  20764557.4664   20764560.5304   20764557.9694
       248.000         219.000
 107704756.38248  83925767.59648  20495546.0254   20495548.8374   20495546.4024
       250.000         223.000
 118281140.70948  92167126.75848  22508148.7644   22508150.3584   22508149.8754
       232.000         200.000
 108210668.55648  84319985.83948  20591815.0564   20591817.2984   20591815.3764
       244.000         224.000
 118631472.10748  92440117.65248  22574809.4434   22574811.5534   22574809.9034
       236.000         194.000
 110848523.08848  86375475.53248  21093768.5494   21093772.1524   21093769.2304
       247.000         219.000
 119701963.12048  93274250.36448  22778531.6564   22778533.5574   22778532.2034
       234.000         190.000
 117073427.72848  91226023.54848  22278351.3784   22278352.0224   22278351.6524
       239.000         195.000
 06  7 19  0 23 30.0000000  0  8G15G 3G19G16G18G 7G21G22
 109170169.46548  85067651.39748  20774403.1074   20774406.2704   20774403.9784
       248.000         220.000
 107672484.33348  83900620.55148  20489404.6734   20489407.5834   20489405.0154
       249.000         223.000
 118214144.42048  92114921.87048  22495399.6874   22495400.8954   22495400.0994
       234.000         201.000
 108251956.02648  84352157.88748  20599671.9384   20599674.0864   20599672.2814
       244.000         225.000
 118626640.18248  92436352.52148  22573889.7824   22573892.0204   22573889.9434
       236.000         194.000
 110884937.17348  86403850.13348  21100698.0164   21100701.4094   21100698.4544
       248.000         219.000
 119784792.99148  93338793.11448  22794293.6214   22794295.9834   22794294.9794
       233.000         189.000
 117005923.20848  91173422.62248  22265505.5324   22265506.3494   22265505.7584
       237.000         196.000
 06  7 19  0 24  0.0000000  0  8G15G 3G19G16G18G 7G21G22
 109222304.20548  85108275.87548  20784323.7694   20784327.2694   20784324.1924
       247.000         219.000
 107640491.01648  83875690.69848  20483316.5204   20483319.5454   20483316.7754
       249.000         223.000
 118147272.16948  92062813.64148  22482674.7024   22482675.9554   22482675.4994
       233.000         202.000
 108293736.77348  84384714.31548  20607622.6364   20607624.7804   20607623.1464
       245.000         225.000
 118622359.84248  92433017.20348  22573075.2074   22573077.4094   22573075.3154
       236.000         194.000
 110921571.97348  86432396.73148  21107669.5714   21107672.7574   21107670.2834
       248.000         219.000
 119867816.79248  93403486.97948  22810092.4044   22810094.9584   22810093.2534
       233.000         188.000
 116938808.99948  91121125.84148  22252734.2354   22252734.8754   22252734.7224
       237.000         196.000
 06  7 19  0 24 30.0000000  0  8G15G 3G19G16G18G 7G21G22
 109274832.31448  85149206.87648  20794319.6504   20794322.9094   20794320.0734
       248.000         219.000
 107608776.59448  83850978.16848  20477281.5324   20477284.5104   20477281.8094
       249.000         223.000
 118080524.18248  92010802.25248  22469972.8144   22469974.4874   22469973.6734
       235.000         203.000
 108336010.01448  84417654.49748  20615666.8004   20615669.1114   20615666.9774
       244.000         224.000
 118618631.27448  92430111.83748  22572365.6984   22572367.8324   22572366.1774
       236.000         194.000
 110958427.58648  86461115.38448  21114682.9774   21114686.2234   21114683.7504
       248.000         219.000
 119951032.19648  93468330.14248  22825927.8354   22825930.2994   22825928.5764
       231.000         187.000
 116872087.50348  91069135.07848  22240037.3084   22240038.4134   22240037.1734
       238.000         198.000
 06  7 19  0 25  0.0000000  0  8G15G 3G19G16G18G 7G21G22
 109327751.93648  85190442.94048  20804390.0644   20804393.1754   20804390.8854
       247.000         218.000
 107577341.96448  83826483.65248  20471299.6094   20471302.7284   20471299.8954
       250.000         223.000
 118013900.81948  91958887.95248  22457295.3134   22457296.0984   22457296.2384
       232.000         203.000
 108378775.40148  84450978.17648  20623804.8964   20623806.9124   20623805.2294
       244.000         224.000
 118615455.18148  92427636.97248  22571761.2514   22571763.4554   22571761.9654
       235.000         193.000
 110995503.97048  86490006.06648  21121738.2764   21121741.6444   21121739.0354
       248.000         219.000
 120034437.39648  93533321.19248  22841799.2134   22841801.0864   22841799.7664
       231.000         185.000
 116805761.46948  91017452.45748  22227415.9444   22227416.8124   22227416.1844
       238.000         197.000
 06  7 19  0 25 30.0000000  0  8G15G 3G19G16G18G 7G21G22
 109381061.03048  85231982.49448  20814534.4474   20814537.3834   20814535.1114
       248.000         219.000
 107546187.72048  83802207.62148  20465370.9874   20465374.1364   20465371.1794
       249.000         223.000
 117947402.50648  91907071.12048  22444640.3724   22444642.2024   22444641.3274
       234.000         203.000
 108422032.31748  84484684.86148  20632036.4214   20632038.3404   20632036.8044
       245.000         224.000
 118612832.26448  92425593.14348  22571261.9684   22571264.3874   22571262.2194
       236.000         194.000
 111032801.54748  86519069.10848  21128835.7764   21128839.1954   21128836.4634
       247.000         219.000
 120118030.79248  93598458.91048  22857706.2674   22857707.2444   22857706.8984
       230.000         182.000
 116739833.64048  90966080.14348  22214870.5444   22214871.0194   22214870.9194
       237.000         196.000
 06  7 19  0 26  0.0000000  0  8G15G 3G19G16G18G 7G21G22
 109434758.18648  85273824.42848  20824752.6054   20824755.8114   20824753.1564
       247.000         218.000
 107515315.15348  83778151.07748  20459496.2434   20459499.2994   20459496.5964
       250.000         223.000
 117881030.31848  91855352.54948  22432010.4634   22432012.0204   22432011.2444
       234.000         203.000
 108465780.43548  84518774.29548  20640361.3684   20640363.4564   20640361.8424
       244.000         224.000
 118610763.14348  92423980.85048  22570868.0414   22570870.5044   22570868.6754
       235.000         193.000
 111070320.81948  86548304.89348  21135975.4794   21135978.8274   21135976.0904
       248.000         219.000
 120201810.67748  93663741.93248  22873648.7064   22873649.6594   22873649.5774
       227.000         181.000
 116674307.08948  90915020.50648  22202401.0024   22202401.8094   22202400.9044
       238.000         198.000
 06  7 19  0 26 30.0000000  0  8G15G 3G19G16G18G 7G21G22
 109488841.15748  85315967.01148  20835044.1934   20835047.3444   20835045.1094
       247.000         218.000
 107484724.50648  83754314.21548  20453675.0534   20453678.2424   20453675.3654
       250.000         223.000
 117814784.19148  91803732.20748  22419403.9534   22419405.4944   22419404.8354
       235.000         203.000
 108510018.99648  84553245.89648  20648779.6924   20648781.7734   20648779.8524
       244.000         224.000
 118609247.80748  92422800.08048  22570580.0284   22570582.1894   22570580.3234
       235.000         194.000
 111108061.43748  86577713.16248  21143157.3994   21143160.6344   21143157.9054
       247.000         219.000
 120285774.83248  93729168.55248  22889626.7664   22889628.2674   22889627.4004
       228.000         182.000
 116609183.87548  90864275.15748  22190008.7334   22190009.2154   22190008.4744
       238.000         198.000
 06  7 19  0 27  0.0000000  0  8G15G 3G19G16G18G 7G21G22
 109543307.75248  85358408.51148  20845408.9024   20845412.1664   20845409.5884
       247.000         219.000
 107454416.18348  83730697.34448  20447907.5614   20447910.7364   20447907.8104
       250.000         223.000
 117748664.37848  91752210.30248  22406821.9624   22406823.3984   22406823.4474
       234.000         203.000
 108554747.11748  84588098.98048  20657291.2844   20657293.1704   20657291.5334
       245.000         224.000
 118608286.78248  92422051.23348  22570397.0074   22570399.2734   22570397.2464
       235.000         193.000
 111146023.63048  86607294.08248  21150381.2684   21150384.6454   21150382.1854
       246.000         218.000
 120369921.19448  93794737.14448  22905639.2774   22905641.9584   22905639.5384
       229.000         183.000
 116544466.73348  90813846.23848  22177693.5314   22177693.9514   22177693.4264
       238.000         198.000
 06  7 19  0 27 30.0000000  0  8G15G 3G19G16G18G 7G21G22
 109598155.67248  85401147.15648  20855846.1244   20855849.3684   20855846.8464
       248.000         218.000
 107424390.58248  83707300.77248  20442193.9304   20442196.8784   20442194.0954
       250.000         223.000
 117682671.14948  91700787.02948  22394263.6004   22394265.2764   22394264.1794
       235.000         203.000
 108599963.62348  84623332.61648  20665895.6804   20665897.6884   20665896.0094
       245.000         224.000
 118607879.96948  92421734.24248  22570319.3654   22570321.9114   22570319.6114
       233.000         193.000
 111184207.03348  86637047.37848  21157647.3374   21157650.7234   21157647.7784
       247.000         218.000
 120454247.53148  93860445.95648  22921686.3424   22921689.7484   22921687.5984
       229.000         183.000
 116480157.67348  90763735.30148  22165455.5184   22165455.9614   22165455.4094
       237.000         197.000
 06  7 19  0 28  0.0000000  0  8G15G 3G19G16G18G 7G21G22
 109653383.63148  85444181.93448  20866355.6314   20866358.7624   20866356.2954
       247.000         218.000
 107394648.84048  83684125.39048  20436534.2844   20436537.2404   20436534.5404
       250.000         223.000
 117616805.11148  91649462.84848  22381729.9274   22381731.3764   22381730.7064
       234.000         204.000
 108645668.70148  84658946.96048  20674592.9884   20674595.2304   20674593.3294
       245.000         224.000
 118608028.53448  92421850.02148  22570348.1124   22570350.2164   22570348.3724
       235.000         193.000
 111222612.39948  86666973.62048  21164955.5994   21164958.9504   21164956.2394
       247.000         218.000
 120538752.68048  93926294.10848  22937767.2314   22937770.1184   22937768.2264
       229.000         181.000
 116416259.50448  90713944.53748  22153296.0394   22153296.7514   22153295.8124
       238.000         198.000
 06  7 19  0 28 30.0000000  0  8G15G 3G19G16G18G 7G21G22
 109708989.07048  85487510.84348  20876936.9914   20876940.3224   20876937.4964
       246.000         218.000
 107365191.22748  83661171.40948  20430928.6634   20430931.5954   20430929.0174
       250.000         223.000
 117551066.28148  91598237.79448  22369220.4674   22369221.7564   22369220.9864
       235.000         205.000
 108691861.10948  84694941.03348  20683383.1194   20683385.2844   20683383.5414
       245.000         224.000
 118608732.06148  92422398.22848  22570481.5704   22570484.1034   22570482.2104
       235.000         193.000
 111261239.30748  86697072.51548  21172306.2014   21172309.5064   21172306.9384
       246.000         218.000
 120623433.99148  93992279.53448  22953881.4914   22953883.3514   22953882.5334
       226.000         178.000
 116352774.64048  90664475.83348  22141215.1994   22141215.9324   22141215.2934
       237.000         198.000
 06  7 19  0 29  0.0000000  0  8G15G 3G19G16G18G 7G21G22
 109764970.17348  85531132.48548  20887589.8244   20887593.0954   20887590.1324
       247.000         218.000
 107336018.57748  83638439.47748  20425377.4004   20425380.3164   20425377.6254
       250.000         223.000
 117485455.25748  91547112.34548  22356735.0364   22356736.3814   22356736.0574
       235.000         205.000
 108738540.23648  84731314.38148  20692265.9194   20692268.0604   20692266.1334
       245.000         223.000
 118609990.95048  92423379.19748  22570721.5164   22570723.7244   22570721.9364
       236.000         193.000
 111300088.22248  86727344.37548  21179698.3964   21179702.3114   21179698.7014
       246.000         218.000
 120708289.91348  94058401.02948  22970028.6844   22970029.5074   22970029.3054
       224.000         177.000
 116289705.96548  90615331.43248  22129213.7554   22129214.7684   22129213.4874
       238.000         200.000
 06  7 19  0 29 30.0000000  0  8G15G 3G19G16G18G 7G21G22
 109821324.95548  85575045.30248  20898313.7244   20898317.0684   20898314.5694
       247.000         218.000
 107307131.57948  83615930.13148  20419880.3744   20419883.1984   20419880.6724
       250.000         223.000
 117419972.72348  91496087.01148  22344274.0054   22344275.2774   22344275.0954
       235.000         204.000
 108785705.15748  84768066.25648  20701241.1064   20701243.2034   20701241.4094
       244.000         223.000
 118611805.53248  92424793.15548  22571066.4254   22571068.9804   22571066.5784
       236.000         193.000
 111339159.22748  86757789.31248  21187133.8064   21187137.2074   21187134.6164
       247.000         217.000
 120793318.47848  94124657.03948  22986209.2484   22986209.8974   22986208.7474
       226.000         177.000
 116227055.67948  90566513.03648  22117291.9384   22117292.6724   22117292.0904
       238.000         200.000
 06  7 19  0 30  0.0000000  0  8G15G 3G19G16G18G 7G21G22
 109878051.84048  85619248.06648  20909108.4714   20909111.8194   20909108.9804
       246.000         217.000
 107278531.20848  83593644.13348  20414437.8914   20414440.7844   20414438.2234
       249.000         223.000
 117354619.08648  91445162.11748  22331837.6674   22331838.9564   22331838.1884
       236.000         205.000
 108833355.70248  84805196.55148  20710308.5764   20710310.7574   20710308.9184
       245.000         223.000
 118614176.64748  92426640.79248  22571517.9724   22571520.1854   22571518.2714
       237.000         194.000
 111378452.86648  86788407.72048  21194611.1304   21194614.5374   21194611.7044
       247.000         218.000
 120878518.23448  94191046.46448  23002422.1844   23002423.5224   23002422.8364
       224.000         178.000
 116164826.94048  90518023.11748  22105450.5564   22105450.8094   22105450.6094
       239.000         200.000
 06  7 19  0 30 30.0000000  0  8G15G 3G19G16G18G 7G21G22
 109935148.08248  85663738.64948  20919973.4344   20919976.9474   20919973.9724
       247.000         218.000
 107250217.56648  83571581.56248  20409049.9674   20409052.8794   20409050.2684
       251.000         224.000
 117289394.37948  91394337.68048  22319425.9364   22319427.1194   22319427.3294
       235.000         204.000
 108881490.58648  84842704.24448  20719468.3044   20719470.6074   20719468.4814
       245.000         223.000
 118617103.77048  92428921.66548  22572075.0594   22572077.2884   22572074.8794
       238.000         193.000
 111417968.59948  86819199.20448  21202130.7204   21202134.0044   21202131.5194
       244.000         216.000
 120963886.73148  94257567.36148  23018667.3694   23018669.6714   23018667.5724
       226.000         178.000
 116103021.26848  90469862.86748  22093689.1334   22093689.6394   22093689.3234
       239.000         200.000
 06  7 19  0 31  0.0000000  0  8G15G 3G19G16G18G 7G21G22
 109992611.44748  85708515.29448  20930908.4164   20930911.7934   20930909.3164
       246.000         218.000
 107222190.78548  83549742.51448  20403716.7644   20403719.5354   20403717.0284
       250.000         223.000
 117224298.77848  91343613.84948  22307038.0154   22307039.6444   22307038.7764
       234.000         205.000
 108930108.52448  84880588.34448  20728719.9384   20728722.3294   20728720.1654
       244.000         222.000
 118620586.54148  92431635.52848  22572737.8304   22572739.5404   22572738.2244
       236.000         193.000
 111457706.21948  86850163.55848  21209691.8924   21209695.9154   21209692.0554
       246.000         217.000
 121049421.76448  94324218.01648  23034944.1064   23034946.5084   23034946.2354
       225.000         176.000
 116041640.89648  90422034.01048  22082008.7704   22082009.3324   22082008.4484
       241.000         201.000
 06  7 19  0 31 30.0000000  0  8G15G 3G19G16G18G 7G21G22
 110050440.93048  85753577.23248  20941913.0214   20941916.4024   20941913.3784
       246.000         218.000
 107194452.71148  83528128.43348  20398438.3764   20398441.1704   20398438.6504
       250.000         224.000
 117159333.93548  91292991.90048  22294676.1384   22294677.4044   22294676.7674
       236.000         205.000
 108979209.64648  84918848.95048  20738063.5124   20738065.8964   20738063.6324
       244.000         222.000
 118624626.30548  92434783.41148  22573506.5964   22573508.4334   22573506.9604
       237.000         194.000
 111497666.69548  86881301.60448  21217297.2304   21217300.0814   21217298.2334
       246.000         217.000
 121135122.44748  94390997.76448  23051252.2164   23051254.1104   23051253.1654
       225.000         176.000
 115980689.31848  90374539.29648  22070410.1524   22070410.6834   22070410.5044
       239.000         201.000
 06  7 19  0 32  0.0000000  0  8G15G 3G19G16G18G 7G21G22
 110108634.04648  85798922.51948  20952986.7754   20952990.2814   20952987.7374
       246.000         218.000
 107167003.45648  83506739.40848  20393214.7394   20393217.6554   20393215.0174
       249.000         223.000
 117094499.20648  91242471.34448  22282338.3724   22282339.5984   22282339.7534
       234.000         204.000
 109028792.55948  84957484.98648  20747499.1054   20747501.1574   20747499.4094
       246.000         222.000
 118629222.84048  92438365.13648  22574380.9784   22574383.1214   22574381.6114
       238.000         193.000
 111537849.92548  86912613.20148  21224942.7174   21224946.7334   21224943.5944
       242.000         215.000
 121220986.27248  94457904.64348  23067591.5984   23067593.0344   23067591.5094
       223.000         175.000
 115920168.38648  90327380.14648  22058893.2784   22058894.0654   22058893.3764
       239.000         201.000
 06  7 19  0 32 30.0000000  0  8G15G 3G19G16G18G 7G21G22
 110167188.92348  85844549.69448  20964129.3334   20964132.6234   20964129.9794
       246.000         217.000
 107139843.90148  83485576.12348  20388046.3634   20388049.3114   20388046.5924
       250.000         223.000
 117029795.49348  91192052.88648  22270025.5254   22270027.0214   22270026.0084
       236.000         205.000
 109078856.83248  84996496.10248  20757025.9934   20757028.0364   20757026.3704
       245.000         222.000
 118634376.35248  92442380.86948  22575362.1854   22575363.6384   22575362.9554
       238.000         194.000
 111578256.26048  86944098.64848  21232631.9974   21232635.8504   21232632.0764
       245.000         216.000
 121307012.09348  94524937.74248  23083962.0094   23083963.1164   23083962.5944
       223.000         175.000
 115860080.88748  90280558.73348  22047458.8334   22047459.7474   22047458.9874
       239.000         201.000
 06  7 19  0 33  0.0000000  0  8G15G 3G19G16G18G 7G21G22
 110226104.26648  85890457.75948  20975340.5064   20975343.8974   20975341.3434
       246.000         217.000
 107112975.48548  83464639.69848  20382933.5554   20382936.5644   20382933.8694
       250.000         223.000
 116965223.91548  91141737.37948  22257738.1564   22257739.4844   22257738.8814
       235.000         205.000
 109129401.95348  85035881.90748  20766644.4034   20766646.5294   20766644.7744
       245.000         222.000
 118640087.52048  92446831.13148  22576448.7254   22576450.4204   22576449.4814
       237.000         193.000
 111618886.51448  86975758.58048  21240364.1804   21240367.3944   21240365.0494
       244.000         216.000
 121393197.89248  94592095.48948  23100362.4704   23100364.4064   23100362.5394
       225.000         175.000
 115800429.56548  90234077.20048  22036107.4054   22036108.2674   22036107.4154
       238.000         201.000
 06  7 19  0 33 30.0000000  0  8G15G 3G19G16G18G 7G21G22
 110285377.22448  85936644.47748  20986619.9174   20986623.2904   20986620.5164
       247.000         218.000
 107086398.02748  83443929.99448  20377875.9324   20377879.0424   20377876.2134
       250.000         223.000
 116900784.24948  91091524.66248  22245475.5814   22245476.7954   22245476.6514
       236.000         206.000
 109180426.50748  85075641.29348  20776354.0154   20776356.2294   20776354.2134
       245.000         222.000
 118646355.91248  92451715.61148  22577641.5994   22577643.5754   22577641.9044
       237.000         195.000
 111659739.79048  87007592.29648  21248138.0184   21248141.5794   21248138.5114
       244.000         215.000
 121479541.76748  94659376.41448  23116793.4454   23116795.4024   23116794.6144
       224.000         174.000
 115741216.37848  90187937.07248  22024839.6234   22024840.4164   22024839.9694
       238.000         201.000
 06  7 19  0 34  0.0000000  0  8G15G 3G19G16G18G 7G21G22
 110345005.50248  85983108.06948  20997966.9794   20997970.2514   20997968.0604
       247.000         218.000
 107060111.81848  83423447.24248  20372873.9904   20372876.8834   20372874.4014
       251.000         224.000
 116836476.69448  91041414.90448  22233238.1554   22233240.0284   22233238.9134
       236.000         206.000
 109231929.12448  85115773.19948  20786154.8014   20786156.8844   20786155.2354
       245.000         222.000
 118653181.22548  92457034.04248  22578940.0904   22578942.3764   22578940.3514
       237.000         194.000
 111700816.02548  87039599.74348  21255954.2834   21255958.1144   21255954.9394
       243.000         215.000
 121566041.50948  94726778.79648  23133254.0734   23133255.6424   23133254.9554
       225.000         173.000
 115682443.40348  90142139.95648  22013655.4674   22013656.1084   22013655.5164
       240.000         201.000
 06  7 19  0 34 30.0000000  0  8G15G 3G19G16G18G 7G21G22
 110404987.82048  86029847.54148  21009381.3334   21009384.6694   21009381.9124
       247.000         218.000
 107034118.02348  83403192.34548  20367927.5154   20367930.3614   20367927.7564
       251.000         224.000
 116772302.09748  90991408.72948  22221026.2324   22221027.6354   22221027.0874
       235.000         205.000
 109283909.68948  85156277.52748  20796046.1584   20796048.4474   20796046.4274
       246.000         221.000
 118660564.07948  92462786.92148  22580345.3474   22580346.9974   22580345.2914
       238.000         194.000
 111742116.09448  87071781.61148  21263813.7514   21263817.2314   21263814.4534
       244.000         215.000
 121652695.38248  94794301.29448  23149743.4184   23149744.8464   23149743.4344
       224.000         172.000
 115624113.24248  90096687.89948  22002555.7634   22002556.5384   22002556.0954
       239.000         202.000
 06  7 19  0 35  0.0000000  0  8G15G 3G19G16G18G 7G21G22
 110465321.89548  86076861.10448  21020862.3084   21020865.8754   21020862.8334
       247.000         218.000
 107008417.32248  83383165.83148  20363036.8714   20363039.8664   20363037.0444
       252.000         224.000
 116708260.79848  90941506.42748  22208839.5544   22208840.7054   22208840.1784
       235.000         205.000
 109336366.91148  85197153.27848  20806028.5704   20806030.6544   20806028.9644
       246.000         222.000
 118668504.22648  92468974.05248  22581856.1844   22581858.1774   22581856.5174
       238.000         195.000
 111783639.88048  87104137.79448  21271715.7494   21271719.0084   21271716.1734
       244.000         215.000
 121739502.00148  94861942.81348  23166262.0514   23166263.8314   23166263.0894
       221.000         169.000
 115566228.90648  90051583.25248  21991540.6654   21991541.5474   21991540.7544
       240.000         203.000
 06  7 19  0 35 30.0000000  0  8G15G 3G19G16G18G 7G21G22
 110526005.39748  86124146.95848  21032409.9934   21032413.5194   21032410.5224
       246.000         218.000
 106983010.13548  83363368.03348  20358201.9824   20358205.1144   20358202.4404
       251.000         224.000
 116644353.09548  90891708.23748  22196678.3124   22196679.7724   22196679.8504
       235.000         205.000
 109389300.06548  85238399.88848  20816101.4604   20816103.6294   20816101.8734
       245.000         222.000
 118677001.71848  92475595.48748  22583473.1644   22583475.0384   22583473.5754
       236.000         194.000
 111825387.27148  87136668.22848  21279660.0324   21279663.2114   21279660.6474
       244.000         214.000
 121826458.56748  94929701.15848  23182809.0994   23182810.7794   23182809.8884
       221.000         170.000
 115508791.97648  90006827.22648  21980610.6484   21980611.4804   21980610.9004
       240.000         203.000
 06  7 19  0 36  0.0000000  0  8G15G 3G19G16G18G 7G21G22
 110587035.51848  86171702.89148  21044023.4324   21044027.1964   21044023.8164
       246.000         216.000
 106957896.19748  83343798.73948  20353422.8474   20353425.9464   20353423.1334
       251.000         224.000
 116580578.65448  90842013.86848  22184542.7314   22184543.5874   22184543.2294
       237.000         205.000
 109442706.93048  85280015.62648  20826264.4194   20826266.6144   20826264.7584
       246.000         221.000
 118686055.29748  92482650.23048  22585195.8114   22585197.8344   22585196.0964
       237.000         194.000
 111867357.67948  87169372.42348  21287646.6064   21287649.8224   21287647.1984
       243.000         214.000
 121913563.15948  94997574.86448  23199384.5524   23199386.3064   23199384.6654
       221.000         170.000
 115451803.79948  89962420.86248  21969766.3714   21969766.9784   21969766.5094
       239.000         203.000
 06  7 19  0 36 30.0000000  0  8G15G 3G19G16G18G 7G21G22
 110648411.63948  86219528.43748  21055703.1874   21055706.5034   21055703.9274
       246.000         217.000
 106933077.88348  83324459.80248  20348700.1184   20348702.9864   20348700.3234
       251.000         224.000
 116516939.32448  90792424.80048  22172432.2104   22172433.4144   22172433.8384
       235.000         205.000
 109496587.97448  85322000.84648  20836517.5984   20836519.6894   20836517.9484
       245.000         221.000
 118695666.49248  92490139.49148  22587024.7734   22587026.7864   22587024.8204
       237.000         193.000
 111909552.43448  87202251.44948  21295676.2744   21295679.2794   21295676.8294
       244.000         214.000
 122000815.05248  95065563.34248  23215988.1314   23215989.9264   23215987.9284
       220.000         168.000
 115395268.14648  89918367.13048  21959007.8434   21959008.6224   21959007.8384
       238.000         204.000
 06  7 19  0 37  0.0000000  0  8G15G 3G19G16G18G 7G21G22
 110710129.08048  86267619.95048  21067447.7424   21067450.9414   21067447.8904
       246.000         216.000
 106908552.95848  83305349.47748  20344033.1744   20344036.0104   20344033.4634
       251.000         224.000
 116453433.06848  90742939.40948  22160347.4144   22160348.7454   22160347.7844
       236.000         206.000
 109550939.61148  85364352.77048  20846860.3694   20846862.2974   20846860.5804
       246.000         221.000
 118705832.75848  92498061.26348  22588959.3134   22588961.5414   22588959.4514
       237.000         194.000
 111951969.24048  87235303.49448  21303747.7494   21303751.0174   21303748.4484
       243.000         213.000
 122088209.84648  95133663.17648  23232618.6774   23232620.8874   23232619.3674
       223.000         171.000
 115339184.97048  89874665.96748  21948335.6994   21948336.4784   21948335.4554
       241.000         204.000
 06  7 19  0 37 30.0000000  0  9G15G 3G19G16G27G18G 7G21G22
 110772186.71848  86315976.54948  21079256.8064   21079259.9374   21079257.4884
       245.000         215.000
 106884323.15248  83286469.11248  20339422.3954   20339425.3634   20339422.4954
       252.000         224.000
 116390061.36848  90693558.90048  22148287.9444   22148289.7004   22148289.6754
       234.000         205.000
 109605761.64448  85407071.23148  20857292.7924   20857294.6504   20857293.2254
       247.000         221.000
 141228208.58758  92255737.32958  24971905.1715   24971907.8455   24971904.8505
       213.000         160.000
 118716554.69548  92506416.03048  22590999.6514   22591001.5674   22591000.0014
       236.000         193.000
 111994609.16448  87268529.40448  21311861.7044   21311865.2434   21311862.3874
       242.000         213.000
 122175747.05248  95201873.98948  23249276.5124   23249279.0214   23249277.2474
       223.000         172.000
 115283557.41548  89831319.84148  21937749.9834   21937750.7224   21937750.0294
       240.000         203.000
 06  7 19  0 38  0.0000000  0  9G15G 3G19G16G27G18G 7G21G22
 110834583.79448  86364597.64748  21091130.3964   21091133.7104   21091131.1144
       243.000         214.000
 106860390.35448  83267820.18148  20334868.2394   20334871.0874   20334868.4914
       252.000         224.000
 116326825.90248  90644284.52448  22136254.7524   22136256.2824   22136255.0244
       236.000         207.000
 109661054.27248  85450156.39948  20867814.6284   20867816.6304   20867815.1604
       246.000         221.000
 141195163.84148  92229988.15248  24965616.3604   24965620.2694   24965616.4394
       213.000         159.000
 118727833.52448  92515204.74348  22593145.9484   22593147.9854   22593146.0874
       237.000         194.000
 112037473.49348  87301930.18248  21320018.3964   21320022.0884   21320018.8844
       243.000         214.000
 122263425.90748  95270195.16548  23265961.1624   23265963.6704   23265961.3774
       219.000         170.000
 115228388.51048  89788331.09148  21927251.7234   21927252.3654   21927251.5684
       240.000         204.000
 06  7 19  0 38 30.0000000  0  9G15G 3G19G16G27G18G 7G21G22
 110897319.26148  86413482.42848  21103068.3964   21103071.8424   21103068.4794
       245.000         214.000
 106836756.41248  83249404.12448  20330370.7694   20330373.6164   20330370.9854
       251.000         224.000
 116263728.14348  90595117.44848  22124247.7034   22124249.2784   22124248.4994
       236.000         206.000
 109716817.80448  85493608.49148  20878426.1414   20878428.1844   20878426.4204
       246.000         221.000
 141162579.59948  92204597.83248  24959415.9174   24959419.2874   24959417.8434
       209.000         159.000
 118739670.15448  92524428.09248  22595398.1814   22595400.5934   22595398.2634
       237.000         193.000
 112080563.45748  87335506.76848  21328218.2044   21328221.8684   21328218.7874
       242.000         213.000
 122351245.56748  95338626.03948  23282672.3914   23282675.4944   23282671.9574
       220.000         168.000
 115173682.30248  89745702.90248  21916841.1744   21916841.9444   21916841.2914
       241.000         204.000
 06  7 19  0 39  0.0000000  0  9G15G 3G19G16G27G18G 7G21G22
 110960390.85148  86462629.12148  21115070.5674   21115073.9004   21115071.3414
       244.000         213.000
 106813421.38948  83231220.99448  20325930.2674   20325933.1664   20325930.6044
       251.000         224.000
 116200768.09548  90546057.68948  22112266.7014   22112268.2854   22112267.1744
       236.000         206.000
 109773050.62148  85537426.26948  20889126.6304   20889128.8184   20889127.0374
       246.000         221.000
 141130455.67848  92179566.21348  24953302.2304   24953306.4524   24953303.8094
       209.000         156.000
 118752063.93048  92534085.58948  22597756.8814   22597758.6594   22597757.0704
       237.000         193.000
 112123878.81948  87369258.99148  21336460.7714   21336464.5404   21336461.6084
       242.000         213.000
 122439203.91348  95407165.00248  23299410.6254   23299412.7254   23299411.6944
       222.000         168.000
 115119440.23348  89703436.36948  21906519.4394   21906519.9724   21906519.5914
       241.000         204.000
 06  7 19  0 39 30.0000000  0  9G15G 3G19G16G27G18G 7G21G22
 111023796.67648  86512036.26248  21127136.5694   21127139.6514   21127137.4414
       245.000         214.000
 106790386.36948  83213271.63348  20321546.7594   20321549.6664   20321546.9974
       252.000         224.000
 116137946.75548  90497106.00948  22100312.2744   22100313.7854   22100312.8884
       236.000         207.000
 109829751.88748  85581609.07248  20899916.5204   20899918.7154   20899916.6494
       246.000         220.000
 141098793.36848  92154894.34148  24947277.1784   24947281.3264   24947277.4974
       209.000         153.000
 118765015.16448  92544177.46848  22600221.6454   22600223.4444   22600222.1684
       237.000         193.000
 112167419.91048  87403187.10248  21344746.4164   21344750.1354   21344746.9174
       243.000         213.000
 122527299.47248  95475810.87048  23316174.6794   23316176.4974   23316175.2804
       221.000         166.000
 115065664.64448  89661533.32248  21896286.4744   21896286.6694   21896286.5894
       241.000         205.000
 06  7 19  0 40  0.0000000  0  9G15G 3G19G16G27G18G 7G21G22
 111087534.02348  86561701.72648  21139265.4864   21139268.5554   21139266.1374
       245.000         214.000
 106767651.27848  83195555.98248  20317220.4174   20317223.3814   20317220.7924
       252.000         224.000
 116075263.93148  90448262.26548  22088384.1664   22088385.2404   22088384.8154
       237.000         207.000
 109886919.78548  85626155.48048  20910795.3354   20910797.3294   20910795.6794
       246.000         220.000
 141067592.66748  92130582.05648  24941341.1594   24941343.7944   24941341.4624
       214.000         157.000
 118778522.62248  92554702.76148  22602791.7884   22602793.7224   22602792.5354
       236.000         192.000
 112211186.22948  87437290.72848  21353074.9344   21353078.5394   21353075.6384
       243.000         213.000
 122615529.74448  95544561.71948  23332964.7064   23332965.9724   23332965.7654
       221.000         165.000
 115012357.22248  89619995.08448  21886142.2284   21886142.9024   21886142.2744
       242.000         205.000
 06  7 19  0 40 30.0000000  0  9G15G 3G19G16G27G18G 7G21G22
 111151600.53048  86611623.68248  21151456.9984   21151460.1054   21151457.6144
       244.000         214.000
 106745216.52348  83178074.35448  20312951.2134   20312954.0554   20312951.4194
       251.000         224.000
 116012719.78048  90399526.57548  22076482.4444   22076483.6914   22076483.1144
       236.000         206.000
 109944552.82348  85671064.34248  20921762.6324   20921764.5064   20921762.8794
       247.000         220.000
 141036853.92748  92106629.80848  24935490.9084   24935494.4644   24935492.0374
       218.000         163.000
 118792585.92448  92565661.19548  22605467.8754   22605469.9354   22605468.3424
       237.000         193.000
 112255177.66248  87471569.75748  21361446.2024   21361449.8064   21361446.7744
       242.000         213.000
 122703892.61248  95613415.88248  23349779.5004   23349781.0554   23349779.4174
       218.000         164.000
 114959519.89448  89578823.16448  21876087.5914   21876088.2854   21876087.9484
       242.000         205.000
 06  7 19  0 41  0.0000000  0  9G15G 3G19G16G27G18G 7G21G22
 111215994.34248  86661800.67948  21163710.4454   21163713.9824   21163711.1164
       243.000         213.000
 106723082.92748  83160827.39848  20308739.4484   20308742.2874   20308739.6384
       251.000         224.000
 115950315.04348  90350899.52148  22064607.0194   22064608.4574   22064607.6104
       237.000         207.000
 110002650.01548  85716334.88148  20932818.0324   20932820.1924   20932818.4034
       246.000         220.000
 141006578.17948  92083038.33048  24929729.7284   24929732.9394   24929731.3324
       217.000         166.000
 118807205.33148  92577052.94548  22608249.6784   22608252.0934   22608250.2504
       237.000         193.000
 112299394.35848  87506024.32548  21369860.4134   21369863.9194   21369860.9354
       242.000         212.000
 122792386.33348  95682372.03048  23366619.2764   23366620.4164   23366618.8124
       221.000         163.000
 114907155.04048  89538019.39448  21866123.0744   21866123.5664   21866122.9194
       244.000         206.000
 06  7 19  0 41 30.0000000  0  9G15G 3G19G16G27G18G 7G21G22
 111280713.04848  86712230.84048  21176026.0824   21176029.3624   21176026.1754
       243.000         213.000
 106701250.71048  83143815.28348  20304584.8644   20304587.7564   20304585.1284
       251.000         224.000
 115888049.68048  90302381.06648  22052758.3984   22052759.7694   22052759.6454
       237.000         206.000
 110061209.95648  85761965.99248  20943961.6654   20943963.7774   20943962.0264
       247.000         220.000
 140976765.36348  92059807.59048  24924057.0924   24924060.4544   24924058.6114
       217.000         169.000
 118822379.89648  92588877.28548  22611137.6344   22611139.8554   22611137.8354
       236.000         193.000
 112343835.98048  87540654.15548  21378317.4174   21378320.8064   21378318.0224
       242.000         212.000
 122881008.98348  95751428.64448  23383483.7394   23383484.2804   23383484.4604
       224.000         163.000
 114855263.97148  89497584.80448  21856248.4884   21856249.1994   21856248.6554
       242.000         207.000
 06  7 19  0 42  0.0000000  0  9G15G 3G19G16G27G18G 7G21G22
 111345754.78348  86762912.70848  21188403.1534   21188406.4514   21188403.7524
       244.000         213.000
 106679720.68948  83127038.65048  20300487.7414   20300490.7934   20300487.9494
       251.000         224.000
 115825924.52848  90253971.87748  22040936.2224   22040937.7134   22040937.7034
       237.000         208.000
 110120231.41948  85807956.73948  20955193.0514   20955195.1464   20955193.4594
       246.000         220.000
 140947416.19448  92036938.12448  24918471.0704   24918474.9444   24918471.4464
       216.000         164.000
 118838108.94448  92601133.70048  22614130.4154   22614132.5884   22614130.7594
       235.000         191.000
 112388502.93048  87575459.56448  21386817.2474   21386820.6764   21386817.6714
       243.000         212.000
 122969759.01848  95820584.53448  23400372.2774   23400373.3184   23400373.9404
       222.000         164.000
 114803849.36248  89457521.48448  21846464.4884   21846465.4654   21846464.5194
       242.000         207.000
 06  7 19  0 42 30.0000000  0  9G15G 3G19G16G27G18G 7G21G22
 111411118.60648  86813845.55548  21200841.5574   21200844.8114   21200842.0984
       243.000         212.000
 106658494.69848  83110498.92148  20296448.6354   20296451.6014   20296448.9404
       251.000         224.000
 115763940.85948  90205672.91448  22029141.4814   22029142.4404   22029141.9474
       237.000         208.000
 110179714.18048  85854306.94448  20966512.4854   20966514.2124   20966512.7784
       246.000         220.000
 140918532.47348  92014431.32948  24912975.2364   24912978.9004   24912975.1394
       220.000         167.000
 118854393.55648  92613823.01948  22617229.5864   22617231.6424   22617229.8194
       237.000         193.000
 112433396.33748  87610441.43148  21395360.2894   21395363.6264   21395360.9524
       242.000         212.000
 123058635.68048  95889839.07548  23417285.2754   23417286.5764   23417285.2624
       224.000         166.000
 114752914.17948  89417831.73448  21836771.8584   21836772.5994   21836772.1194
       242.000         206.000
 06  7 19  0 43  0.0000000  0  9G15G 3G19G16G27G18G 7G21G22
 111476801.62748  86865027.14448  21213340.5394   21213343.6154   21213341.2054
       243.000         211.000
 106637572.64848  83094196.03048  20292467.3564   20292470.2954   20292467.6684
       251.000         225.000
 115702099.19448  90157484.63048  22017373.0504   22017374.8004   22017373.8324
       237.000         208.000
 110239656.73148  85901015.42848  20977919.0294   20977920.9114   20977919.3634
       246.000         219.000
 140890114.34348  91992287.32948  24907567.4344   24907571.2614   24907568.2744
       219.000         169.000
 118871232.69548  92626944.42848  22620434.1014   22620436.2954   22620434.5354
       237.000         193.000
 112478515.80348  87645599.45048  21403946.2084   21403949.6824   21403946.9264
       243.000         212.000
 123147636.76248  95959190.54048  23434221.2034   23434222.8404   23434221.7074
       222.000         166.000
 114702459.96448  89378516.75748  21827170.7254   21827171.3514   21827170.8034
       243.000         206.000
 06  7 19  0 43 30.0000000  0  9G15G 3G19G16G27G18G 7G21G22
 111542801.41948  86916455.55348  21225899.5374   21225902.9674   21225900.3944
       242.000         210.000
 106616954.76648  83078130.15148  20288543.8984   20288546.9194   20288544.0594
       252.000         225.000
 115640399.18948  90109406.72048  22005632.1004   22005633.6074   22005633.2664
       237.000         208.000
 110300057.26448  85948080.76948  20989412.8524   20989414.8314   20989413.1344
       246.000         219.000
 140862161.58648  91970505.98348  24902248.3704   24902252.0614   24902249.0464
       220.000         172.000
 118888625.69548  92640497.42448  22623743.8934   22623745.9644   22623743.8394
       237.000         192.000
 112523860.85948  87680933.25048  21412575.0674   21412578.6194   21412575.9514
       243.000         212.000
 123236759.83348  96028637.08348  23451181.4444   23451182.7084   23451182.1524
       224.000         167.000
 114652488.18648  89339577.71648  21817661.1994   21817661.9644   21817661.1784
       242.000         206.000
 06  7 19  0 44  0.0000000  0  9G15G 3G19G16G27G18G 7G21G22
 111609116.34748  86968129.52148  21238519.0504   21238522.4344   21238519.6704
       241.000         210.000
 106596641.97948  83062302.00948  20284678.5594   20284681.4434   20284678.8024
       252.000         225.000
 115578841.69048  90061439.85848  21993917.9524   21993919.6114   21993918.8694
       236.000         208.000
 110360914.73948  85995502.17748  21000993.6284   21000995.7594   21000994.0114
       246.000         219.000
 140834675.19848  91949088.06348  24897018.2214   24897021.1374   24897019.2414
       217.000         168.000
 118906572.53848  92654481.99248  22627158.6704   22627160.8184   22627158.7194
       237.000         191.000
 112569431.85548  87716443.10848  21421246.9074   21421250.5274   21421247.5704
       242.000         212.000
 123326003.71948  96098177.76248  23468163.7124   23468165.5744   23468164.4154
       223.000         168.000
 114603001.14148  89301016.38148  21808244.2124   21808244.6654   21808244.3334
       244.000         206.000
 06  7 19  0 44 30.0000000  0  9G15G 3G19G16G27G18G 7G21G22
 111675743.85748  87020047.06448  21251197.9844   21251201.2994   21251198.8024
       241.000         209.000
 106576634.68348  83046711.91348  20280871.1744   20280874.1674   20280871.5444
       252.000         225.000
 115517426.97348  90013584.25348  21982230.9614   21982232.4984   21982232.3964
       238.000         208.000
 110422227.51448  86043278.36148  21012660.8114   21012663.2624   21012661.0204
       246.000         219.000
 140807655.16948  91928033.52448  24891875.5704   24891880.0484   24891876.3844
       216.000         169.000
 118925072.30248  92668897.40848  22630679.3874   22630681.1024   22630679.9784
       237.000         192.000
 112615228.63748  87752128.91048  21429961.7174   21429965.2904   21429962.2384
       243.000         212.000
 123415365.80748  96167810.54748  23485168.0534   23485171.1064   23485168.4874
       220.000         166.000
 114554001.07348  89262834.50948  21798920.0344   21798920.4974   21798920.0384
       244.000         207.000
 06  7 19  0 45  0.0000000  0  9G15G 3G19G16G27G18G 7G21G22
 111742683.30748  87072207.67548  21263936.1664   21263939.5464   21263937.4384
       241.000         208.000
 106556934.78648  83031361.34848  20277122.3684   20277125.3964   20277122.5864
       252.000         225.000
 115456156.77848  89965841.26248  21970571.6414   21970572.9904   21970572.3214
       239.000         208.000
 110483995.73948  86091409.43748  21024415.0874   21024417.1724   21024415.4234
       246.000         219.000
 140781103.52048  91907343.92648  24886823.0914   24886826.8644   24886822.8134
       215.000         166.000
 118944125.65348  92683744.18048  22634305.0414   22634306.9844   22634305.3144
       237.000         192.000
 112661252.56748  87787991.70548  21438719.6704   21438723.3884   21438720.3744
       242.000         212.000
 123504845.95948  96237535.30948  23502195.7264   23502198.4924   23502195.5294
       222.000         167.000
 114505490.94348  89225034.39548  21789688.9114   21789689.3754   21789689.0094
       244.000         207.000
 06  7 19  0 45 30.0000000  0  9G15G 3G19G16G27G18G 7G21G22
 111809931.36948  87124608.75548  21276732.8624   21276736.5294   21276733.4594
       240.000         208.000
 106537541.81348  83016249.94648  20273432.1954   20273435.0364   20273432.5684
       252.000         225.000
 115395030.64248  89918210.51748  21958940.1754   21958941.3534   21958941.2314
       238.000         208.000
 110546216.95448  86139893.49748  21036255.4594   21036257.5794   21036255.9414
       246.000         219.000
 140755019.57748  91887018.81748  24881859.9634   24881863.0484   24881860.6714
       216.000         166.000
 118963730.95448  92699021.05248  22638035.8894   22638037.6494   22638036.4764
       236.000         191.000
 112707502.77048  87824030.81348  21447520.6234   21447524.6454   21447521.4184
       243.000         212.000
 123594441.30448  96307349.86048  23519245.6024   23519247.6144   23519245.7554
       223.000         167.000
 114457471.52748  89187616.66348  21780551.2164   21780551.4104   21780551.3054
       244.000         208.000
 06  7 19  0 46  0.0000000  0  9G15G 3G19G16G27G18G 7G21G22
 111877485.39948  87177248.25348  21289587.9664   21289591.5244   21289588.8294
       239.000         207.000
 106518455.93748  83001377.84148  20269800.2464   20269803.1654   20269800.5154
       252.000         225.000
 115334048.49448  89870691.96448  21947335.4394   21947336.5884   21947335.9894
       239.000         208.000
 110608889.37248  86188729.14148  21048181.6054   21048183.7594   21048182.0214
       246.000         219.000
 140729403.03248  91867057.90448  24876984.9584   24876988.7824   24876987.0414
       216.000         163.000
 118983887.21748  92714727.23148  22641871.3784   22641873.4444   22641871.7644
       237.000         192.000
 112753978.56048  87860245.70948  21456364.9404   21456368.6494   21456365.6094
       242.000         212.000
 123684150.03848  96377252.75148  23536316.3004   23536317.9194   23536316.8174
       224.000         166.000
 114409944.19248  89150582.36848  21771506.9504   21771507.3424   21771507.1064
       244.000         208.000
 06  7 19  0 46 30.0000000  0  9G15G 3G19G16G27G18G 7G21G22
 111945343.66148  87230124.81548  21302501.0924   21302504.3874   21302501.0804
       239.000         207.000
 106499678.08248  82986745.74948  20266226.9914   20266229.7514   20266227.2634
       252.000         225.000
 115273211.05348  89823286.18348  21935758.2574   21935759.7634   21935759.2924
       238.000         209.000
 110672011.91248  86237915.52248  21060193.3464   21060195.5914   21060193.5274
       246.000         218.000
 140704254.84548  91847461.95048  24872199.5354   24872203.0894   24872201.1144
       211.000         165.000
 119004594.40648  92730862.71048  22645812.1154   22645813.9064   22645812.6524
       236.000         193.000
 112800680.50448  87896636.82248  21465252.1784   21465255.6664   21465252.6804
       244.000         212.000
 123773970.63748  96447242.84148  23553408.8344   23553410.2784   23553409.1124
       223.000         166.000
 114362911.17248  89113933.25548  21762556.8694   21762557.5874   21762556.8274
       244.000         209.000
 06  7 19  0 47  0.0000000  0  9G15G 3G19G16G27G18G 7G21G22
 112013505.23448  87283237.73248  21315471.6654   21315475.1264   21315471.9814
       239.000         207.000
 106481209.97148  82972355.01748  20262712.5594   20262715.3034   20262712.8164
       252.000         225.000
 115212520.13548  89775994.57548  21924209.2384   21924210.6444   21924209.9714
       238.000         209.000
 110735584.00148  86287452.21048  21072290.8544   21072292.8724   21072291.3124
       246.000         218.000
 140679576.65848  91828232.19448  24867502.6214   24867507.2464   24867503.2594
       214.000         165.000
 119025852.85848  92747427.75948  22649857.0374   22649859.2714   22649857.3964
       235.000         191.000
 112847609.73348  87933205.04548  21474182.8214   21474185.9994   21474183.5724
       244.000         212.000
 123863902.23148  96517319.42048  23570522.4054   23570523.7974   23570522.0994
       223.000         168.000
 114316375.85048  89077671.95448  21753701.6144   21753702.1354   21753701.8454
       244.000         208.000
 06  7 19  0 47 30.0000000  0  9G15G 3G19G16G27G18G 7G21G22
 112081967.63448  87336585.05748  21328499.5654   21328502.7624   21328500.0104
       239.000         205.000
 106463051.88848  82958205.86848  20259257.0924   20259259.9984   20259257.4964
       252.000         225.000
 115151976.03348  89728817.36548  21912688.0584   21912689.3114   21912688.9474
       240.000         209.000
 110799604.30248  86337338.15348  21084473.5484   21084475.4694   21084473.7574
       246.000         218.000
 140655368.23048  91809368.48548  24862896.0984   24862899.8324   24862895.6374
       208.000         159.000
 119047661.68048  92764421.65448  22654007.1994   22654009.2554   22654007.4664
       236.000         192.000
 112894765.97148  87969950.16048  21483156.2214   21483159.3064   21483157.1644
       244.000         211.000
 123953942.69248  96587480.79248  23587656.7064   23587658.7754   23587657.5154
       227.000         170.000
 114270339.30248  89041799.31248  21744940.8084   21744941.7414   21744940.9864
       244.000         209.000
 06  7 19  0 48  0.0000000  0  9G15G 3G19G16G27G18G 7G21G22
 112150729.00848  87390165.35348  21341584.4514   21341587.5214   21341585.3514
       240.000         206.000
 106445204.41348  82944298.75148  20255860.8314   20255863.8784   20255861.0924
       251.000         225.000
 115091579.14548  89681754.87148  21901194.9914   21901196.1894   21901195.9414
       240.000         210.000
 110864071.15248  86387572.06048  21096741.2264   21096743.1514   21096741.6164
       247.000         218.000
 140631629.80248  91790871.02648  24858378.4514   24858382.8284   24858376.8504
       209.000         158.000
 119070020.43648  92781844.07648  22658262.4064   22658264.0264   22658262.7764
       235.000         192.000
 112942149.31948  88006872.24448  21492172.7874   21492176.1074   21492173.4614
       242.000         211.000
 124044090.13348  96657725.54548  23604811.2964   23604813.5744   23604811.8154
       225.000         169.000
 114224803.59448  89006316.93748  21736275.8284   21736276.5954   21736276.0134
       244.000         208.000
 06  7 19  0 48 30.0000000  0  9G15G 3G19G16G27G18G 7G21G22
 112219787.02048  87443976.78448  21354725.8394   21354729.0784   21354726.5684
       240.000         206.000
 106427668.37748  82930634.31148  20252523.8664   20252526.8224   20252524.0754
       252.000         225.000
 115031330.10448  89634807.57648  21889730.0794   21889731.3174   21889730.9764
       239.000         210.000
 110928983.20548  86438152.87648  21109093.4964   21109095.6084   21109094.0784
       245.000         217.000
 140608362.04248  91772740.32748  24853950.9384   24853954.6534   24853952.2064
       210.000         158.000
 119092928.39048  92799694.42848  22662621.0504   22662623.3654   22662621.2174
       235.000         191.000
 112989759.73548  88043971.25948  21501232.6974   21501236.1904   21501233.1964
       243.000         211.000
 124134343.29848  96728052.67148  23621985.5214   23621987.9994   23621985.9774
       224.000         167.000
 114179770.86648  88971226.49748  21727706.5034   21727706.8354   21727706.4744
       244.000         208.000
 06  7 19  0 49  0.0000000  0  9G15G 3G19G16G27G18G 7G21G22
 112289138.84348  87498017.17148  21367923.0434   21367926.3994   21367923.5104
       239.000         206.000
 106410443.46048  82917212.30048  20249246.1744   20249248.8644   20249246.5134
       252.000         225.000
 114971228.73248  89587975.35848  21878292.9814   21878294.4484   21878293.9184
       240.000         210.000
 110994338.41248  86489079.01848  21121530.0194   21121532.3774   21121530.0864
       246.000         217.000
 140585564.35748  91754975.91648  24849613.0854   24849616.7574   24849614.0364
       213.000         162.000
 119116383.88148  92817971.45748  22667084.6854   22667086.3384   22667085.2724
       236.000         190.000
 113037596.72448  88081246.82348  21510335.9704   21510339.1724   21510336.5084
       243.000         211.000
 124224699.53848  96798460.14148  23639179.8234   23639181.8944   23639180.5044
       226.000         167.000
 114135241.84048  88936528.55448  21719232.7744   21719233.2924   21719232.6824
       243.000         208.000
 06  7 19  0 49 30.0000000  0  9G15G 3G19G16G27G18G 7G21G22
 112358782.63848  87552285.06548  21381175.8624   21381179.3314   21381176.7124
       241.000         207.000
 106393530.49348  82904033.37348  20246027.8074   20246030.4614   20246028.2444
       252.000         226.000
 114911275.67148  89541258.69448  21866884.4784   21866885.4654   21866885.2304
       240.000         210.000
 111060135.26848  86540349.28748  21134050.9364   21134053.0634   21134051.3024
       246.000         217.000
 140563237.18448  91737578.13748  24845364.1964   24845368.7074   24845366.8334
       210.000         156.000
 119140386.72348  92836674.98648  22671652.3894   22671653.6494   22671652.9234
       237.000         192.000
 113085660.38148  88118699.01748  21519482.2204   21519485.4324   21519482.9964
       243.000         211.000
 124315157.51248  96868946.87148  23656393.3184   23656395.4264   23656393.4054
       224.000         164.000
 114091218.60248  88902224.73248  21710855.3894   21710855.8294   21710855.5434
       243.000         208.000
 06  7 19  0 50  0.0000000  0  9G15G 3G19G16G27G18G 7G21G22
 112428716.92448  87606779.30748  21394484.1394   21394487.4594   21394485.3674
       241.000         207.000
 106376930.69948  82891098.47048  20242868.8794   20242871.6294   20242869.2184
       250.000         226.000
 114851472.27448  89494658.64848  21855504.2954   21855505.3394   21855505.3474
       239.000         211.000
 111126373.17348  86591963.24248  21146655.5394   21146657.6974   21146655.9714
       245.000         217.000
 140541381.31148  91720547.59648  24841204.9184   24841208.4714   24841206.1484
       210.000         150.000
 119164936.55948  92855804.71748  22676323.8364   22676326.1554   22676324.3344
       235.000         192.000
 113133951.49148  88156328.44748  21528671.4444   21528674.9884   21528672.0024
       242.000         210.000
 124405715.71548  96939511.71148  23673625.8324   23673627.9564   23673625.8894
       224.000         164.000
 114047703.75748  88868317.06448  21702574.9844   21702575.4014   21702574.9754
       244.000         209.000
 06  7 19  0 50 30.0000000  0  9G15G 3G19G16G27G18G 7G21G22
 112498939.66248  87661498.32948  21407846.9604   21407850.1974   21407847.3214
       240.000         206.000
 106360644.96448  82878408.28948  20239769.8784   20239772.5304   20239770.1994
       250.000         226.000
 114791819.30648  89448175.83648  21844152.4264   21844153.8614   21844152.9114
       240.000         210.000
 111193050.57848  86643919.65648  21159343.6764   21159346.0144   21159343.7264
       245.000         217.000
 140519997.34548  91703884.71648  24837135.7234   24837139.4294   24837136.7974
       206.000         153.000
 119190032.85548  92875360.30348  22681099.2674   22681101.3054   22681099.6074
       236.000         191.000
 113182470.14248  88194135.17148  21537904.3244   21537907.8574   21537905.2494
       243.000         210.000
 124496372.97748  97010153.70048  23690877.4174   23690879.5514   23690878.6014
       220.000         163.000
 114004698.96748  88834806.84748  21694391.3524   21694391.8124   21694391.5324
       244.000         209.000
 06  7 19  0 51  0.0000000  0  9G15G 3G19G16G27G18G 7G21G22
 112569449.25848  87716440.86848  21421264.4084   21421267.7684   21421264.4464
       238.000         206.000
 106344674.23648  82865963.56748  20236730.6754   20236733.4174   20236730.9084
       250.000         226.000
 114732317.57348  89401810.85548  21832829.8614   21832830.6684   21832830.7464
       240.000         211.000
 111260166.53448  86696217.81048  21172115.5704   21172117.7454   21172115.9334
       246.000         217.000
 140499085.83648  91687590.08848  24833155.9604   24833159.9704   24833155.7744
       210.000         153.000
 119215675.16848  92895341.33048  22685979.5724   22685980.9504   22685979.7604
       236.000         193.000
 113231216.78648  88232119.57348  21547180.4424   21547183.8714   21547181.1744
       242.000         210.000
 124587128.48448  97080872.28448  23708147.5354   23708149.1934   23708148.1544
       221.000         161.000
 113962206.45848  88801695.80848  21686305.3674   21686305.6424   21686305.6554
       244.000         209.000
 06  7 19  0 51 30.0000000  0  9G15G 3G19G16G27G18G 7G21G22
 112640242.47348  87771604.40448  21434735.9744   21434739.3924   21434736.3274
       240.000         206.000
 106329017.86948  82853763.80148  20233751.2504   20233754.1494   20233751.4454
       250.000         226.000
 114672966.21748  89355563.04848  21821535.6144   21821536.6224   21821536.4014
       240.000         211.000
 111327718.29648  86748855.55348  21184970.2544   21184972.5094   21184970.6084
       246.000         216.000
 140478645.64548  91671662.75848  24829267.0344   24829270.2384   24829268.7724
       211.000         154.000
 119241861.51648  92915746.28848  22690962.4654   22690964.3544   22690962.9054
       234.000         191.000
 113280190.36948  88270280.79648  21556499.9154   21556503.3274   21556500.4674
       243.000         211.000
 124677978.70948  97151664.68248  23725435.7214   23725437.6564   23725436.3274
       223.000         161.000
 113920226.52148  88768984.17748  21678316.8024   21678317.2884   21678317.0784
       244.000         209.000
 06  7 19  0 52  0.0000000  0  9G15G 3G19G16G27G18G 7G21G22
 112711317.79648  87826987.78448  21448261.0224   21448264.3314   21448261.9254
       239.000         206.000
 106313677.21448  82841810.04648  20230832.0654   20230835.0134   20230832.3684
       251.000         226.000
 114613766.75048  89309433.60248  21810270.2964   21810271.6314   21810270.8654
       241.000         213.000
 111395704.67748  86801831.95148  21197907.6554   21197909.7464   21197907.8924
       245.000         216.000
 140458677.88548  91656103.35548  24825467.5694   24825470.7354   24825468.5734
       212.000         156.000
 119268591.87048  92936575.15348  22696048.3304   22696050.5694   22696048.2844
       236.000         190.000
 113329391.42948  88308619.27448  21565862.6354   21565866.2184   21565863.2384
       242.000         210.000
 124768922.86148  97222530.24748  23742742.3964   23742744.0334   23742743.2154
       222.000         163.000
 113878761.65448  88736673.89548  21670426.4374   21670426.6244   21670426.6114
       245.000         209.000
 06  7 19  0 52 30.0000000  0  9G15G 3G19G16G27G18G 7G21G22
 112782673.00448  87882589.24648  21461839.1204   21461842.9344   21461839.9884
       239.000         205.000
 106298652.53448  82830102.50148  20227973.0524   20227975.8684   20227973.3754
       250.000         226.000
 114554719.46948  89263422.74748  21799033.9944   21799035.3514   21799034.9864
       241.000         212.000
 111464124.14948  86855145.82448  21210927.4804   21210929.3954   21210927.9194
       245.000         215.000
 140439182.36648  91640912.09148  24821757.9934   24821760.4304   24821759.0024
       213.000         156.000
 119295865.31948  92957827.19448  22701239.5754   22701240.5804   22701240.3694
       235.000         192.000
 113378819.95048  88347134.99248  21575268.4974   21575272.2494   21575269.0394
       243.000         210.000
 124859958.63148  97293467.20248  23760065.8424   23760067.6614   23760066.5224
       219.000         163.000
 113837813.43048  88704766.18448  21662634.2384   21662634.3864   21662634.2554
       244.000         209.000
 06  7 19  0 53  0.0000000  0  9G15G 3G19G16G27G18G 7G21G22
 112854307.02948  87938407.96548  21475470.7904   21475474.4084   21475471.5464
       240.000         206.000
 106283945.67448  82818642.61348  20225174.4644   20225177.3194   20225174.7284
       251.000         227.000
 114495826.07948  89217531.80248  21787826.9864   21787828.3094   21787828.1834
       241.000         213.000
 111532976.01248  86908796.61948  21224029.5294   21224031.3994   21224029.8434
       245.000         215.000
 140420160.26548  91626089.70048  24818137.8424   24818140.3054   24818137.9214
       216.000         158.000
 119323681.78548  92979502.38448  22706531.4834   22706534.1584   22706532.2554
       231.000         188.000
 113428476.77048  88385828.61648  21584717.9274   21584721.5444   21584718.4204
       243.000         210.000
 124951085.82148  97364475.37448  23777406.8144   23777408.6694   23777406.8304
       218.000         163.000
 113797384.35248  88673263.01848  21654940.7664   21654941.0164   21654940.9054
       244.000         209.000
 06  7 19  0 53 30.0000000  0  9G15G 3G19G16G27G18G 7G21G22
 112926217.90248  87994442.41548  21489155.0764   21489158.5284   21489155.9364
       238.000         204.000
 106269557.21148  82807430.82948  20222436.3334   20222439.2214   20222436.6184
       250.000         226.000
 114437087.19948  89171761.25548  21776649.3114   21776650.6804   21776650.1554
       240.000         212.000
 111602258.73948  86962783.15848  21237213.6414   21237215.5524   21237213.8964
       246.000         215.000
 140401611.69248  91611636.24648  24814608.9294   24814611.8414   24814609.1434
       215.000         159.000
 119352040.55048  93001600.13948  22711928.0234   22711930.4754   22711927.5774
       236.000         191.000
 113478362.23748  88424700.40248  21594210.8874   21594214.4724   21594211.6964
       243.000         210.000
 125042302.87348  97435553.58848  23794765.0124   23794766.7174   23794764.2224
       218.000         162.000
 113757476.30148  88642165.85048  21647346.3774   21647346.8544   21647346.2834
       245.000         210.000
 06  7 19  0 54  0.0000000  0  9G15G 3G19G16G27G18G 7G21G22
 112998402.66248  88050690.27448  21502891.4144   21502894.7694   21502891.7054
       239.000         205.000
 106255487.00648  82796467.03448  20219758.7874   20219761.8004   20219759.0274
       250.000         227.000
 114378502.74848  89126111.04048  21765501.0624   21765502.2784   21765501.6864
       241.000         213.000
 111671970.56548  87017104.07148  21250479.3864   21250481.3524   21250479.8994
       245.000         214.000
 140383536.22748  91597551.49148  24811168.2254   24811171.7584   24811168.5684
       211.000         158.000
 119380939.58748  93024118.84848  22717428.8564   22717429.9034   22717429.6024
       235.000         191.000
 113528475.52348  88463749.70448  21603747.0364   21603750.8924   21603747.8864
       241.000         210.000
 125133607.19048  97506699.78648  23812139.3954   23812141.5444   23812140.1754
       221.000         163.000
 113718090.10948  88611475.33248  21639851.6354   21639851.8724   21639851.8984
       245.000         209.000
 06  7 19  0 54 30.0000000  0  9G15G 3G19G16G27G18G 7G21G22
 113070859.54048  88107150.18248  21516679.7374   21516682.6094   21516680.3554
       240.000         204.000
 106241735.77448  82785751.79348  20217142.0304   20217145.0464   20217142.3114
       250.000         227.000
 114320073.40548  89080581.67948  21754382.4744   21754383.3474   21754383.5894
       240.000         212.000
 111742109.63448  87071757.89948  21263826.3724   21263828.4514   21263826.7354
       246.000         214.000
 140365933.96048  91583835.41448  24807818.8454   24807822.2624   24807817.9564
       218.000         158.000
 119410378.65448  93047058.39748  22723029.7724   22723031.5854   22723030.5784
       232.000         188.000
 113578816.86948  88502976.72348  21613326.5424   21613330.5604   21613327.1364
       242.000         210.000
 125224998.02048  97577913.41648  23829530.5454   23829532.5504   23829531.7474
       220.000         162.000
 113679227.44748  88581192.76248  21632456.1704   21632456.4944   21632456.2594
       244.000         209.000
 06  7 19  0 55  0.0000000  0  9G15G 3G19G16G27G18G 7G21G22
 113143586.44648  88163820.49548  21530519.1434   21530522.1384   21530519.9424
       239.000         204.000
 106228304.10548  82775285.55548  20214586.1294   20214589.0394   20214586.3634
       250.000         227.000
 114261799.53648  89035173.47648  21743292.8554   21743294.1464   21743293.4454
       241.000         212.000
 111812674.14348  87126743.23348  21277254.3794   21277256.3264   21277254.9104
       245.000         214.000
 140348804.76348  91570488.02348  24804559.9364   24804562.0994   24804561.3654
       214.000         158.000
 119440356.69048  93070417.91548  22728734.0974   22728736.4454   22728734.2824
       233.000         188.000
 113629386.08348  88542381.30348  21622949.6624   21622953.3524   21622950.4054
       242.000         209.000
 125316473.26248  97649192.81748  23846937.8114   23846939.1934   23846938.9084
       218.000         160.000
 113640889.93748  88551319.39948  21625160.7114   21625160.8664   21625160.7654
       244.000         209.000
 06  7 19  0 55 30.0000000  0  9G15G 3G19G16G27G18G 7G21G22
 113216580.78648  88220699.20948  21544409.4224   21544412.6264   21544409.9514
       238.000         204.000
 106215192.39548  82765068.64148  20212091.0514   20212093.9184   20212091.3234
       251.000         227.000
 114203681.68648  88989886.85348  21732233.6384   21732234.7944   21732234.9234
       240.000         212.000
 111883662.35648  87182058.71848  21290762.8124   21290765.0494   21290763.0074
       244.000         214.000
 140332148.83148  91557509.34548  24801390.0114   24801393.0004   24801391.4134
       215.000         161.000
 119470872.46248  93094196.44148  22734541.5714   22734543.1734   22734541.9694
       234.000         189.000
 113680183.23748  88581963.48948  21632616.0424   21632619.6234   21632616.6774
       242.000         209.000
 125408030.78748  97720536.34548  23864360.7944   23864362.1844   23864361.5444
       216.000         160.000
 113603079.11848  88521856.45148  21617965.5734   21617965.9154   21617965.5784
       244.000         210.000
 06  7 19  0 56  0.0000000  0  9G15G 3G19G16G27G18G 7G21G22
 113289841.55048  88277785.51048  21558350.4984   21558354.0054   21558350.7594
       239.000         205.000
 106202402.26248  82755102.30448  20209657.1314   20209660.1024   20209657.4044
       250.000         227.000
 114145721.48448  88944723.06548  21721204.1484   21721205.3104   21721204.5894
       242.000         213.000
 111955073.38548  87237703.66648  21304351.9564   21304354.0984   21304351.8454
       245.000         213.000
 140315966.96648  91544900.07048  24798311.0484   24798313.6954   24798311.4854
       217.000         165.000
 119501925.73548  93118393.79948  22740450.7504   22740452.5844   22740451.1184
       233.000         189.000
 113731209.18648  88621723.96348  21642325.9484   21642329.5574   21642326.5194
       242.000         209.000
 125499669.88948  97791943.43448  23881798.8544   23881800.8114   23881799.9934
       219.000         159.000
 113565797.34248  88492805.75548  21610870.8844   21610871.6194   21610871.0874
       244.000         210.000
 06  7 19  0 56 30.0000000  0  9G15G 3G19G16G27G18G 7G21G22
 113363366.37648  88335077.58648  21572341.8574   21572345.4104   21572342.7434
       239.000         205.000
 106189933.65048  82745386.50248  20207284.5364   20207287.3934   20207284.8584
       251.000         227.000
 114087918.97248  88899682.15748  21710204.7904   21710205.8524   21710205.7474
       242.000         214.000
 112026905.31148  87293676.58248  21318021.2654   21318023.1564   21318021.7114
       244.000         212.000
 140300258.13648  91532659.44748  24795321.2864   24795324.3694   24795322.7504
       214.000         161.000
 119533515.24048  93143008.99448  22746462.5774   22746464.0634   22746462.8124
       232.000         187.000
 113782463.44248  88661662.32748  21652079.3914   21652082.7784   21652080.2064
       242.000         208.000
 125591388.72148  97863412.64648  23899252.3614   23899254.2554   23899253.9534
       216.000         159.000
 113529045.33148  88464167.84348  21603877.3484   21603878.0184   21603877.2744
       245.000         211.000
 06  7 19  0 57  0.0000000  0  9G15G 3G19G16G27G18G 7G21G22
 113437154.02148  88392574.45548  21586382.8474   21586386.7144   21586383.7064
       238.000         204.000
 106177788.11748  82735922.45848  20204973.2444   20204976.2044   20204973.6034
       251.000         227.000
 114030275.51948  88854765.18348  21699235.8024   21699236.9024   21699236.6904
       243.000         215.000
 112099156.98748  87349976.57948  21331769.9904   21331772.0834   21331770.4104
       243.000         212.000
 140285023.79348  91520788.54348  24792422.1114   24792424.7634   24792422.9364
       211.000         161.000
 119565640.54548  93168041.73848  22752574.4334   22752577.1104   22752575.0174
       227.000         183.000
 113833946.60248  88701779.07148  21661876.1314   21661879.6194   21661877.0494
       240.000         208.000
 125683186.39348  97934943.30248  23916720.1184   23916722.7034   23916719.7654
       211.000         155.000
 113492825.46648  88435944.58948  21596984.7364   21596985.4644   21596984.9934
       244.000         211.000
 06  7 19  0 57 30.0000000  0  9G15G 3G19G16G27G18G 7G21G22
 113511202.75548  88450274.76248  21600473.7824   21600477.7724   21600473.9544
       238.000         204.000
 106165966.53148  82726710.83048  20202723.6714   20202726.5574   20202723.9064
       251.000         227.000
 113972792.48748  88809973.23248  21688297.0064   21688298.2514   21688298.0124
       241.000         214.000
 112171827.40148  87406602.86348  21345598.6874   21345601.1834   21345598.9114
       244.000         212.000
 140270264.25048  91509287.63748  24789613.5794   24789617.4144   24789613.2434
       210.000         164.000
 119598301.28348  93193491.68648  22758788.9484   22758792.3754   22758788.9934
       230.000         185.000
 113885659.70348  88742074.98448  21671716.8904   21671720.4244   21671717.4764
       243.000         208.000
 125775061.86048  98006534.53848  23934203.1624   23934205.7034   23934203.3734
       213.000         155.000
 113457139.98748  88408137.73348  21590194.1844   21590194.8554   21590194.2194
       244.000         211.000
 06  7 19  0 58  0.0000000  0  9G15G 3G19G16G27G18G 7G21G22
 113585509.83548  88508176.37348  21614614.0194   21614617.7394   21614615.0694
       239.000         204.000
 106154468.99648  82717751.71648  20200535.8314   20200538.5784   20200536.0714
       251.000         227.000
 113915469.61448  88765306.06248  21677388.5414   21677389.9154   21677389.1914
       241.000         213.000
 112244914.22348  87463553.61648  21359506.8774   21359509.0744   21359507.4294
       244.000         212.000
 140255978.85048  91498156.13648  24786894.9854   24786899.0484   24786894.8694
       210.000         163.000
 119631495.41548  93219357.24148  22765107.3064   22765108.8144   22765107.8364
       234.000         188.000
 113937601.67048  88782549.23648  21681601.4664   21681604.7324   21681602.2824
       243.000         208.000
 125867012.18748  98078184.10548  23951701.5734   23951703.7704   23951702.4644
       212.000         154.000
 113421989.21148  88380747.53648  21583504.9934   21583505.9414   21583504.9684
       245.000         211.000
 06  7 19  0 58 30.0000000  0  9G15G 3G19G16G27G18G 7G21G22
 113660072.38448  88566277.06648  21628803.2124   21628806.5154   21628804.0744
       239.000         205.000
 106143295.30348  82709044.94248  20198409.5354   20198412.3364   20198409.8774
       251.000         227.000
 113858306.74148  88720763.57248  21666510.8464   21666511.9274   21666512.0374
       240.000         213.000
 112318414.68248  87520826.68448  21373493.6024   21373495.5634   21373493.7054
       245.000         211.000
 140242166.72148  91487393.44448  24784266.7324   24784269.8574   24784267.4444
       215.000         165.000
 119665221.41048  93245637.22248  22771525.5304   22771526.8484   22771526.1114
       235.000         190.000
 113989771.86248  88823201.33248  21691528.9894   21691532.3114   21691529.6514
       242.000         208.000
 125959035.54748  98149890.61748  23969213.5934   23969215.0104   23969214.0644
       213.000         152.000
 113387374.26248  88353774.87048  21576918.3284   21576918.9054   21576918.4664
       245.000         211.000
 06  7 19  0 59  0.0000000  0  9G15G 3G19G16G27G18G 7G21G22
 113734888.43448  88624575.28348  21643040.5624   21643043.5954   21643041.1114
       240.000         204.000
 106132446.12148  82700591.03748  20196345.0174   20196347.8944   20196345.2604
       251.000         227.000
 113801304.84048  88676346.51448  21655663.6324   21655665.1404   21655663.9624
       241.000         214.000
 112392327.11148  87578420.78548  21387558.8104   21387560.5624   21387559.2634
       244.000         211.000
 140228827.82848  91476999.53248  24781728.8884   24781732.1994   24781729.1214
       215.000         169.000
 119699478.12448  93272330.74548  22778044.6164   22778045.4714   22778044.9904
       231.000         188.000
 114042170.23148  88864031.23048  21701499.8724   21701503.3484   21701500.3884
       241.000         207.000
 126051130.76248  98221653.11048  23986738.3934   23986739.8014   23986739.4184
       212.000         150.000
 113353296.56948  88327220.84148  21570433.7144   21570434.0444   21570433.7524
       245.000         211.000
 06  7 19  0 59 30.0000000  0  9G15G 3G19G16G27G18G 7G21G22
 113809956.53748  88683069.90748  21657325.2824   21657328.5824   21657325.8244
       239.000         204.000
 106121922.60048  82692390.88948  20194342.4744   20194345.3674   20194342.6904
       251.000         228.000
 113744464.80348  88632055.59048  21644847.3584   21644848.6524   21644848.1744
       242.000         214.000
 112466650.81348  87636335.34048  21401702.1004   21401703.8714   21401702.3294
       243.000         211.000
 140215962.41348  91466974.52748  24779279.8874   24779283.6974   24779279.5614
       211.000         166.000
 119734264.93148  93299437.36648  22784663.4194   22784665.3404   22784663.5424
       227.000         184.000
 114094797.57548  88905039.53148  21711514.6144   21711518.2324   21711515.1894
       241.000         207.000
 126143296.81748  98293470.83448  24004276.3774   24004278.0614   24004278.6444
       212.000         147.000
 113319757.94548  88301086.87348  21564051.2054   21564051.8074   21564051.1764
       244.000         211.000
 06  7 19  1  0  0.0000000  0  9G15G 3G19G16G27G18G 7G21G22
 113885275.63248  88741760.09848  21671657.9814   21671661.4004   21671658.7844
       238.000         203.000
 106111726.36148  82684445.76848  20192402.1934   20192404.9754   20192402.4794
       251.000         228.000
 113687788.69248  88587892.39648  21634062.4364   21634063.3904   21634063.3094
       243.000         215.000
 112541384.58748  87694569.44548  21415923.5294   21415925.3744   21415923.4874
       243.000         211.000
 140203571.51448  91457319.28948  24776922.0504   24776926.0544   24776920.8344
       211.000         163.000
 119769582.09248  93326957.25848  22791382.0964   22791386.1624   22791381.9324
       224.000         182.000
 114147654.94148  88946227.08048  21721573.2024   21721576.6064   21721574.0934
       242.000         207.000
 126235532.99348  98365343.20148  24021828.6874   24021829.5174   24021829.6724
       210.000         144.000
 113286760.46948  88275374.58048  21557772.0234   21557772.5314   21557772.0254
       245.000         211.000
 06  7 19  1  0 30.0000000  0  9G15G 3G19G16G27G18G 7G21G22
 113960843.11048  88800643.83648  21686037.8114   21686041.2634   21686038.4534
       236.000         201.000
 106101857.35048  82676755.63348  20190524.2054   20190526.9924   20190524.5214
       251.000         228.000
 113631276.30148  88543856.77748  21623308.4814   21623309.6404   21623309.3804
       242.000         215.000
 112616526.24848  87753121.38348  21430222.4764   21430224.4374   21430222.9664
       243.000         210.000
 140191654.22048  91448033.12248  24774654.2864   24774657.5024   24774655.0024
       212.000         159.000
 119805427.58348  93354888.82848  22798204.0034   22798206.8414   22798203.5774
       231.000         185.000
 114200741.41448  88987593.15948  21731675.1084   21731678.5764   21731675.9584
       241.000         207.000
 126327837.25348  98437268.59148  24039392.5554   24039396.0714   24039392.4424
       206.000         144.000
 113254305.50348  88250085.01448  21551595.9454   21551596.3684   21551595.9734
       245.000         212.000
 06  7 19  1  1  0.0000000  0  9G15G 3G19G16G27G18G 7G21G22
 114036656.22048  88859718.98448  21700464.2234   21700467.7464   21700464.3874
       236.000         201.000
 106092315.43748  82669320.38248  20188708.4824   20188711.2304   20188708.7944
       251.000         228.000
 113574927.55748  88499948.67248  21612585.5524   21612586.7514   21612586.1594
       243.000         215.000
 112692073.15648  87811989.09448  21444598.3784   21444600.4884   21444598.9074
       243.000         210.000
 140180209.73848  91439115.35548  24772476.7624   24772479.4374   24772477.6104
       210.000         155.000
 119841799.27848  93383230.41448  22805126.7124   22805128.0224   22805127.2634
       234.000         187.000
 114254056.43448  89029137.33148  21741820.3874   21741824.0894   21741820.8614
       240.000         207.000
 126420207.27948  98509245.20048  24056970.8564   24056972.8024   24056969.5864
       209.000         146.000
 113222393.28548  88225218.36048  21545523.3564   21545523.8314   21545523.4584
       245.000         212.000
 06  7 19  1  1 30.0000000  0  9G15G 3G19G16G27G18G 7G21G22
 114112713.16448  88918984.14048  21714937.5934   21714940.6334   21714938.1174
       236.000         200.000
 106083101.49948  82662140.68948  20186955.0584   20186957.8264   20186955.4784
       251.000         227.000
 113518743.34148  88456168.77848  21601894.1304   21601895.3384   21601895.2664
       243.000         216.000
 112768023.86048  87871171.46248  21459051.3664   21459053.4444   21459051.5954
       242.000         209.000
 140169238.29548  91430566.18748  24770387.9064   24770392.4434   24770388.3234
       205.000         151.000
 119878696.30548  93411981.32948  22812148.4964   22812149.5704   22812149.1324
       236.000         189.000
 114307600.16748  89070859.71448  21752009.5594   21752013.3354   21752010.0504
       242.000         206.000
 126512641.86548  98581272.14348  24074561.5894   24074562.8864   24074563.3294
       211.000         148.000
 113191024.99648  88200775.55548  21539553.9554   21539554.5534   21539554.0414
       245.000         212.000
 06  7 19  1  2  0.0000000  0  9G15G 3G19G16G27G18G 7G21G22
 114189011.63548  88978437.49448  21729456.8434   21729459.8964   21729457.3334
       237.000         201.000
 106074215.71848  82655216.70948  20185263.9824   20185266.8924   20185264.1504
       251.000         227.000
 113462724.08248  88412517.41848  21591234.1384   21591235.4264   21591234.8244
       243.000         216.000
 112844376.22448  87930666.81748  21473580.6724   21473582.8324   21473581.1344
       241.000         209.000
 140158739.32448  91422385.23048  24768391.1334   24768394.0344   24768390.6044
       206.000         153.000
 119916117.14048  93441140.42348  22819269.5744   22819270.1454   22819269.9164
       235.000         188.000
 114361372.41048  89112760.15848  21762242.1014   21762245.8684   21762242.7964
       240.000         207.000
 126605138.92948  98653347.80748  24092163.1564   24092163.3304   24092164.7644
       207.000         147.000
 113160202.16948  88176757.78448  21533688.7114   21533689.3664   21533688.9434
       244.000         212.000
 06  7 19  1  2 30.0000000  0  9G15G 3G19G16G27G18G 7G21G22
 114265550.98148  89038078.53448  21744021.7644   21744025.1124   21744022.3654
       237.000         202.000
 106065659.89948  82648549.84048  20183635.8774   20183638.7084   20183636.1344
       251.000         227.000
 113406871.97348  88368996.30448  21580605.5194   21580606.9594   21580606.3664
       242.000         216.000
 112921129.63848  87990474.68348  21488186.2614   21488188.5124   21488186.6284
       242.000         208.000
 140148713.69948  91414573.07848  24766482.8324   24766486.2764   24766480.6724
       197.000         148.000
 119954061.86048  93470707.74048  22826489.5874   22826490.9574   22826490.3204
       232.000         187.000
 114415374.42348  89154839.63648  21772518.2404   21772522.1494   21772518.7914
       240.000         206.000
 126697698.53748  98725472.13148  24109776.0874   24109777.8414   24109774.8614
       200.000         142.000
 113129927.14948  88153166.88148  21527927.5104   21527927.8794   21527927.3904
       245.000         212.000
 06  7 19  1  3  0.0000000  0  9G15G 3G19G16G27G18G 7G21G22
 114342329.84548  89097906.20948  21758632.5464   21758635.9454   21758633.1214
       236.000         202.000
 106057435.79248  82642141.44348  20182071.0064   20182073.6794   20182071.3114
       251.000         227.000
 113351188.40948  88325606.52548  21570009.2284   21570010.7274   21570009.9034
       241.000         216.000
 112998283.26748  88050594.40348  21502868.0114   21502870.2714   21502868.4354
       241.000         208.000
 140139161.98048  91407130.20548  24764665.4764   24764668.9194   24764663.8144
       198.000         149.000
 119992530.10748  93500683.01748  22833808.9464   22833811.3884   22833809.4064
       231.000         188.000
 114469607.12948  89197098.87848  21782838.6424   21782842.3724   21782839.5234
       240.000         206.000
 126790319.80548  98797644.53348  24127399.6214   24127401.7034   24127401.6914
       193.000         137.000
 113100202.08348  88130004.50348  21522270.8354   21522271.3394   21522270.7924
       244.000         211.000
 06  7 19  1  3 30.0000000  0  9G15G 3G19G16G27G18G 7G21G22
 114419344.06248  89157917.28648  21773287.6384   21773291.5734   21773287.9454
       237.000         202.000
 106049541.72548  82635990.22648  20180568.7804   20180571.5834   20180569.1074
       252.000         228.000
 113295671.81448  88282346.84848  21559444.7584   21559446.1504   21559445.4134
       243.000         216.000
 113075832.72048  88111022.56448  21517625.3074   21517627.3934   21517625.7854
       242.000         208.000
 140130081.81048  91400054.82648  24762937.5654   24762941.6724   24762936.3234
       201.000         149.000
 120031518.37748  93531063.50948  22841228.1394   22841230.7404   22841228.3514
       232.000         187.000
 114524068.27748  89239536.13748  21793202.3054   21793205.9434   21793203.0724
       241.000         206.000
 126882999.19148  98869862.17748  24145035.7934   24145039.6604   24145035.4214
       198.000         139.000
 113071025.95848  88107269.87348  21516718.8174   21516719.3834   21516718.8934
       245.000         211.000
 06  7 19  1  4  0.0000000  0 10G11G15G 3G19G16G27G18G 7G21G22
 139458630.85658  90876851.43558  24635161.7025   24635163.0145   24635161.5295
       205.000         143.000
 114496592.34148  89218110.74848  21787987.3824   21787991.4644   21787988.2774
       236.000         201.000
 106041979.03448  82630097.22148  20179129.6664   20179132.4264   20179129.9524
       252.000         228.000
 113240323.85748  88239218.57248  21548912.5944   21548913.8294   21548913.6364
       242.000         216.000
 113153777.23248  88171758.55848  21532457.7274   21532459.8424   21532458.1604
       241.000         207.000
 140121473.83948  91393347.32648  24761299.7224   24761303.2184   24761299.4724
       210.000         154.000
 120071026.34548  93561848.94448  22848746.6904   22848748.5884   22848747.2484
       232.000         189.000
 114578758.72148  89282152.06148  21803609.4574   21803613.2204   21803610.0444
       240.000         205.000
 126975736.13048  98942124.71148  24162684.4004   24162686.6084   24162686.7624
       199.000         143.000
 113042400.92148  88084964.66948  21511271.8074   21511272.3774   21511271.9664
       245.000         212.000
 06  7 19  1  4 30.0000000  0 10G11G15G 3G19G16G27G18G 7G21G22
 139362257.94948  90801755.64948  24616822.6634   24616824.3844   24616823.7284
       208.000         146.000
 114574071.87448  89278484.39848  21802731.0634   21802735.0404   21802731.3544
       235.000         199.000
 106034747.35248  82624462.14848  20177753.4264   20177756.4324   20177753.7114
       251.000         228.000
 113185144.27248  88196221.50648  21538412.1954   21538413.4174   21538412.8354
       243.000         216.000
 113232114.08048  88232800.26348  21547364.7294   21547366.8644   21547364.7744
       241.000         207.000
 140113337.06448  91387007.00848  24759751.8744   24759754.3214   24759751.5604
       207.000         152.000
 120111051.71048  93593037.54148  22856363.6074   22856365.2754   22856364.2004
       235.000         190.000
 114633677.44348  89324945.85848  21814060.2054   21814063.8044   21814060.9294
       242.000         205.000
 127068527.90148  99014429.95948  24180341.4004   24180344.5824   24180342.6844
       206.000         148.000
 113014326.75948  88063088.71248  21505929.3734   21505929.8444   21505929.5584
       245.000         211.000
 06  7 19  1  5  0.0000000  0 10G11G15G 3G19G16G27G18G 7G21G22
 139265999.06648  90726748.76648  24598505.1434   24598506.5934   24598504.8344
       209.000         144.000
 114651781.74248  89339037.53848  21817518.9874   21817522.2974   21817519.2764
       237.000         199.000
 106027848.24148  82619086.21448  20176440.5894   20176443.5424   20176440.8234
       251.000         228.000
 113130134.72648  88153356.93048  21527944.3984   21527945.3774   21527945.4744
       242.000         217.000
 113310842.44348  88294147.04148  21562346.1444   21562348.3404   21562346.7944
       241.000         206.000
 140105671.99948  91381034.16048  24758292.1334   24758296.9154   24758292.3584
       205.000         150.000
 120151593.76248  93624628.75148  22864078.7164   22864080.4764   22864079.1694
       236.000         191.000
 114688825.42848  89367918.31948  21824554.6374   21824557.8334   21824555.7134
       240.000         204.000
 127161374.14848  99086777.68248  24198011.4964   24198012.9804   24198010.8304
       206.000         152.000
 112986806.31448  88041644.22848  21500692.4884   21500692.9374   21500692.6134
       245.000         212.000
 06  7 19  1  5 30.0000000  0 10G11G15G 3G19G16G27G18G 7G21G22
 139169855.28648  90651831.53348  24580209.1354   24580211.2524   24580210.4904
       207.000         146.000
 114729720.11148  89399768.72648  21832350.2454   21832353.5384   21832351.4804
       236.000         198.000
 106021282.49848  82613970.05948  20175191.1724   20175194.0904   20175191.5294
       251.000         228.000
 113075296.16748  88110625.58948  21517508.9524   21517510.0124   21517509.8264
       243.000         216.000
 113389960.27048  88355797.30748  21577401.7744   21577403.7474   21577402.4514
       241.000         206.000
 140098477.97548  91375428.42848  24756923.9234   24756927.0884   24756924.5824
       211.000         153.000
 120192651.77948  93656622.02648  22871891.5404   22871893.2404   22871892.2134
       234.000         189.000
 114744202.70648  89411069.43548  21835092.4314   21835095.7294   21835093.3294
       240.000         204.000
 127254273.83348  99159167.05748  24215690.0474   24215691.9784   24215690.3594
       206.000         150.000
 112959840.47348  88020631.90548  21495561.0564   21495561.4364   21495561.2664
       245.000         211.000
 06  7 19  1  6  0.0000000  0 10G11G15G 3G19G16G27G18G 7G21G22
 139073826.97748  90577004.29448  24561936.3804   24561938.3574   24561936.4564
       205.000         147.000
 114807884.75448  89460676.22748  21847224.4564   21847227.7474   21847224.5984
       235.000         198.000
 106015050.53448  82609113.97248  20174005.3994   20174008.1794   20174005.6884
       251.000         228.000
 113020629.14748  88068027.92148  21507105.8914   21507107.2274   21507106.8334
       242.000         217.000
 113469465.49048  88417749.42648  21592531.0824   21592533.1664   21592531.1584
       240.000         205.000
 140091754.95048  91370189.63848  24755644.9534   24755646.9064   24755646.1094
       217.000         155.000
 120234223.96748  93689015.93948  22879802.3464   22879803.8714   22879802.5784
       235.000         190.000
 114799809.39748  89454399.32548  21845673.7174   21845677.4574   21845674.5154
       238.000         204.000
 127347225.00748  99231596.52848  24233376.7694   24233379.3874   24233377.9734
       200.000         144.000
 112933430.26248  88000052.53048  21490535.1664   21490535.6334   21490535.3014
       244.000         212.000
 06  7 19  1  6 30.0000000  0 10G11G15G 3G19G16G27G18G 7G21G22
 138977915.77948  90502268.31148  24543684.0474   24543686.8734   24543685.2644
       210.000         144.000
 114886274.50348  89521759.15148  21862141.4844   21862144.8554   21862141.7664
       236.000         198.000
 106009153.48848  82604518.87448  20172883.1664   20172885.9354   20172883.4424
       252.000         228.000
 112966135.02148  88025564.96848  21496736.1384   21496737.2914   21496736.5264
       243.000         217.000
 113549356.86148  88480002.44748  21607734.1544   21607735.9574   21607734.5764
       240.000         205.000
 140085503.05048  91365318.03648  24754455.2094   24754457.0794   24754455.5374
       210.000         154.000
 120276309.80348  93721810.09848  22887811.2534   22887812.8894   22887811.7054
       236.000         190.000
 114855646.02448  89497908.37448  21856298.9814   21856303.0034   21856299.3384
       238.000         203.000
 127440227.07648  99304065.63048  24251072.3984   24251077.1014   24251073.1304
       200.000         140.000
 112907577.41948  87979907.47648  21485615.5244   21485616.1974   21485615.4974
       245.000         212.000
 06  7 19  1  7  0.0000000  0 10G11G15G 3G19G16G27G18G 7G21G22
 138882122.86548  90427624.46848  24525456.3424   24525458.1954   24525457.2074
       211.000         149.000
 114964887.64848  89583016.14348  21877101.0954   21877104.3094   21877101.8974
       236.000         197.000
 106003592.36148  82600185.53148  20171824.9604   20171827.7314   20171825.2304
       252.000         228.000
 112911815.05448  87983237.73148  21486399.3724   21486400.7074   21486400.3544
       242.000         216.000
 113629633.37248  88542555.56548  21623009.7654   21623012.1684   21623010.1224
       239.000         205.000
 140079722.28148  91360813.54948  24753354.5374   24753358.6924   24753353.7414
       210.000         156.000
 120318908.06848  93755003.55548  22895917.4184   22895918.8304   22895918.0054
       235.000         189.000
 114911712.84848  89541596.80048  21866968.2814   21866972.0754   21866968.8644
       238.000         203.000
 127533278.78048  99376573.42548  24268782.0814   24268784.4894   24268782.3234
       206.000         141.000
 112882283.09548  87960197.62748  21480802.1994   21480802.9894   21480802.3844
       244.000         212.000
 06  7 19  1  7 30.0000000  0 10G11G15G 3G19G16G27G18G 7G21G22
 138786447.92848  90353072.58048  24507250.5554   24507251.8974   24507250.2694
       219.000         151.000
 115043721.16848  89644444.84748  21892102.5774   21892105.8344   21892103.0154
       236.000         197.000
 105998366.86048  82596113.71548  20170830.4854   20170833.3764   20170830.7884
       252.000         228.000
 112857668.81248  87941045.85348  21476095.5564   21476096.8974   21476096.0934
       243.000         218.000
 113710291.64348  88605406.15548  21638358.6834   21638361.0534   21638358.9064
       239.000         204.000
 140074410.97648  91356674.87748  24752345.4384   24752346.9874   24752345.8894
       211.000         155.000
 120362016.57948  93788594.61648  22904120.6734   22904122.1984   22904121.0584
       235.000         189.000
 114968008.95248  89585463.88648  21877681.2374   21877684.8714   21877681.8714
       238.000         203.000
 127626377.95748  99449118.25748  24286499.9504   24286499.4584   24286501.9544
       203.000         141.000
 112857547.77648  87940923.37848  21476095.0764   21476095.9034   21476095.2234
       244.000         212.000
 06  7 19  1  8  0.0000000  0 10G11G15G 3G19G16G27G18G 7G21G22
 138690891.95548  90278613.40748  24489065.8754   24489067.5804   24489067.0844
       214.000         152.000
 115122773.00248  89706043.68348  21907145.6204   21907148.7364   21907146.7874
       236.000         197.000
 105993477.59148  82592303.89248  20169900.0764   20169903.0054   20169900.3804
       251.000         228.000
 112803697.26448  87898990.09748  21465825.5134   21465826.4154   21465826.4224
       243.000         217.000
 113791329.79448  88668552.77648  21653779.6344   21653782.0944   21653779.8814
       239.000         204.000
 140069568.76048  91352901.72148  24751422.8444   24751424.0864   24751424.4274
       207.000         150.000
 120405633.86148  93822582.11148  22912420.0784   22912422.4624   22912420.3114
       233.000         189.000
 115024534.31648  89629509.62448  21888437.7024   21888441.5054   21888438.4384
       239.000         203.000
 127719523.02548  99521698.83748  24304224.8754   24304224.6334   24304220.7294
       195.000         140.000
 112833372.27448  87922085.33648  21471494.7564   21471495.2464   21471494.7734
       245.000         212.000
 06  7 19  1  8 30.0000000  0 10G11G15G 3G19G16G27G18G 7G21G22
 138595455.99648  90204247.74248  24470905.1524   24470907.4514   24470904.4554
       216.000         154.000
 115202041.68448  89767811.48948  21922229.8754   21922233.3524   21922230.3514
       236.000         199.000
 105988925.52248  82588756.82848  20169033.8044   20169036.8144   20169033.9474
       251.000         229.000
 112749901.54548  87857071.35648  21455588.2674   21455589.1974   21455589.4274
       243.000         218.000
 113872746.28148  88731994.20148  21669272.8924   21669275.1924   21669273.3274
       239.000         204.000
 140065195.93448  91349494.37148  24750591.5884   24750594.5144   24750593.4444
       206.000         151.000
 120449758.57348  93856965.01548  22920816.9334   22920819.5324   22920817.1244
       235.000         190.000
 115081289.18448  89673734.19348  21899237.7684   21899241.3414   21899238.3544
       239.000         202.000
 127812713.33248  99594314.62848  24321955.3994   24321958.7544   24321957.6804
       190.000         132.000
 112809758.14248  87903684.73448  21467001.2964   21467001.5464   21467001.3284
       244.000         211.000
 06  7 19  1  9  0.0000000  0 10G11G15G 3G19G16G27G18G 7G21G22
 138500138.96248  90129974.73248  24452767.1134   24452769.7914   24452768.0244
       213.000         153.000
 115281523.43148  89829745.30648  21937355.2024   21937358.7204   21937355.7204
       238.000         199.000
 105984709.07948  82585471.29148  20168231.4794   20168234.4284   20168231.7514
       251.000         228.000
 112696280.29548  87815288.56848  21445384.4084   21445385.7394   21445385.2794
       242.000         217.000
 113954537.24048  88795727.41248  21684837.1114   21684839.3864   21684837.3134
       239.000         203.000
 140061289.88048  91346450.71448  24749847.0734   24749850.4434   24749847.5624
       199.000         146.000
 120494387.72948  93891740.99348  22929310.0974   22929311.9384   22929310.7374
       235.000         189.000
 115138271.69048  89718136.14648  21910081.3424   21910084.6984   21910082.1334
       238.000         202.000
 127905945.43948  99666962.92348  24339697.0764   24339700.7104   24339701.9744
       190.000         134.000
 112786704.26848  87885720.68848  21462614.2124   21462614.4594   21462614.3994
       244.000         212.000
 06  7 19  1  9 30.0000000  0 10G11G15G 3G19G16G27G18G 7G21G22
 138404943.42948  90055796.42648  24434652.2924   24434654.6004   24434652.3124
       212.000         152.000
 115361217.86048  89891844.84948  21952520.3554   21952524.4254   21952521.5054
       238.000         199.000
 105980830.71648  82582449.18948  20167493.4094   20167496.4324   20167493.6524
       251.000         228.000
 112642836.06048  87773643.70948  21435214.2954   21435215.5174   21435214.8644
       243.000         218.000
 114036702.31048  88859752.15048  21700472.6024   21700474.7794   21700472.6644
       239.000         203.000
 140057851.90148  91343771.69748  24749193.2294   24749193.8744   24749189.7904
       201.000         140.000
 120539521.30648  93926910.01548  22937898.5824   22937900.1204   22937899.1084
       236.000         190.000
 115195483.56848  89762716.82448  21920968.0824   21920971.9414   21920969.1094
       238.000         202.000
 127999219.38048  99739643.91148  24357450.1584   24357448.3294   24357453.5234
       195.000         137.000
 112764213.00748  87868195.04948  21458333.9724   21458334.7324   21458334.1174
       244.000         211.000
 06  7 19  1 10  0.0000000  0 10G11G15G 3G19G16G27G18G 7G21G22
 138309872.19348  89981714.98048  24416559.4954   24416562.7574   24416559.2194
       212.000         151.000
 115441125.02048  89954110.16748  21967726.2784   21967730.1584   21967727.0744
       239.000         199.000
 105977293.15148  82579692.64548  20166820.3404   20166823.1544   20166820.6224
       251.000         228.000
 112589572.00148  87732139.25348  21425078.4104   21425079.7564   21425079.5324
       243.000         218.000
 114119241.55648  88924068.45148  21716179.5164   21716181.5734   21716180.0894
       239.000         203.000
 140054883.29948  91341458.54348  24748628.9184   24748629.2364   24748626.5844
       202.000         142.000
 120585159.93148  93962472.58648  22946583.7834   22946585.0394   22946584.2984
       235.000         190.000
 115252926.68248  89807477.69148  21931899.1974   21931902.8754   21931900.0644
       238.000         201.000
 128092535.90348  99812358.13748  24375206.5774   24375206.6024   24375206.7014
       184.000         129.000
 112742287.65648  87851110.37248  21454161.8844   21454162.4154   21454161.6594
       244.000         211.000
 06  7 19  1 10 30.0000000  0  9G11G15G 3G19G16G27G18G 7G22
 138214926.14848  89907731.06748  24398491.9144   24398494.2874   24398492.0084
       213.000         153.000
 115521243.13548  90016539.85948  21982972.1404   21982975.8054   21982971.9914
       239.000         197.000
 105974096.73448  82577201.93148  20166212.0454   20166214.9044   20166212.2664
       252.000         228.000
 112536488.43748  87690775.44448  21414977.0004   21414978.4914   21414977.6234
       244.000         219.000
 114202152.78448  88988674.59448  21731956.7344   21731959.1754   21731956.9494
       238.000         203.000
 120052440.00058 111339565.00658  24748153.7915   24748155.1045   24748153.4485
       204.000         144.000
 120631302.09148  93998427.52648  22955364.0344   22955365.6714   22955364.3484
       234.000         189.000
 115310601.01448  89852418.71148  21942874.0754   21942878.0104   21942874.5894
       238.000         201.000
 112720929.27948  87834467.49048  21450097.5134   21450097.7894   21450097.8164
       243.000         211.000
 06  7 19  1 11  0.0000000  0  9G11G15G 3G19G16G27G18G 7G22
 138120104.36848  89833844.00948  24380448.1574   24380450.2214   24380448.4264
       213.000         151.000
 115601568.71748  90079131.22548  21998257.6384   21998260.4944   21998258.2244
       238.000         194.000
 105971240.48948  82574976.29048  20165668.5334   20165671.4514   20165668.7624
       252.000         229.000
 112483584.71848  87649551.77148  21404909.8454   21404911.1544   21404910.9434
       243.000         219.000
 114285432.88748  89053568.18248  21747804.4334   21747806.8354   21747804.5674
       238.000         203.000
 120050407.56948 111337981.29948  24747765.6034   24747769.1584   24747768.0654
       200.000         145.000
 120677944.75048  94034772.46848  22964239.6604   22964241.7614   22964239.8184
       233.000         189.000
 115368505.05348  89897538.73648  21953893.0494   21953896.8474   21953893.6334
       237.000         201.000
 112700137.09648  87818265.80348  21446140.6884   21446141.2744   21446140.5964
       245.000         212.000
 06  7 19  1 11 30.0000000  0  9G11G15G 3G19G16G27G18G 7G22
 138025407.27248  89760054.13548  24362428.0414   24362430.4614   24362427.3674
       217.000         153.000
 115682099.41948  90141882.42748  22013582.1594   22013584.0364   22013582.8904
       237.000         194.000
 105968724.62248  82573015.88548  20165189.6744   20165192.7034   20165190.1064
       252.000         229.000
 112430861.56548  87608468.79448  21394877.0944   21394878.2824   21394877.6654
       244.000         219.000
 114369079.29048  89118747.19948  21763721.7654   21763724.0254   21763722.3274
       239.000         201.000
 120048841.06648 111336760.63648  24747467.7154   24747471.5864   24747468.2244
       207.000         147.000
 120725085.85748  94071505.80948  22973210.1784   22973212.1384   22973210.6404
       233.000         187.000
 115426638.41048  89942837.44448  21964955.3154   21964959.2984   21964956.0954
       237.000         200.000
 112679911.56948  87802505.65548  21442291.9144   21442292.5764   21442292.0544
       244.000         212.000
 06  7 19  1 12  0.0000000  0  9G11G15G 3G19G16G27G18G 7G22
 137930835.65748  89686362.00348  24344431.8864   24344434.8854   24344432.7884
       215.000         153.000
 115762833.23048  90204791.90148  22028945.4134   22028947.7224   22028946.1974
       239.000         196.000
 105966549.67548  82571321.12048  20164775.9484   20164778.8004   20164776.3144
       251.000         229.000
 112378319.48448  87567526.92048  21384878.5224   21384879.7114   21384879.8404
       244.000         219.000
 114453089.64348  89184209.81348  21779708.3244   21779710.6674   21779708.7014
       237.000         201.000
 120047739.60048 111335902.37748  24747257.1904   24747260.8194   24747257.8614
       205.000         144.000
 120772723.66748  94108626.18648  22982275.5284   22982276.9084   22982275.9654
       234.000         188.000
 115485000.68148  89988314.53848  21976061.2274   21976064.7714   21976061.7534
       237.000         200.000
 112660253.07248  87787187.36248  21438551.2174   21438551.7494   21438551.0954
       245.000         213.000
 06  7 19  1 12 30.0000000  0  9G11G15G 3G19G16G27G18G 7G22
 137836390.99248  89612768.78548  24326459.9794   24326462.2294   24326458.8974
       219.000         154.000
 115843769.30448  90267858.97248  22044347.0544   22044350.7394   22044347.7024
       237.000         198.000
 105964717.18948  82569893.21348  20164427.1224   20164430.0074   20164427.3654
       251.000         229.000
 112325960.17248  87526727.45848  21374914.7824   21374916.0404   21374915.6454
       243.000         219.000
 114537463.07348  89249955.33548  21795764.1724   21795766.4824   21795764.3214
       237.000         201.000
 120047103.81648 111335406.89648  24747137.4034   24747140.4584   24747136.4084
       196.000         142.000
 120820857.75448  94146133.25548  22991435.2994   22991436.9364   22991435.8424
       235.000         189.000
 115543593.21848  90033971.05248  21987211.1154   21987214.7274   21987211.7184
       238.000         200.000
 112641163.34848  87772312.26848  21434918.5834   21434918.9114   21434918.7844
       245.000         213.000
 06  7 19  1 13  0.0000000  0  9G11G15G 3G19G16G27G18G 7G22
 137742074.89648  89539275.71748  24308512.2274   24308514.6744   24308513.6324
       213.000         152.000
 115924906.19148  90331082.50548  22059786.6534   22059791.3544   22059787.0804
       238.000         199.000
 105963228.15848  82568732.92948  20164143.8434   20164146.6414   20164144.0734
       251.000         228.000
 112273785.12548  87486071.58348  21364986.3254   21364987.5424   21364987.2124
       243.000         219.000
 114622197.93048  89315982.48648  21811888.7514   21811890.8574   21811888.8904
       239.000         201.000
 120046933.52548 111335274.14948  24747104.3494   24747107.8404   24747103.4964
       199.000         141.000
 120869486.91748  94184026.11448  23000689.2234   23000690.3384   23000689.5834
       234.000         187.000
 115602416.14048  90079807.08348  21998404.8804   21998408.5494   21998405.6744
       238.000         200.000
 112622644.40848  87757881.93948  21431394.5304   21431394.9204   21431394.6854
       245.000         213.000
 06  7 19  1 13 30.0000000  0  9G11G15G 3G19G16G27G18G 7G22
 137647886.56148  89465882.26148  24290587.5454   24290590.3484   24290587.6964
       213.000         148.000
 116006240.52448  90394459.88748  22075264.2244   22075268.3654   22075264.6284
       238.000         198.000
 105962081.59048  82567839.50048  20163925.5164   20163928.4324   20163925.8164
       251.000         228.000
 112221793.80148  87445558.87348  21355092.5934   21355093.9204   21355093.2584
       244.000         220.000
 114707291.00148  89382288.77148  21828081.7364   21828083.6624   21828082.1354
       239.000         202.000
 120047226.66048 111335502.63248  24747159.6594   24747162.1804   24747161.4214
       201.000         138.000
 120918607.92648  94222302.23848  23010036.4154   23010037.5864   23010036.5534
       234.000         186.000
 115661468.07848  90125821.58748  22009642.0454   22009645.6164   22009642.5394
       238.000         200.000
 112604695.30848  87743895.63748  21427978.9054   21427979.3774   21427978.8694
       245.000         213.000
 06  7 19  1 14  0.0000000  0  9G11G15G 3G19G16G27G18G 7G22
 137553826.28148  89392588.54948  24272689.2384   24272691.3534   24272689.3874
       214.000         152.000
 116087770.08548  90457989.40348  22090778.6514   22090782.3734   22090779.9354
       237.000         196.000
 105961277.91048  82567213.25748  20163772.5414   20163775.4814   20163772.7454
       251.000         228.000
 112169986.48848  87405189.54548  21345234.0374   21345235.1164   21345235.0934
       244.000         220.000
 114792739.50248  89448872.01048  21844342.0274   21844343.8184   21844342.4834
       238.000         201.000
 120047982.09448 111336091.35648  24747303.5044   24747305.9184   24747303.3554
       195.000         135.000
 120968219.18648  94260960.35648  23019476.9014   23019478.4934   23019477.4204
       233.000         188.000
 115720748.48848  90172014.12348  22020922.7424   22020926.5674   22020923.2114
       238.000         200.000
 112587316.60048  87730353.81348  21424671.7174   21424672.1934   21424671.6644
       245.000         213.000
 06  7 19  1 14 30.0000000  0  9G11G15G 3G19G16G27G18G 7G22
 137459896.78148  89319396.81248  24254815.0294   24254817.9264   24254814.6124
       210.000         152.000
 116169494.60548  90521670.84148  22106330.3534   22106333.3424   22106331.5804
       236.000         194.000
 105960819.31948  82566855.92048  20163685.2834   20163688.2614   20163685.5114
       252.000         228.000
 112118365.71248  87364965.57448  21335410.9534   21335412.1464   21335411.9454
       244.000         220.000
 114878543.21848  89515732.03148  21860669.7174   21860671.9434   21860669.8674
       238.000         200.000
 120049200.90148 111337040.98748  24747535.6254   24747540.3584   24747536.0564
       206.000         145.000
 121018320.49948  94300000.35948  23029011.1484   23029012.7804   23029011.3854
       234.000         189.000
 115780259.17448  90218386.07448  22032247.2524   22032251.1464   22032248.0964
       237.000         201.000
 112570510.10248  87717257.85148  21421473.6504   21421474.1884   21421473.7104
       245.000         213.000
 06  7 19  1 15  0.0000000  0  9G11G15G 3G19G16G27G18G 7G22
 137366097.80348  89246306.72548  24236965.2614   24236968.3014   24236966.7684
       211.000         149.000
 116251411.17648  90585501.93848  22121918.5624   22121921.0124   22121918.9584
       237.000         194.000
 105960705.37848  82566767.13648  20163663.5924   20163666.5974   20163663.7674
       252.000         228.000
 112066931.21748  87324886.75448  21325623.1104   21325624.4084   21325623.9134
       243.000         220.000
 114964699.16448  89582866.51048  21877064.8104   21877066.7534   21877065.1604
       238.000         200.000
 120050881.38848 111338350.48048  24747855.2814   24747858.7944   24747856.0044
       199.000         141.000
 121068909.38548  94339420.26548  23038637.7254   23038639.5764   23038637.8494
       232.000         187.000
 115839999.05348  90264936.61848  22043615.3984   22043619.3684   22043616.0134
       236.000         200.000
 112554275.89048  87704607.82648  21418384.3294   21418384.8274   21418384.3514
       246.000         214.000
 06  7 19  1 15 30.0000000  0  9G11G15G 3G19G16G27G18G 7G22
 137272430.82548  89173319.56248  24219141.2924   24219144.1264   24219141.7564
       210.000         147.000
 116333518.86148  90649481.96448  22137543.2574   22137545.5534   22137543.6434
       235.000         193.000
 105960937.50748  82566948.01948  20163707.9124   20163710.8014   20163708.3574
       251.000         228.000
 112015685.15448  87284954.76348  21315871.4624   21315872.6244   21315872.2264
       244.000         221.000
 115051206.13248  89650274.52848  21893526.6214   21893528.4294   21893526.9324
       238.000         199.000
 120053023.91648 111340020.04448  24748262.7614   24748266.7794   24748264.1374
       203.000         143.000
 121119984.88348  94379219.36248  23048357.3094   23048358.6094   23048357.8424
       233.000         187.000
 115899968.91048  90311666.38848  22055027.1274   22055031.1064   22055027.4904
       237.000         200.000
 112538615.42548  87692404.87848  21415404.3064   21415404.7984   21415404.6354
       246.000         214.000
 06  7 19  1 16  0.0000000  0  9G11G15G 3G19G16G27G18G 7G22
 137178896.32648  89100435.59248  24201341.4844   24201344.6254   24201341.4694
       212.000         146.000
 116415815.41448  90713609.13448  22153203.2994   22153206.9774   22153204.2214
       235.000         195.000
 105961515.73948  82567398.58248  20163818.1014   20163820.8774   20163818.3804
       252.000         229.000
 111964627.36248  87245169.48648  21306155.5914   21306156.8184   21306156.7294
       244.000         221.000
 115138061.30348  89717953.86648  21910054.5164   21910056.4224   21910054.5494
       239.000         199.000
 120055627.11648 111342048.49848  24748758.3524   24748761.8694   24748759.9634
       203.000         140.000
 121171544.73148  94419395.87048  23058168.7784   23058170.1984   23058169.1154
       232.000         186.000
 115960168.17148  90358574.90348  22066482.9084   22066486.4994   22066483.5814
       238.000         200.000
 112523528.96748  87680649.20948  21412533.4374   21412533.8034   21412533.3904
       246.000         213.000
 06  7 19  1 16 30.0000000  0  9G11G15G 3G19G16G27G18G 7G22
 137085495.15648  89027655.51348  24183568.5884   24183570.7654   24183568.5354
       210.000         146.000
 116498299.17648  90777882.17548  22168899.7104   22168904.4314   22168900.2464
       235.000         195.000
 105962440.83348  82568119.44048  20163994.1254   20163996.9084   20163994.6274
       252.000         229.000
 111913759.36048  87205532.08748  21296475.7464   21296476.9464   21296476.5184
       245.000         222.000
 115225263.02148  89785903.24748  21926648.3544   21926650.6244   21926648.8704
       238.000         199.000
 120058690.49048 111344435.51948  24749341.6394   24749345.8754   24749340.3404
       199.000         140.000
 121223587.70248  94459948.82748  23068071.8254   23068073.7954   23068072.6444
       229.000         185.000
 116020597.02448  90405662.32848  22077982.2064   22077985.8604   22077983.2924
       237.000         199.000
 112509017.03348  87669341.22148  21409771.8204   21409772.3004   21409771.9494
       246.000         214.000
 06  7 19  1 17  0.0000000  0  9G11G15G 3G19G16G27G18G 7G22
 136992227.85248  88954979.76948  24165820.2314   24165822.1044   24165819.9714
       209.000         143.000
 116580968.12048  90842299.51548  22184631.1834   22184635.1514   22184631.8514
       238.000         195.000
 105963713.04348  82569110.76948  20164236.1954   20164239.0474   20164236.4254
       252.000         229.000
 111863081.71248  87166043.02348  21286832.0474   21286833.4514   21286832.9874
       244.000         222.000
 115312808.89048  89854120.78948  21943307.8694   21943310.1784   21943308.4684
       237.000         199.000
 120062212.96348 111347180.35548  24750012.9054   24750015.5114   24750011.3424
       193.000         134.000
 121276111.83548  94500876.73648  23078066.8884   23078068.7664   23078067.0544
       231.000         184.000
 116081255.01548  90452928.28648  22089524.7974   22089528.4444   22089525.3524
       238.000         199.000
 112495080.47948  87658481.58348  21407119.8704   21407120.2054   21407119.8664
       246.000         214.000
 06  7 19  1 17 30.0000000  0  8G11G15G 3G19G16G18G 7G22
 136899095.22448  88882408.92748  24148097.3464   24148100.3284   24148098.3234
       206.000         141.000
 116663820.28348  90906859.64248  22200397.5254   22200399.9354   22200398.1164
       236.000         193.000
 105965332.92248  82570373.01748  20164544.2694   20164547.2714   20164544.5924
       251.000         228.000
 111812595.11248  87126702.82448  21277224.7644   21277226.2234   21277225.5724
       245.000         222.000
 115400696.52648  89922604.66148  21960032.1934   21960034.3974   21960032.4184
       236.000         198.000
 121329115.31248  94542178.17648  23088152.8704   23088154.9084   23088153.3964
       232.000         184.000
 116142142.29648  90500372.91648  22101111.3444   22101115.2374   22101112.2144
       236.000         199.000
 112481719.61148  87648070.52748  21404577.1964   21404577.7744   21404577.3214
       246.000         214.000
 06  7 19  1 18  0.0000000  0  8G11G15G 3G19G16G18G 7G22
 136806097.85948  88809943.54748  24130400.7824   24130402.5164   24130401.9304
       206.000         139.000
 116746853.82848  90971561.11248  22216198.0284   22216200.6034   22216198.7264
       236.000         194.000
 105967301.20048  82571906.73548  20164918.7704   20164921.8704   20164918.9894
       251.000         229.000
 111762300.65348  87087512.34048  21267653.8944   21267655.1644   21267654.6554
       244.000         222.000
 115488924.05848  89991353.37948  21976821.2514   21976823.3464   21976821.4684
       237.000         198.000
 121382596.57548  94583851.89048  23098329.9734   23098332.0314   23098330.7914
       231.000         184.000
 116203258.70348  90547996.07948  22112741.3384   22112745.3894   22112741.9754
       236.000         199.000
 112468935.10648  87638108.58848  21402144.5424   21402145.0334   21402144.3454
       246.000         214.000
 06  7 19  1 18 30.0000000  0  8G11G15G 3G19G16G18G 7G22
 136713236.79848  88737584.33348  24112729.4164   24112731.6894   24112728.8344
       206.000         142.000
 116830066.87148  91036402.43848  22232032.7794   22232036.6974   22232033.3454
       237.000         196.000
 105969618.32748  82573712.28848  20165359.6254   20165362.8094   20165359.8884
       251.000         229.000
 111712199.30448  87048472.34448  21258120.0524   21258121.3094   21258120.8064
       245.000         221.000
 115577489.63348  90060365.51548  21993674.8984   21993676.8604   21993675.1744
       238.000         198.000
 121436553.83048  94625896.50348  23108598.1204   23108599.2724   23108598.3924
       230.000         185.000
 116264604.27048  90595797.81348  22124415.0534   22124418.6664   22124415.9274
       237.000         198.000
 112456727.77448  87628596.38548  21399821.5194   21399821.9684   21399821.6084
       246.000         214.000
 06  7 19  1 19  0.0000000  0  8G11G15G 3G19G16G18G 7G22
 136620515.04748  88665333.71248  24095085.6214   24095086.4724   24095084.6224
       207.000         145.000
 116913460.13648  91101384.18748  22247902.4604   22247906.6144   22247902.4794
       239.000         197.000
 105972287.29248  82575792.00648  20165867.5264   20165870.6294   20165867.8034
       252.000         229.000
 111662294.32648  87009585.34848  21248623.3734   21248624.4514   21248624.3214
       244.000         222.000
 115666393.26848  90129641.07148  22010592.5634   22010594.8044   22010592.9234
       237.000         197.000
 121490987.59148  94668312.42348  23118956.7454   23118957.7284   23118956.3144
       229.000         184.000
 116326181.30448  90643779.90648  22136132.7484   22136136.3674   22136133.1584
       235.000         197.000
 112445100.19848  87619535.94748  21397608.9404   21397609.2494   21397609.1584
       246.000         214.000
 06  7 19  1 19 30.0000000  0  8G11G15G 3G19G16G18G 7G22
 136527929.89048  88593189.48048  24077466.4234   24077468.7834   24077466.9884
       211.000         148.000
 116997028.09048  91166502.07548  22263804.8864   22263807.8594   22263806.4984
       238.000         194.000
 105975304.96648  82578143.44348  20166441.8694   20166444.8654   20166442.1674
       251.000         229.000
 111612582.85348  86970849.14648  21239163.6224   21239164.8144   21239164.3974
       245.000         222.000
 115755629.06948  90199175.45848  22027573.7174   22027575.8934   22027574.1394
       236.000         196.000
 121545892.45648  94711095.43348  23129404.4194   23129406.3794   23129404.7704
       229.000         184.000
 116387986.04848  90691939.44248  22147893.8904   22147897.9414   22147894.2404
       237.000         199.000
 112434049.23948  87610924.82248  21395505.8334   21395506.2824   21395505.8474
       247.000         214.000
 06  7 19  1 20  0.0000000  0  8G11G15G 3G19G16G18G 7G22
 136435481.61648  88521151.97548  24059874.9734   24059876.9924   24059875.6744
       205.000         147.000
 117080768.48648  91231754.34148  22279740.1244   22279742.9194   22279740.8554
       237.000         195.000
 105978671.49948  82580766.71248  20167082.4914   20167085.4754   20167082.7264
       251.000         229.000
 111563065.35748  86932264.09148  21229740.8294   21229741.7874   21229741.8364
       245.000         223.000
 115845194.73548  90268966.89348  22044617.5724   22044619.4704   22044617.7164
       237.000         196.000
 121601266.25748  94754243.84648  23139941.8224   23139943.4674   23139942.7164
       227.000         183.000
 116450017.95248  90740275.98148  22159698.4434   22159702.3254   22159699.1814
       237.000         199.000
 112423574.97548  87602763.06648  21393512.8924   21393513.1464   21393513.2484
       246.000         214.000
 06  7 19  1 20 30.0000000  0  8G11G15G 3G19G16G18G 7G22
 136343172.17048  88449222.59748  24042308.8694   24042311.9364   24042308.6994
       212.000         147.000
 117164681.00548  91297140.70548  22295708.1794   22295711.9824   22295708.6694
       235.000         194.000
 105982388.66248  82583663.20148  20167789.8764   20167792.7864   20167790.0764
       252.000         229.000
 111513744.20848  86893832.03748  21220355.2094   21220356.4994   21220356.1064
       244.000         223.000
 115935089.03148  90339014.37648  22061723.8014   22061726.0694   22061724.2904
       236.000         197.000
 121657108.28848  94797757.11648  23150567.9024   23150569.9244   23150568.0154
       227.000         181.000
 116512278.35448  90788790.57448  22171546.0004   22171549.8804   22171546.4934
       238.000         199.000
 112413679.37348  87595052.21848  21391629.8204   21391630.0864   21391629.9614
       247.000         214.000
 06  7 19  1 21  0.0000000  0  8G11G15G 3G19G16G18G 7G22
 136251002.13748  88377401.87248  24024769.2464   24024771.6004   24024771.1224
       207.000         145.000
 117248763.83948  91362659.79448  22311708.4914   22311712.3524   22311708.8564
       237.000         194.000
 105986457.26448  82586833.54548  20168564.1264   20168566.9914   20168564.3854
       252.000         229.000
 111464620.63248  86855553.93948  21211007.3684   21211008.5124   21211008.2334
       245.000         223.000
 116025310.11448  90409316.51648  22078892.4734   22078894.5384   22078892.6454
       236.000         197.000
 121713417.38748  94841634.33248  23161283.0224   23161284.8164   23161282.8694
       227.000         181.000
 116574767.37148  90837483.30748  22183437.1794   22183441.2114   22183437.9394
       237.000         199.000
 112404362.87548  87587792.61448  21389856.7954   21389857.1934   21389856.8724
       246.000         214.000
 06  7 19  1 21 30.0000000  0  8G11G15G 3G19G16G18G 7G22
 136158973.14148  88305691.01248  24007256.1024   24007258.7314   24007256.1484
       208.000         141.000
 117333015.70048  91428310.59348  22327741.4464   22327744.2574   22327741.8974
       237.000         193.000
 105990878.14648  82590278.38848  20169405.4044   20169408.3214   20169405.7054
       252.000         229.000
 111415695.53948  86817430.50048  21201697.4054   21201698.4654   21201698.0724
       245.000         223.000
 116115856.20148  90479871.90248  22096122.9214   22096124.8454   22096123.2324
       238.000         196.000
 121770192.02248  94885874.31448  23172086.6994   23172088.7504   23172087.1734
       226.000         180.000
 116637485.11648  90886354.26848  22195372.1314   22195375.9874   22195372.8654
       238.000         199.000
 112395626.14848  87580984.78148  21388194.1514   21388194.6114   21388194.0894
       245.000         214.000
 06  7 19  1 22  0.0000000  0  8G11G15G 3G19G16G18G 7G22
 136067085.47448  88234090.30648  23989771.3704   23989773.0844   23989770.9304
       206.000         143.000
 117417434.47948  91494091.47148  22343805.6884   22343808.4224   22343806.5734
       236.000         192.000
 105995651.59748  82593997.95748  20170313.8044   20170316.7694   20170314.0544
       252.000         229.000
 111366969.97748  86779462.53848  21192425.1004   21192426.4314   21192426.1194
       244.000         223.000
 116206724.81348  90550678.61348  22113414.6274   22113416.4604   22113415.2614
       236.000         196.000
 121827429.82948  94930475.20948  23182978.7604   23182981.1444   23182979.1814
       227.000         181.000
 116700431.31148  90935403.23848  22207350.5704   22207354.0004   22207351.3544
       237.000         198.000
 112387469.39848  87574628.87748  21386641.9394   21386642.3804   21386641.9274
       246.000         214.000
 06  7 19  1 22 30.0000000  0  8G11G15G 3G19G16G18G 7G22
 135975340.07848  88162600.45048  23972311.5634   23972314.3614   23972311.9724
       210.000         146.000
 117502018.98248  91560001.46448  22359901.3514   22359905.0274   22359902.0584
       236.000         192.000
 106000778.32248  82597992.80948  20171289.4324   20171292.3614   20171289.6414
       252.000         229.000
 111318445.19048  86741651.02248  21183191.0494   21183192.4344   21183191.9674
       245.000         223.000
 116297913.76948  90621734.94248  22130767.1704   22130769.2244   22130767.3184
       237.000         195.000
 121885129.37848  94975435.89048  23193958.7064   23193961.1624   23193959.2134
       225.000         180.000
 116763606.12248  90984630.34948  22219371.9544   22219375.6654   22219372.4584
       237.000         198.000
 112379893.25948  87568725.40848  21385200.3924   21385200.7184   21385200.6624
       246.000         214.000
 06  7 19  1 23  0.0000000  0  8G11G15G 3G19G16G18G 7G22
 135883737.61348  88091221.93448  23954881.4344   23954882.3834   23954882.4034
       212.000         146.000
 117586767.03948  91626038.90448  22376028.5804   22376032.2854   22376028.9874
       236.000         192.000
 106006258.58348  82602263.14948  20172332.2934   20172335.2264   20172332.7114
       252.000         229.000
 111270121.54148  86703996.23748  21173995.3454   21173996.5284   21173995.8764
       246.000         224.000
 116389421.03348  90693039.30848  22148180.5214   22148182.5144   22148180.6774
       236.000         195.000
 121943288.20948  95020754.46748  23205025.5734   23205027.9974   23205025.9604
       225.000         179.000
 116827009.08548  91034035.26148  22231437.2784   22231441.1724   22231437.9544
       238.000         198.000
 112372897.67948  87563274.31748  21383869.1024   21383869.7194   21383869.3204
       246.000         214.000
 06  7 19  1 23 30.0000000  0  8G11G15G 3G19G16G18G 7G22
 135792278.66348  88019955.26348  23937477.0214   23937478.2184   23937476.6174
       214.000         148.000
 117671676.77648  91692202.31348  22392186.4714   22392189.8154   22392186.8794
       235.000         192.000
 106012092.84448  82606809.32048  20173442.5204   20173445.4344   20173442.8364
       251.000         229.000
 111222000.10748  86666499.02848  21164838.1564   21164839.2884   21164839.2764
       245.000         224.000
 116481244.50948  90764590.06848  22165653.8244   22165656.1914   22165653.8494
       237.000         195.000
 122001904.42148  95066429.42248  23216180.2124   23216181.6274   23216180.5334
       226.000         180.000
 116890640.10748  91083617.86448  22243545.8764   22243549.7554   22243546.8824
       236.000         197.000
 112366483.19848  87558276.03648  21382648.2994   21382648.9774   21382648.2954
       246.000         214.000
 06  7 19  1 24  0.0000000  0  8G11G15G 3G19G16G18G 7G22
 135700963.83848  87948800.88148  23920100.6344   23920102.1104   23920101.7084
       212.000         150.000
 117756746.30648  91758490.26148  22408374.5744   22408377.7044   22408375.4704
       236.000         192.000
 106018281.62548  82611631.74748  20174620.2784   20174623.0824   20174620.6114
       252.000         229.000
 111174081.50148  86629159.86248  21155719.6424   21155720.6784   21155720.3324
       246.000         224.000
 116573381.61848  90836385.21348  22183186.7854   22183189.2674   22183187.2824
       235.000         195.000
 122060976.35348  95112459.50948  23227421.5694   23227423.4964   23227421.8734
       226.000         181.000
 116954499.05248  91133378.04948  22255697.5454   22255701.7194   22255698.4034
       235.000         196.000
 112360649.59648  87553730.37548  21381538.5094   21381538.7964   21381538.6674
       247.000         214.000
 06  7 19  1 24 30.0000000  0  8G11G15G 3G19G16G18G 7G22
 135609793.74948  87877759.28448  23902751.0684   23902753.0994   23902751.7114
       211.000         150.000
 117841973.80948  91824901.28748  22424592.8474   22424595.9664   22424593.3874
       234.000         191.000
 106024825.24048  82616730.66948  20175865.4534   20175868.2024   20175865.9794
       252.000         229.000
 111126367.04448  86591979.77248  21146640.0864   21146640.8114   21146640.8514
       246.000         224.000
 116665829.93048  90908422.84848  22200779.2804   22200781.3624   22200779.5784
       237.000         194.000
 122120502.12848  95158843.23548  23238748.7954   23238751.7154   23238749.5424
       226.000         181.000
 117018585.59848  91183315.59448  22267892.9774   22267896.7214   22267893.6264
       235.000         196.000
 112355397.34548  87549637.72448  21380538.9714   21380539.4354   21380539.2374
       246.000         214.000
 06  7 19  1 25  0.0000000  0  8G11G15G 3G19G16G18G 7G22
 135518769.63148  87806831.46448  23885430.2364   23885431.8874   23885429.4454
       210.000         150.000
 117927358.01348  91891434.42748  22440841.0884   22440844.1904   22440841.5464
       233.000         190.000
 106031724.63948  82622106.81548  20177178.2534   20177181.0664   20177178.5504
       252.000         229.000
 111078858.10048  86554959.82648  21137599.2064   21137600.2614   21137600.3074
       246.000         224.000
 116758587.64848  90980701.59048  22218430.4884   22218432.4964   22218431.1084
       235.000         194.000
 122180480.09348  95205579.32048  23250162.1774   23250164.3374   23250162.3874
       226.000         177.000
 117082900.14848  91233430.82448  22280132.0234   22280135.1914   22280132.5184
       235.000         196.000
 112350727.03948  87545998.53548  21379649.9424   21379650.8174   21379650.0104
       246.000         214.000
 06  7 19  1 25 30.0000000  0  8G11G15G 3G19G16G18G 7G22
 135427892.23148  87736017.95848  23868135.3614   23868138.2384   23868136.2184
       210.000         151.000
 118012897.19448  91958088.33648  22457118.3314   22457121.8314   22457119.6554
       233.000         190.000
 106038980.26148  82627760.54648  20178558.8834   20178561.7364   20178559.0554
       252.000         229.000
 111031555.55348  86518100.70148  21128597.7834   21128598.9084   21128598.4974
       246.000         224.000
 116851652.62748  91053219.74848  22236140.1624   22236142.1754   22236140.5234
       236.000         193.000
 122240908.08048  95252666.06348  23261661.1834   23261661.7234   23261660.9704
       224.000         176.000
 117147442.43748  91283723.50748  22292413.8244   22292417.2184   22292414.5824
       235.000         195.000
 112346638.90948  87542812.98948  21378872.2174   21378872.8104   21378872.3634
       247.000         214.000
 06  7 19  1 26  0.0000000  0  8G11G15G 3G19G16G18G 7G22
 135337162.25148  87665319.28148  23850870.0764   23850872.8244   23850870.0854
       215.000         153.000
 118098589.75648  92024861.73848  22473425.2954   22473428.3904   22473425.2124
       231.000         188.000
 106046592.75048  82633692.36248  20180007.4524   20180010.3634   20180007.8104
       252.000         229.000
 110984460.27448  86481403.10048  21119635.8544   21119637.0764   21119636.9254
       246.000         225.000
 116945022.53448  91125975.51748  22253907.9744   22253909.8214   22253908.5024
       236.000         194.000
 122301784.19648  95300101.99648  23273245.7124   23273246.5084   23273246.2984
       225.000         178.000
 117212212.55348  91334193.71248  22304738.9224   22304743.0044   22304739.6404
       233.000         194.000
 112343132.98748  87540081.11148  21378205.1814   21378205.3504   21378205.5164
       246.000         214.000
 06  7 19  1 26 30.0000000  0  8G11G15G 3G19G16G18G 7G22
 135246580.05948  87594735.73848  23833633.8994   23833635.5324   23833634.1974
       217.000         156.000
 118184433.63148  92091753.06348  22489760.6324   22489763.5124   22489761.4354
       233.000         188.000
 106054562.24148  82639902.35248  20181524.0594   20181526.9294   20181524.2724
       251.000         229.000
 110937572.97148  86444867.54648  21110713.3924   21110714.6494   21110714.3114
       246.000         225.000
 117038694.94248  91198967.00148  22271733.4294   22271734.9244   22271733.7044
       236.000         193.000
 122363106.55948  95347885.64348  23284914.4774   23284917.9214   23284914.6834
       222.000         178.000
 117277209.97448  91384841.04048  22317107.4024   22317111.4504   22317107.7624
       233.000         195.000
 112340209.14748  87537802.80648  21377648.6654   21377648.9454   21377648.8634
       246.000         214.000
 06  7 19  1 27  0.0000000  0  8G11G15G 3G19G16G18G 7G22
 135156145.39948  87524267.14248  23816425.2554   23816426.4994   23816425.1954
       217.000         155.000
 118270426.14248  92158760.21048  22506124.3464   22506127.5384   22506125.8034
       230.000         187.000
 106062888.34848  82646390.22648  20183108.4754   20183111.4124   20183108.7894
       252.000         229.000
 110890893.68248  86408494.08148  21101830.6114   21101831.8674   21101831.3494
       246.000         225.000
 117132666.64048  91272191.69248  22289615.2844   22289617.2404   22289615.6824
       235.000         192.000
 122424871.89248  95396014.47848  23296668.6044   23296671.7414   23296668.7214
       225.000         179.000
 117342433.63148  91435664.65548  22329519.1204   22329523.1584   22329519.2814
       234.000         195.000
 112337866.92548  87535977.70548  21377202.9004   21377203.3574   21377203.0554
       246.000         214.000
 06  7 19  1 27 30.0000000  0  8G11G15G 3G19G16G18G 7G22
 135065858.06048  87453913.37448  23799243.5984   23799245.6794   23799244.0664
       216.000         157.000
 118356564.61448  92225881.08248  22522516.0164   22522519.4374   22522515.8494
       230.000         187.000
 106071570.64748  82653155.65348  20184760.7704   20184763.6514   20184761.0034
       252.000         229.000
 110844422.61548  86372282.86848  21092987.5484   21092988.6994   21092988.4694
       246.000         225.000
 117226934.32648  91345647.03448  22307553.9874   22307555.6634   22307554.2364
       235.000         191.000
 122487077.40348  95444486.31248  23308505.8374   23308507.6614   23308506.4854
       224.000         177.000
 117407882.48148  91486663.73348  22341973.7714   22341978.1534   22341974.3634
       235.000         195.000
 112336105.30148  87534605.03048  21376867.8194   21376867.8854   21376867.9584
       246.000         214.000
 06  7 19  1 28  0.0000000  0  9G11G15G 3G19G16G27G18G 7G22
 134975720.60648  87383676.43248  23782091.1324   23782092.9134   23782090.8014
       213.000         159.000
 118442849.27948  92293115.87348  22538935.5564   22538938.9974   22538936.5374
       230.000         188.000
 106080611.28248  82660200.30048  20186481.1324   20186484.0264   20186481.4024
       252.000         229.000
 110798162.40548  86336235.96548  21084184.4604   21084185.7034   21084185.4034
       246.000         225.000
 117321497.68148  91419332.76548  22325548.5774   22325550.4644   22325549.0354
       234.000         191.000
 140253978.75958  91496590.33258  24786519.8655   24786523.4155   24786518.7605
       213.000         168.000
 122549723.01548  95493301.06048  23320426.8274   23320427.1004   23320427.2324
       225.000         174.000
 117473558.14748  91537839.55848  22354471.5384   22354475.4154   22354472.3454
       234.000         195.000
 112334926.26848  87533686.30948  21376643.3654   21376643.8624   21376643.3514
       246.000         214.000
 06  7 19  1 28 30.0000000  0  9G11G15G 3G19G16G27G18G 7G22
 134885734.56048  87313557.47148  23764966.7324   23764969.5054   23764967.2514
       220.000         162.000
 118529279.24748  92360463.89048  22555382.7334   22555386.0724   22555383.5424
       228.000         187.000
 106090011.63748  82667525.24448  20188269.9244   20188272.8324   20188270.2554
       251.000         229.000
 110752114.93548  86300354.82548  21075421.7394   21075423.0614   21075422.5184
       246.000         225.000
 117416355.29648  91493247.78448  22343599.2344   22343601.6354   22343599.2814
       234.000         191.000
 140267803.64748  91507362.96248  24789150.5104   24789154.3524   24789149.7634
       213.000         165.000
 122612807.41048  95542457.72448  23332431.3704   23332432.0014   23332431.3734
       226.000         177.000
 117539461.40148  91589192.73948  22367012.5114   22367016.1924   22367013.4364
       233.000         195.000
 112334330.33248  87533221.95648  21376530.1314   21376530.2064   21376530.2884
       246.000         214.000
 06  7 19  1 29  0.0000000  0  9G11G15G 3G19G16G27G18G 7G22
 134795900.74548  87243557.15048  23747872.2514   23747874.2064   23747872.8644
       220.000         162.000
 118615852.94248  92427923.89048  22571857.1354   22571860.5954   22571857.4614
       228.000         185.000
 106099772.21648  82675130.88748  20190127.2624   20190130.2194   20190127.4834
       252.000         229.000
 110706281.55448  86264640.50548  21066700.1564   21066701.3414   21066700.9074
       247.000         225.000
 117511504.48048  91567390.00448  22361705.7594   22361707.6134   22361706.2344
       234.000         191.000
 140282064.45848  91518475.22848  24791865.0154   24791868.5584   24791863.7454
       214.000         170.000
 122676328.85848  95591954.95748  23344519.1104   23344521.5614   23344520.0924
       225.000         179.000
 117605592.08148  91640723.12048  22379596.7704   22379600.8844   22379597.7564
       232.000         193.000
 112334317.95448  87533212.32448  21376527.5724   21376527.8244   21376527.6354
       246.000         214.000
 06  7 19  1 29 30.0000000  0  9G11G15G 3G19G16G27G18G 7G22
 134706219.67948  87173675.83448  23730806.7784   23730808.2254   23730806.7204
       225.000         165.000
 118702568.50048  92495494.45348  22588358.3154   22588361.7834   22588357.9334
       228.000         184.000
 106109893.40848  82683017.53048  20192053.2854   20192056.1984   20192053.6624
       252.000         229.000
 110660662.97848  86229093.56948  21058019.0814   21058020.3184   21058020.1524
       246.000         225.000
 117606943.25148  91641757.87248  22379867.1834   22379869.3994   22379867.4634
       234.000         190.000
 140296759.94748  91529926.26648  24794661.6954   24794664.4984   24794662.0704
       213.000         167.000
 122740285.31948  95641791.16848  23356689.3934   23356692.7134   23356689.8464
       224.000         179.000
 117671949.87748  91692430.49148  22392224.2324   22392228.3624   22392225.0274
       232.000         192.000
 112334888.96348  87533657.27448  21376636.3594   21376636.5524   21376636.5114
       246.000         214.000
 06  7 19  1 30  0.0000000  0  9G11G15G 3G19G16G27G18G 7G22
 134616691.73648  87103913.76748  23713770.3744   23713770.7294   23713770.4034
       227.000         163.000
 118789423.98348  92563174.03348  22604886.6864   22604890.1524   22604887.7314
       229.000         185.000
 106120375.35048  82691185.26948  20194047.9384   20194050.8274   20194048.1944
       251.000         228.000
 110615259.83548  86193714.49748  21049379.2524   21049380.3114   21049379.9634
       247.000         225.000
 117702669.10448  91716349.45748  22398083.0594   22398084.9164   22398083.2144
       235.000         190.000
 140311888.51848  91541714.75248  24797539.7274   24797543.6924   24797540.0904
       212.000         165.000
 122804673.72848  95691963.96548  23368942.0404   23368945.4244   23368942.3214
       225.000         180.000
 117738534.32048  91744314.46448  22404894.7104   22404898.7134   22404895.2554
       230.000         193.000
 112336042.97548  87534556.50948  21376855.9074   21376856.1254   21376855.9784
       246.000         214.000
 06  7 19  1 30 30.0000000  0  9G11G15G 3G19G16G27G18G 7G22
 134527317.63448  87034271.59348  23696763.1554   23696763.4904   23696763.7204
       227.000         164.000
 118876417.84248  92630961.43348  22621440.8344   22621444.6224   22621441.6704
       227.000         184.000
 106131218.53348  82699634.50048  20196111.3084   20196114.2024   20196111.5304
       252.000         228.000
 110570073.20348  86158504.13848  21040780.4414   21040781.6614   21040781.2724
       247.000         226.000
 117798679.69448  91791162.91748  22416353.4344   22416355.4094   22416353.9404
       233.000         189.000
 140327448.73248  91553839.57548  24800501.2944   24800504.4724   24800501.2884
       218.000         167.000
 122869492.55348  95742472.14948  23381276.8444   23381279.9284   23381277.4244
       226.000         181.000
 117805345.31448  91796374.97648  22417608.6524   22417612.2874   22417609.1064
       234.000         192.000
 112337779.95248  87535910.00248  21377186.2984   21377186.9594   21377186.4374
       245.000         214.000
 06  7 19  1 31  0.0000000  0  9G11G15G 3G19G16G27G18G 7G22
 134438096.52948  86964748.68048  23679784.7914   23679785.6824   23679785.8574
       224.000         164.000
 118963546.93648  92698854.23148  22638021.2484   22638024.4404   22638021.5534
       227.000         181.000
 106142421.93848  82708364.42648  20198243.2524   20198246.0854   20198243.5514
       252.000         228.000
 110525102.68348  86123462.18248  21032222.7394   21032224.2334   21032223.3024
       247.000         226.000
 117894970.81048  91866194.94648  22434676.7894   22434679.0974   22434677.2954
       232.000         188.000
 140343438.11148  91566298.85248  24803543.7624   24803547.1954   24803545.1604
       215.000         164.000
 122934738.31848  95793313.02748  23393693.1094   23393695.5214   23393693.2754
       226.000         178.000
 117872381.24948  91848610.75248  22430364.6774   22430369.2354   22430365.1524
       233.000         193.000
 112340098.63948  87537716.77948  21377627.6494   21377627.9664   21377627.5204
       246.000         215.000
 06  7 19  1 31 30.0000000  0  9G11G15G 3G19G16G27G18G 7G22
 134349030.36148  86895346.49748  23662835.8514   23662836.9014   23662835.8344
       225.000         166.000
 119050810.68648  92766851.95548  22654626.7784   22654629.9234   22654627.2494
       225.000         182.000
 106153987.23348  82717376.33548  20200444.0494   20200446.8934   20200444.2724
       252.000         228.000
 110480350.63548  86088590.46448  21023706.8924   21023708.0824   21023707.8174
       247.000         226.000
 117991541.79148  91941445.05348  22453053.4974   22453055.8284   22453053.7594
       233.000         188.000
 140359856.43348  91579092.42348  24806668.1494   24806672.0114   24806668.8634
       209.000         159.000
 123000410.04048  95844485.78048  23406189.7984   23406192.4034   23406190.4434
       224.000         176.000
 117939643.06748  91901022.54048  22443164.6864   22443168.4954   22443165.4394
       234.000         194.000
 112342999.88848  87539977.49448  21378179.8494   21378180.0134   21378180.2444
       246.000         215.000
 06  7 19  1 32  0.0000000  0  9G11G15G 3G19G16G27G18G 7G22
 134260120.65148  86826066.23848  23645916.7714   23645918.6854   23645916.9774
       222.000         168.000
 119138208.33548  92834954.00848  22671258.0534   22671261.3794   22671258.7884
       225.000         184.000
 106165915.43348  82726671.04048  20202713.9454   20202716.7824   20202714.2494
       252.000         228.000
 110435818.93648  86053890.44548  21015232.8294   21015233.9084   21015233.7624
       247.000         226.000
 118088391.04948  92016912.01448  22471483.7574   22471485.6354   22471483.9334
       234.000         189.000
 140376703.12548  91592219.62648  24809873.4534   24809877.3994   24809871.2934
       207.000         155.000
 123066506.41048  95895989.41948  23418767.8144   23418768.8994   23418768.1294
       224.000         172.000
 118007131.25948  91953610.74648  22456007.4964   22456010.9004   22456008.4584
       231.000         193.000
 112346484.28448  87542692.62148  21378842.6284   21378843.1994   21378842.8564
       245.000         215.000
 06  7 19  1 32 30.0000000  0  9G11G15G 3G19G16G27G18G 7G22
 134171367.32748  86756907.84148  23629027.3534   23629029.7864   23629027.8374
       224.000         169.000
 119225737.66148  92903158.66148  22687914.4094   22687918.2204   22687915.3104
       225.000         184.000
 106178206.53348  82736248.52048  20205052.8844   20205055.7544   20205053.3844
       252.000         228.000
 110391507.75548  86019362.25648  21006800.6934   21006801.7184   21006801.6044
       248.000         226.000
 118185515.60648  92092593.49848  22489965.6884   22489967.7944   22489966.3834
       232.000         188.000
 140393975.93448  91605678.99948  24813160.9254   24813163.6224   24813161.3634
       209.000         156.000
 123133024.92748  95947822.01448  23431425.4244   23431425.9354   23431426.0284
       222.000         171.000
 118074845.29148  92006374.91848  22468892.5064   22468896.8134   22468893.0044
       233.000         191.000
 112350551.26048  87545861.70348  21379616.5114   21379617.1524   21379616.5454
       245.000         214.000
 06  7 19  1 33  0.0000000  0  9G11G15G 3G19G16G27G18G 7G22
 134082770.78548  86687871.60148  23612167.6774   23612170.7424   23612167.5194
       223.000         169.000
 119313396.79248  92971464.46348  22704595.3304   22704599.1954   22704596.1474
       224.000         183.000
 106190860.65148  82746108.86648  20207460.8664   20207463.7564   20207461.1854
       251.000         228.000
 110347417.78248  85985006.43748  20998410.6284   20998411.7364   20998411.3864
       248.000         227.000
 118282912.57048  92168487.22948  22508499.5284   22508502.0454   22508499.6834
       232.000         188.000
 140411673.40748  91619469.24748  24816528.0354   24816532.0634   24816530.6704
       209.000         157.000
 123199962.85648  95999981.42248  23444163.2964   23444163.6844   23444163.8034
       222.000         169.000
 118142784.29448  92059314.38148  22481821.3024   22481824.7254   22481821.7544
       231.000         191.000
 112355200.07848  87549484.16748  21380501.1364   21380501.8224   21380501.1044
       245.000         215.000
 06  7 19  1 33 30.0000000  0  9G11G15G 3G19G16G27G18G 7G22
 133994331.21748  86618957.67648  23595338.6324   23595340.8404   23595338.3494
       224.000         167.000
 119401184.03548  93039870.08148  22721300.2924   22721304.2974   22721300.9774
       223.000         180.000
 106203877.95948  82756252.22348  20209937.9034   20209940.8064   20209938.1274
       252.000         228.000
 110303549.83048  85950823.62648  20990062.8644   20990064.0084   20990063.7884
       248.000         227.000
 118380579.58948  92244591.39548  22527085.2564   22527087.2984   22527085.4554
       232.000         188.000
 140429794.33648  91633589.48748  24819975.7894   24819980.0024   24819980.1204
       208.000         155.000
 123267318.13948  96052466.05648  23456980.5194   23456982.0974   23456980.1084
       221.000         172.000
 118210948.07648  92112429.03448  22494792.3214   22494795.7294   22494792.7264
       231.000         191.000
 112360430.63848  87553559.92848  21381496.5354   21381497.0194   21381496.5094
       245.000         215.000
 06  7 19  1 34  0.0000000  0  9G11G15G 3G19G16G27G18G 7G22
 133906050.05848  86550167.15848  23578539.5174   23578541.1244   23578540.3324
       223.000         166.000
 119489098.08248  93108374.52148  22738029.7444   22738033.5674   22738030.3804
       224.000         180.000
 106217259.31848  82766679.25148  20212484.3014   20212487.2044   20212484.4374
       252.000         228.000
 110259905.51748  85916815.07548  20981757.6544   20981758.7424   20981758.5614
       248.000         227.000
 118478514.60848  92320904.38848  22545721.5604   22545723.9474   22545722.2704
       231.000         187.000
 140448337.55248  91648038.67748  24823505.2294   24823508.7394   24823504.3844
       204.000         151.000
 123335088.81548  96105274.37048  23469877.2034   23469879.4434   23469877.0334
       222.000         174.000
 118279336.97548  92165719.08448  22507806.2314   22507810.4304   22507806.6904
       232.000         191.000
 112366243.35548  87558089.32748  21382602.5844   21382603.1454   21382602.7154
       245.000         214.000
 06  7 19  1 34 30.0000000  0  9G11G15G 3G19G16G27G18G 7G22
 133817927.95248  86481500.57248  23561770.4514   23561771.6464   23561771.1614
       222.000         166.000
 119577137.38748  93176976.57648  22754782.9804   22754786.8654   22754784.0224
       223.000         179.000
 106231005.19948  82777390.32448  20215100.1554   20215102.9754   20215100.4334
       252.000         228.000
 110216486.01548  85882981.69848  20973495.0374   20973496.1734   20973495.7924
       248.000         226.000
 118576715.37148  92397424.46448  22564408.6694   22564410.8754   22564408.7004
       233.000         187.000
 140467301.50848  91662815.83048  24827113.6814   24827115.7564   24827111.7304
       204.000         149.000
 123403272.94248  96158404.86948  23482851.9344   23482854.6954   23482852.4844
       224.000         174.000
 118347950.55748  92219184.20448  22520863.0824   22520866.8854   22520863.9474
       232.000         191.000
 112372637.89148  87563072.08948  21383819.3794   21383819.9874   21383819.4044
       246.000         214.000
 06  7 19  1 35  0.0000000  0  9G11G15G 3G19G16G27G18G 7G22
 133729965.09448  86412958.11448  23545031.6744   23545032.9944   23545032.0544
       223.000         169.000
 119665299.67048  93245674.44848  22771559.8914   22771563.8524   22771560.2414
       222.000         178.000
 106245115.31348  82788385.21548  20217785.2784   20217788.0164   20217785.5934
       252.000         228.000
 110173291.92248  85849323.97248  20965275.4314   20965276.4674   20965276.3734
       248.000         226.000
 118675179.10348  92474149.44748  22583145.8394   22583147.8354   22583146.5364
       232.000         187.000
 140486684.61248  91677919.52448  24830803.1244   24830805.3464   24830803.4474
       208.000         152.000
 123471867.91848  96211855.51748  23495905.4184   23495908.1014   23495906.7514
       223.000         173.000
 118416788.18148  92272823.90548  22533962.2444   22533965.9184   22533962.5854
       232.000         191.000
 112379612.88748  87568507.15348  21385146.9464   21385147.1614   21385147.1404
       246.000         214.000
 06  7 19  1 35 30.0000000  0  9G11G15G 3G19G16G27G18G 7G22
 133642161.92748  86344540.12748  23528322.8284   23528324.6594   23528323.1494
       222.000         168.000
 119753583.46348  93314467.00448  22788360.0224   22788363.7004   22788361.1814
       225.000         180.000
 106259590.23948  82799664.37948  20220539.6804   20220542.4744   20220540.0114
       251.000         228.000
 110130324.13348  85815842.58048  20957099.1374   20957099.9984   20957099.9184
       249.000         226.000
 118773903.24848  92551077.34648  22601932.2364   22601934.3514   22601932.2474
       230.000         186.000
 140506485.31048  91693348.62848  24834570.2284   24834573.9294   24834570.1874
       206.000         150.000
 123540871.41148  96265624.48148  23509036.2614   23509039.1284   23509037.4994
       223.000         174.000
 118485849.75948  92326638.09548  22547104.1274   22547108.4344   22547105.2084
       231.000         190.000
 112387168.66648  87574394.77848  21386584.7124   21386584.9724   21386584.9374
       245.000         214.000
 06  7 19  1 36  0.0000000  0  9G11G15G 3G19G16G27G18G 7G22
 133554520.09548  86276247.80148  23511645.3484   23511646.7234   23511644.9994
       224.000         168.000
 119841987.87548  93383353.53148  22805182.5684   22805186.6154   22805182.5264
       221.000         179.000
 106274431.15748  82811228.72748  20223363.7114   20223366.6474   20223363.8724
       252.000         228.000
 110087584.57148  85782539.02948  20948966.0364   20948966.9294   20948966.9034
       249.000         227.000
 118872886.12848  92628206.84548  22620768.0464   22620770.2454   22620768.4694
       229.000         185.000
 140526702.76848  91709102.47248  24838417.8554   24838421.5514   24838416.8534
       209.000         153.000
 123610282.10548  96319710.74748  23522244.5674   23522247.4724   23522245.0364
       223.000         173.000
 118555135.72548  92380627.15048  22560288.8304   22560292.9694   22560289.3944
       230.000         191.000
 112395305.60148  87580735.26148  21388132.9414   21388133.4404   21388133.0714
       244.000         214.000
 06  7 19  1 36 30.0000000  0  9G11G15G 3G19G16G27G18G 7G22
 133467039.45948  86208081.10648  23494998.4104   23494999.6144   23494998.8324
       225.000         168.000
 119930510.77548  93452332.40348  22822028.6434   22822031.7784   22822029.0834
       226.000         179.000
 106289637.64248  82823077.94248  20226257.3554   20226260.3604   20226257.7534
       251.000         228.000
 110045073.67448  85749413.66048  20940876.4614   20940877.3784   20940877.4294
       248.000         227.000
 118972124.92748  92705535.76848  22639652.5914   22639654.9914   22639652.9174
       228.000         185.000
 140547335.10848  91725179.63348  24842343.2984   24842346.4504   24842345.5614
       207.000         147.000
 123680097.47148  96374112.33048  23535529.9264   23535532.9264   23535529.8794
       223.000         173.000
 118624645.22948  92434790.40748  22573515.9724   22573519.7884   22573516.7594
       230.000         190.000
 112404022.68948  87587527.79848  21389791.9074   21389792.2544   21389791.6764
       245.000         214.000
 06  7 19  1 37  0.0000000  0  9G11G15G 3G19G16G27G18G 7G22
 133379720.58848  86140040.44048  23478382.1044   23478383.4204   23478382.1644
       222.000         167.000
 120019150.78148  93521402.51948  22838895.7974   22838899.2994   22838897.3274
       223.000         177.000
 106305210.25348  82835212.43748  20229220.7504   20229223.7564   20229220.9654
       251.000         228.000
 110002792.29448  85716467.13648  20932830.5964   20932831.5444   20932831.5134
       249.000         227.000
 119071616.98348  92783062.03648  22658585.1954   22658587.2014   22658585.1314
       230.000         185.000
 140568380.42248  91741578.63148  24846347.4734   24846351.4764   24846348.2874
       205.000         147.000
 123750314.88348  96428827.19848  23548892.0434   23548894.3344   23548892.1504
       222.000         172.000
 118694377.94348  92489127.56348  22586785.9064   22586789.9904   22586786.7834
       231.000         189.000
 112413319.42748  87594772.00848  21391560.8764   21391561.4114   21391560.7984
       244.000         214.000
 06  7 19  1 37 30.0000000  0  9G11G15G 3G19G16G27G18G 7G22
 133292567.27948  86072128.79348  23461797.2944   23461798.5524   23461797.0784
       221.000         166.000
 120107909.09248  93590564.81348  22855786.1764   22855789.8444   22855787.3004
       222.000         176.000
 106321152.29748  82847634.80748  20232254.4734   20232257.4164   20232254.7984
       252.000         228.000
 109960744.86948  85683702.91148  20924829.2174   20924830.3744   20924830.1514
       249.000         227.000
 119171363.25248  92860786.39648  22677566.2604   22677568.5344   22677566.5994
       230.000         185.000
 140589840.55448  91758300.77148  24850432.3274   24850435.2434   24850433.2944
       209.000         152.000
 123820935.40348  96483856.16748  23562330.7764   23562332.5094   23562331.0624
       224.000         171.000
 118764336.67948  92543640.84848  22600098.6534   22600102.7824   22600099.3464
       231.000         191.000
 112423198.53148  87602470.01848  21393440.8244   21393441.2564   21393440.5604
       245.000         214.000
 06  7 19  1 38  0.0000000  0  9G11G15G 3G19G16G27G18G 7G22
 133205578.37048  86004345.25848  23445243.4354   23445245.5014   23445243.9164
       222.000         167.000
 120196782.74048  93659817.00048  22872697.9604   22872701.6914   22872698.0524
       222.000         174.000
 106337462.60348  82860344.13448  20235358.2134   20235361.0984   20235358.4464
       252.000         228.000
 109918930.75348  85651120.48748  20916872.2644   20916873.3544   20916873.2404
       248.000         227.000
 119271360.06248  92938705.97948  22696594.9164   22696597.2644   22696595.3004
       231.000         185.000
 140611712.38548  91775343.73648  24854595.0754   24854597.7324   24854595.3384
       209.000         157.000
 123891955.25848  96539196.30448  23575845.2534   23575846.8644   23575845.9784
       220.000         169.000
 118834519.57548  92598328.82748  22613453.8104   22613457.6574   22613454.1224
       230.000         189.000
 112433658.06848  87610620.31348  21395431.1904   21395431.6464   21395431.2424
       245.000         214.000
 06  7 19  1 38 30.0000000  0  9G11G15G 3G19G16G27G18G 7G22
 133118751.82648  85936688.21948  23428721.7914   23428722.8714   23428722.3504
       223.000         166.000
 120285767.14748  93729155.49148  22889631.6924   22889634.3784   22889632.2634
       223.000         175.000
 106354138.45448  82873338.30148  20238531.5284   20238534.3874   20238531.8084
       252.000         228.000
 109877348.09248  85618718.42248  20908959.1454   20908960.2824   20908959.9264
       249.000         227.000
 119371601.49748  93016816.17748  22715670.2814   22715672.2484   22715670.6084
       231.000         183.000
 140633991.36848  91792703.92648  24858833.3744   24858836.5394   24858834.7764
       202.000         146.000
 123963369.27948  96594843.59048  23589434.8184   23589436.3274   23589434.1844
       222.000         170.000
 118904923.42648  92653188.94648  22626851.2354   22626855.4134   22626852.1264
       230.000         188.000
 112444694.41348  87619220.06748  21397531.4894   21397531.7664   21397531.5834
       245.000         214.000
 06  7 19  1 39  0.0000000  0  9G11G15G 3G19G16G27G18G 7G22
 133032088.35148  85869158.24748  23412230.3374   23412231.2794   23412230.1074
       223.000         166.000
 120374861.20748  93798579.44148  22906585.5814   22906588.3584   22906585.9044
       223.000         176.000
 106371180.63048  82886617.91548  20241774.5724   20241777.3864   20241774.8254
       252.000         228.000
 109835998.30348  85586497.80648  20901090.7554   20901091.5894   20901091.7124
       249.000         227.000
 119472085.51448  93095115.40748  22734791.8984   22734793.8614   22734791.9094
       231.000         183.000
 140656676.31448  91810380.46748  24863149.9674   24863153.5234   24863150.9584
       205.000         150.000
 124035175.39648  96650796.39848  23603099.2054   23603100.6814   23603099.1004
       223.000         168.000
 118975548.43048  92708221.42048  22640291.1044   22640294.7124   22640291.7004
       228.000         189.000
 112456307.85148  87628269.50448  21399741.2594   21399741.6804   21399741.3534
       245.000         214.000
 06  7 19  1 39 30.0000000  0  9G11G15G 3G19G16G27G18G 7G22
 132945589.66148  85801756.68048  23395770.0894   23395771.0074   23395770.0974
       222.000         165.000
 120464063.92448  93868088.04448  22923560.1284   22923563.5384   22923561.0924
       223.000         175.000
 106388590.20448  82900183.81548  20245087.4834   20245090.3934   20245087.7904
       252.000         228.000
 109794883.25248  85554460.11148  20893266.8464   20893267.7134   20893267.7184
       249.000         227.000
 119572810.66748  93173602.52648  22753959.3974   22753961.3744   22753959.6054
       230.000         183.000
 140679766.42148  91828372.76848  24867544.5234   24867548.2644   24867543.9584
       210.000         156.000
 124107372.18148  96707053.64348  23616837.4724   23616839.0144   23616838.3034
       220.000         167.000
 119046394.99548  92763426.54848  22653772.8914   22653776.4084   22653773.7224
       226.000         188.000
 112468498.55448  87637768.75748  21402061.2554   21402061.4754   21402061.3904
       245.000         214.000
 06  7 19  1 40  0.0000000  0  9G11G15G 3G19G16G27G18G 7G22
 132859256.18248  85734483.87448  23379340.4194   23379342.9504   23379340.8284
       222.000         169.000
 120553374.23848  93937680.45548  22940555.0474   22940558.9794   22940555.2464
       223.000         173.000
 106406367.86848  82914036.53348  20248470.5004   20248473.4294   20248470.8814
       252.000         228.000
 109754004.15348  85522606.27248  20885487.7604   20885488.8324   20885488.6134
       249.000         227.000
 119673774.69248  93252275.78648  22773172.0284   22773174.3064   22773172.4614
       229.000         184.000
 140703260.25548  91846679.76148  24872015.6434   24872018.8034   24872016.8664
       214.000         158.000
 124179957.75148  96763613.80248  23630650.0384   23630652.0154   23630651.0144
       220.000         166.000
 119117463.01448  92818804.21848  22667296.5634   22667300.4714   22667297.5204
       229.000         188.000
 112481265.96948  87647717.40248  21404490.7184   21404491.0694   21404490.7784
       245.000         214.000
 06  7 19  1 40 30.0000000  0  9G11G15G 3G19G16G27G18G 7G22
 132773089.28348  85667340.85848  23362943.7104   23362945.8884   23362943.3364
       224.000         170.000
 120642790.94148  94007355.80348  22957570.1204   22957574.6074   22957571.9994
       221.000         173.000
 106424514.17048  82928176.50448  20251923.7664   20251926.5194   20251924.2004
       252.000         228.000
 109713362.54448  85490937.48448  20877753.9184   20877754.8614   20877754.8544
       249.000         227.000
 119774975.55348  93331133.57848  22792429.9024   22792432.3794   22792430.4934
       228.000         184.000
 140727156.39648  91865300.07948  24876562.9904   24876566.4024   24876563.9624
       206.000         157.000
 124252930.18348  96820475.44048  23644536.0914   23644538.1144   23644536.6914
       220.000         167.000
 119188752.67048  92874354.62148  22680862.5204   22680865.6094   22680862.9334
       229.000         188.000
 112494610.26248  87658115.55148  21407030.0864   21407030.3424   21407030.1044
       245.000         214.000
 06  7 19  1 41  0.0000000  0  9G11G15G 3G19G16G27G18G 7G22
 132687089.47148  85600328.03648  23346578.6554   23346580.3464   23346579.3274
       224.000         171.000
 120732312.38148  94077112.75248  22974606.1734   22974609.7954   22974606.3024
       227.000         176.000
 106443029.46048  82942604.00148  20255447.1084   20255449.8654   20255447.3974
       252.000         228.000
 109672959.64848  85459454.71348  20870065.3194   20870066.3074   20870066.0384
       249.000         227.000
 119876410.49848  93410173.78348  22811732.7464   22811734.5224   22811732.5094
       231.000         182.000
 140751453.56248  91884232.94148  24881186.1674   24881189.8234   24881186.6694
       200.000         155.000
 124326287.25748  96877636.81148  23658496.0564   23658497.3984   23658495.8354
       221.000         169.000
 119260263.60148  92930077.39148  22694470.5164   22694474.1614   22694471.1874
       231.000         188.000
 112508530.82948  87668962.75748  21409679.0724   21409679.3364   21409679.3214
       244.000         213.000
 06  7 19  1 41 30.0000000  0  9G11G15G 3G19G16G27G18G 7G22
 132601256.40248  85533445.13248  23330244.9964   23330246.7834   23330244.5154
       223.000         169.000
 120821936.57348  94146949.78048  22991661.3964   22991664.2364   22991663.7594
       227.000         174.000
 106461913.55648  82957318.87648  20259040.6334   20259043.3354   20259041.0384
       252.000         227.000
 109632795.96448  85428158.33848  20862422.4454   20862423.4264   20862423.3384
       249.000         227.000
 119978076.92348  93489394.36048  22831079.2534   22831081.2184   22831080.0594
       229.000         182.000
 140776149.38848  91903476.35848  24885885.7484   24885889.7714   24885884.1864
       203.000         152.000
 124400026.19448  96935095.72748  23672527.7694   23672530.0004   23672528.3744
       219.000         167.000
 119331994.85948  92985971.88748  22708120.4574   22708124.2324   22708121.5724
       230.000         189.000
 112523026.35648  87680257.97248  21412437.3274   21412437.9154   21412437.3474
       245.000         214.000
 06  7 19  1 42  0.0000000  0  9G11G15G 3G19G16G27G18G 7G22
 132515591.66648  85466693.40748  23313943.5304   23313944.9254   23313943.2374
       225.000         170.000
 120911662.81048  94216866.33748  23008735.9704   23008738.2834   23008736.4714
       224.000         172.000
 106481167.56848  82972321.99548  20262704.4774   20262707.1534   20262704.7444
       251.000         227.000
 109592873.01048  85397049.54948  20854825.4404   20854826.3834   20854826.1974
       249.000         228.000
 120079973.11248  93568793.96248  22850469.4044   22850471.2074   22850469.5294
       227.000         181.000
 140801243.12948  91923029.91048  24890660.7134   24890663.9494   24890662.1684
       206.000         156.000
 124474145.32648  96992850.87848  23686631.8314   23686634.6234   23686631.5394
       221.000         168.000
 119403947.18748  93042038.63948  22721812.5634   22721815.8474   22721813.3074
       229.000         186.000
 112538096.93348  87692001.28448  21415305.4984   21415305.6584   21415305.7724
       245.000         214.000
 06  7 19  1 42 30.0000000  0  9G11G15G 3G19G16G27G18G 7G22
 132430095.68648  85400073.20248  23297674.2554   23297675.9844   23297675.0864
       225.000         172.000
 121001489.56948  94286861.21948  23025828.3054   23025831.9484   23025828.4324
       224.000         173.000
 106500791.53048  82987613.39248  20266438.6454   20266441.5064   20266438.8604
       251.000         227.000
 109553192.20548  85366129.44348  20847274.6344   20847275.3524   20847275.6464
       249.000         228.000
 120182096.38648  93648370.53448  22869902.8334   22869904.6624   22869902.6534
       227.000         182.000
 140826732.55948  91942891.80748  24895511.3144   24895514.4364   24895511.5314
       205.000         152.000
 124548642.06848  97050900.29148  23700808.2424   23700810.6844   23700808.5284
       222.000         167.000
 119476119.79348  93098277.01648  22735546.5104   22735550.4904   22735547.3534
       229.000         187.000
 112553742.17948  87704192.39048  21418282.2624   21418282.8054   21418282.1694
       245.000         214.000
 06  7 19  1 43  0.0000000  0  9G11G15G 3G19G16G27G18G 7G22
 132344769.12848  85333584.98248  23281437.4424   23281438.6184   23281437.8524
       226.000         171.000
 121091415.31448  94356933.18548  23042940.8344   23042944.5784   23042941.5774
       226.000         175.000
 106520785.74348  83003193.29148  20270243.4414   20270246.3164   20270243.7294
       252.000         227.000
 109513754.54448  85335398.80348  20839769.6564   20839770.7604   20839770.4644
       249.000         228.000
 120284444.16748  93728122.03048  22889378.7194   22889381.0414   22889378.7414
       226.000         181.000
 140852616.02448  91963060.73448  24900436.6034   24900440.1024   24900435.4794
       207.000         158.000
 124623514.50248  97109242.45748  23715056.2734   23715058.1464   23715056.5864
       222.000         167.000
 119548512.49848  93154686.92048  22749322.1944   22749325.7974   22749322.9834
       228.000         187.000
 112569961.30748  87716830.67748  21421368.9754   21421369.1784   21421369.0484
       245.000         214.000
 06  7 19  1 43 30.0000000  0  9G11G15G 3G19G16G27G18G 7G22
 132259612.35448  85267229.06448  23265232.2414   23265233.7904   23265232.2444
       226.000         170.000
 121181438.22948  94427080.89448  23060072.0164   23060075.3084   23060072.5844
       227.000         176.000
 106541150.33748  83019061.81048  20274118.7894   20274121.6384   20274119.0454
       252.000         227.000
 109474560.87948  85304858.28948  20832311.3984   20832312.4094   20832312.2184
       249.000         228.000
 120387014.01348  93808046.57748  22908897.3084   22908899.0454   22908897.9514
       224.000         178.000
 140878891.68748  91983535.25948  24905437.1534   24905440.6304   24905438.1454
       210.000         160.000
 124698759.85948  97167875.21648  23729375.1574   23729376.9644   23729375.1934
       222.000         167.000
 119621124.60148  93211267.77148  22763139.9934   22763144.0004   22763140.3974
       229.000         186.000
 112586753.26948  87729915.32548  21424564.4484   21424564.5054   21424564.5074
       246.000         214.000
 06  7 19  1 44  0.0000000  0  9G11G15G 3G19G16G27G18G 7G22
 132174626.50348  85201006.31248  23249060.1324   23249061.2984   23249060.0274
       228.000         172.000
 121271557.47448  94497303.68448  23077221.6054   23077224.4734   23077221.8024
       229.000         178.000
 106561886.07248  83035219.51748  20278064.7084   20278067.5914   20278065.0284
       251.000         227.000
 109435612.76848  85274509.11748  20824899.8264   20824900.7944   20824900.7264
       248.000         228.000
 120489803.61148  93888142.34148  22928457.1944   22928459.9524   22928457.1044
       225.000         178.000
 140905558.42948  92004314.47948  24910511.4314   24910516.0694   24910511.2024
       205.000         161.000
 124774376.48748  97226797.24848  23743764.1904   23743766.3674   23743763.7894
       222.000         169.000
 119693956.47448  93268019.88548  22776999.5034   22777003.1404   22777000.1104
       230.000         188.000
 112604117.80048  87743446.13848  21427868.6244   21427868.8504   21427868.5024
       246.000         214.000
 06  7 19  1 44 30.0000000  0  9G11G15G 3G19G16G27G18G 7G22
 132089811.44248  85134916.64548  23232920.1214   23232921.8044   23232921.0114
       226.000         173.000
 121361770.91248  94567599.85848  23094389.1164   23094391.8864   23094390.1504
       230.000         178.000
 106582992.59148  83051666.15348  20282081.1074   20282084.0404   20282081.2754
       252.000         227.000
 109396910.58148  85244351.57248  20817535.0064   20817536.0324   20817535.8144
       249.000         228.000
 120592810.37048  93968407.31848  22948058.6264   22948060.9704   22948058.9354
       224.000         177.000
 140932613.99448  92025396.74448  24915660.3864   24915664.1264   24915659.0034
       209.000         158.000
 124850361.53748  97286006.38348  23758223.9054   23758225.9074   23758224.0344
       224.000         171.000
 119767007.03948  93324942.39648  22790900.6654   22790904.1184   22790901.5554
       229.000         186.000
 112622053.65648  87757422.13448  21431281.5874   21431281.9944   21431281.5824
       246.000         214.000
 06  7 19  1 45  0.0000000  0  9G11G15G 3G19G16G27G18G 7G22
 132005167.66648  85068960.49048  23216812.5584   23216814.7794   23216812.5804
       225.000         173.000
 121452076.93848  94637968.19148  23111573.3744   23111576.3194   23111574.5374
       227.000         174.000
 106604470.07848  83068401.85548  20286168.1454   20286171.0934   20286168.3134
       252.000         227.000
 109358455.39748  85214386.49948  20810217.2444   20810218.3124   20810218.1144
       248.000         228.000
 120696031.41948  94048839.30648  22967701.3454   22967702.8704   22967701.7764
       225.000         178.000
 140960056.41348  92046780.43448  24920882.0204   24920885.9964   24920883.0394
       210.000         150.000
 124926712.29248  97345500.46248  23772753.0364   23772755.0734   23772753.4894
       224.000         169.000
 119840276.08948  93382035.14348  22804843.0494   22804847.1074   22804843.4784
       229.000         188.000
 112640560.12948  87771842.76748  21434803.4004   21434803.6404   21434803.4794
       246.000         215.000
 06  7 19  1 45 30.0000000  0  9G11G15G 3G19G16G27G18G 7G22
 131920696.45148  85003138.78948  23200738.6874   23200740.7794   23200738.9584
       227.000         172.000
 121542475.04748  94708408.25448  23128774.6374   23128778.4474   23128775.1294
       225.000         172.000
 106626319.55148  83085427.41548  20290325.9814   20290328.9034   20290326.3714
       251.000         227.000
 109320249.42048  85184615.61148  20802946.9314   20802947.7274   20802947.6684
       248.000         228.000
 120799465.12648  94129436.98848  22987384.1074   22987385.8024   22987384.8164
       227.000         177.000
 140987884.38448  92068464.60748  24926177.1554   24926180.2384   24926178.0564
       202.000         145.000
 125003427.21648  97405278.31648  23787351.6724   23787353.1144   23787351.8444
       224.000         169.000
 119913763.75248  93439298.25548  22818827.9194   22818831.1024   22818828.3314
       231.000         188.000
 112659637.08348  87786707.93248  21438433.6814   21438434.0014   21438433.6754
       246.000         215.000
 06  7 19  1 46  0.0000000  0  9G11G15G 3G19G16G27G18G 7G22
 131836397.85948  84937451.58148  23184697.2274   23184698.8614   23184697.8194
       227.000         174.000
 121632963.14448  94778918.46748  23145994.7174   23145997.4204   23145994.3864
       227.000         175.000
 106648540.69448  83102742.58748  20294554.4864   20294557.3754   20294554.6884
       252.000         227.000
 109282293.05948  85155039.23248  20795724.2174   20795725.0384   20795725.2794
       248.000         228.000
 120903108.28348  94210197.86848  23007106.6684   23007108.7874   23007107.4754
       225.000         177.000
 141016095.91048  92090447.61348  24931546.1074   24931549.4904   24931546.1084
       202.000         147.000
 125080503.57048  97465337.82848  23802018.5414   23802019.6704   23802018.9324
       222.000         165.000
 119987469.40448  93496731.22248  22832853.5514   22832857.5584   22832854.2624
       228.000         186.000
 112679283.19848  87802016.59948  21442172.1534   21442172.5344   21442172.0274
       246.000         215.000
 06  7 19  1 46 30.0000000  0  9G11G15G 3G19G16G27G18G 7G22
 131752272.68648  84871899.50448  23168689.2724   23168690.5804   23168689.4794
       228.000         175.000
 121723540.33848  94849498.09748  23163231.2394   23163234.7404   23163232.0044
       229.000         178.000
 106671134.11148  83120347.84448  20298853.9334   20298856.7534   20298854.2274
       251.000         227.000
 109244587.72048  85125658.45348  20788548.9864   20788549.9664   20788549.8614
       248.000         228.000
 121006959.05748  94291120.51048  23026868.9404   23026871.2634   23026869.2824
       227.000         179.000
 141044689.66248  92112728.39948  24936986.9804   24936991.1564   24936986.6614
       207.000         154.000
 125157939.30648  97525677.35448  23816754.0814   23816755.0394   23816754.3234
       225.000         165.000
 120061392.62748  93554333.73648  22846920.5714   22846924.0834   22846921.1664
       229.000         187.000
 112699498.13448  87817768.50348  21446018.6834   21446019.0664   21446018.6264
       246.000         215.000
 06  7 19  1 47  0.0000000  0  9G11G15G 3G19G16G27G18G 7G22
 131668320.95148  84806482.56548  23152713.5074   23152715.0924   23152714.7384
       224.000         172.000
 121814204.39048  94920145.39548  23180483.8064   23180487.3834   23180484.9224
       230.000         177.000
 106694099.48948  83138242.94248  20303224.0124   20303226.8734   20303224.3014
       251.000         226.000
 109207133.99448  85096473.73648  20781421.8034   20781422.7604   20781422.5514
       248.000         228.000
 121111014.06848  94372202.32548  23046670.2424   23046672.2834   23046670.1494
       229.000         181.000
 141073662.78448  92135304.87948  24942500.6504   24942503.6024   24942500.9794
       210.000         156.000
 125235731.55848  97586294.70348  23831557.2334   23831558.4814   23831557.5764
       223.000         166.000
 120135532.71848  93612105.23248  22861028.9724   22861032.2624   22861029.4534
       229.000         184.000
 112720280.23548  87833962.35948  21449973.6344   21449973.9354   21449973.8804
       246.000         216.000
 06  7 19  1 47 30.0000000  0  9G11G15G 3G19G16G27G18G 7G22
 131584544.07748  84741201.90548  23136770.9024   23136772.3684   23136770.5844
       225.000         174.000
 121904954.80648  94990860.00948  23197752.8494   23197756.5144   23197754.4294
       224.000         172.000
 106717437.81448  83156428.65248  20307665.1044   20307667.9884   20307665.4754
       251.000         226.000
 109169933.73148  85067486.52248  20774342.9004   20774343.7164   20774343.7524
       248.000         229.000
 121215271.53548  94453441.88348  23066509.9134   23066512.0044   23066510.5164
       228.000         180.000
 141103014.57048  92158176.36948  24948086.5994   24948089.9154   24948087.4564
       212.000         163.000
 125313878.80148  97647188.66748  23846428.1254   23846429.0634   23846428.3924
       224.000         165.000
 120209890.13848  93670046.07148  22875178.4034   22875181.7084   22875178.8944
       230.000         185.000
 112741629.68148  87850598.29448  21454036.1614   21454036.8784   21454036.4114
       246.000         215.000
 06  7 19  1 48  0.0000000  0  9G11G15G 3G19G16G27G18G 7G22
 131500943.04148  84676058.27248  23120861.8934   23120863.8344   23120862.3084
       226.000         175.000
 121995790.32448  95061640.91548  23215037.3464   23215041.6244   23215037.3864
       223.000         172.000
 106741149.54548  83174905.32048  20312177.4004   20312180.2074   20312177.6184
       252.000         226.000
 109132988.38148  85038697.94048  20767312.4934   20767313.3284   20767313.3464
       249.000         229.000
 121319729.86148  94534837.94248  23086387.0954   23086389.9624   23086386.9884
       225.000         177.000
 141132743.49948  92181341.74948  24953743.9744   24953747.2924   24953744.1354
       207.000         157.000
 125392378.84048  97708357.55248  23861366.5094   23861367.4034   23861366.4574
       225.000         164.000
 120284464.73748  93728156.14448  22889369.3054   22889373.2524   22889370.0834
       229.000         183.000
 112763545.71148  87867675.73248  21458206.7444   21458207.1384   21458206.8224
       246.000         215.000
 06  7 19  1 48 30.0000000  0  9G11G15G 3G19G16G27G18G 7G22
 131417517.90948  84611051.68448  23104987.1764   23104988.5824   23104987.6754
       227.000         176.000
 122086709.36448  95132486.89948  23232339.1094   23232342.9684   23232338.6514
       226.000         176.000
 106765234.77248  83193673.02648  20316760.6444   20316763.5154   20316760.9904
       251.000         226.000
 109096298.87348  85010108.71948  20760330.7544   20760331.5194   20760331.7884
       248.000         229.000
 121424385.94148  94616388.09048  23106302.6434   23106305.1464   23106302.8874
       226.000         176.000
 141162847.47548  92204799.37648  24959471.8224   24959475.7994   24959470.8944
       203.000         155.000
 125471229.08448  97769799.31148  23876371.2624   23876372.0704   23876371.5414
       224.000         166.000
 120359255.87848  93786434.95148  22903601.7864   22903605.7334   22903602.6634
       227.000         185.000
 112786027.18748  87885193.76848  21462484.8444   21462485.0304   21462484.9854
       246.000         215.000
 06  7 19  1 49  0.0000000  0  9G11G15G 3G19G16G27G18G 7G22
 131334268.42348  84546181.96348  23089145.1144   23089147.0064   23089145.7064
       225.000         176.000
 122177709.56648  95203396.16248  23249657.4174   23249659.6434   23249658.2604
       230.000         176.000
 106789692.78748  83212731.21948  20321414.6754   20321417.8414   20321414.8714
       251.000         226.000
 109059865.60148  84981719.16548  20753397.5154   20753398.5454   20753398.4274
       249.000         229.000
 121529236.45448  94698089.75948  23126255.0634   23126256.6684   23126256.5864
       225.000         176.000
 141193323.40248  92228546.79448  24965270.5914   24965275.7244   24965272.3244
       206.000         158.000
 125550426.35948  97831511.46248  23891442.0034   23891443.0954   23891442.6654
       223.000         163.000
 120434262.32248  93844881.54548  22917875.2914   22917878.9024   22917875.5954
       228.000         184.000
 112809072.12848  87903150.86948  21466870.1414   21466870.3164   21466870.2874
       246.000         215.000
 06  7 19  1 49 30.0000000  0  9G11G15G 3G19G16G27G18G 7G22
 131251195.05448  84481449.49848  23073336.8404   23073338.6184   23073336.8174
       226.000         176.000
 122268789.53048  95274367.57648  23266988.5264   23266991.2834   23266989.9704
       224.000         172.000
 106814523.69348  83232079.97348  20326140.0054   20326143.0204   20326140.3434
       251.000         226.000
 109023689.73048  84953530.17548  20746513.7164   20746514.4084   20746514.5644
       249.000         229.000
 121634278.63448  94779940.77848  23146244.5664   23146245.8874   23146244.9244
       227.000         177.000
 141224169.43648  92252582.58048  24971141.4624   24971145.0234   24971141.7844
       209.000         161.000
 125629968.17848  97893492.08948  23906578.0394   23906579.8514   23906578.1424
       223.000         166.000
 120509483.56248  93903495.47648  22932189.4824   22932193.1524   22932190.1064
       231.000         186.000
 112832680.31348  87921546.86248  21471362.7934   21471362.8994   21471362.7274
       247.000         215.000
 06  7 19  1 50  0.0000000  0  9G11G15G 3G19G16G27G18G 7G22
 131168299.46248  84416855.55048  23057562.1604   23057564.3084   23057562.0754
       225.000         177.000
 122359948.95148  95345400.85448  23284334.3994   23284338.5594   23284334.7744
       223.000         170.000
 106839728.91148  83251720.40048  20330936.4744   20330939.3264   20330936.7024
       251.000         226.000
 108987773.25048  84925543.31148  20739678.9664   20739679.7714   20739679.8934
       249.000         229.000
 121739510.89948  94861939.91348  23166269.4274   23166271.0544   23166270.0614
       226.000         177.000
 141255384.76548  92276906.24548  24977081.7534   24977084.4984   24977081.1094
       207.000         152.000
 125709853.20948  97955740.15248  23921779.8004   23921781.6154   23921780.7804
       222.000         164.000
 120584920.40648  93962277.44148  22946544.4824   22946548.1944   22946545.1574
       231.000         186.000
 112856851.22948  87940381.35448  21475962.0614   21475962.4624   21475962.3084
       246.000         215.000
 06  7 19  1 50 30.0000000  0  9G11G15G 3G19G16G27G18G 7G22
 131085582.50548  84352400.77948  23041821.3944   23041823.4164   23041821.2284
       225.000         177.000
 122451186.58848  95416495.08848  23301697.6964   23301700.5234   23301697.8104
       227.000         174.000
 106865308.58448  83271652.61048  20335803.9554   20335806.8604   20335804.1534
       251.000         226.000
 108952117.32048  84897759.47648  20732893.8304   20732894.6424   20732894.7214
       249.000         229.000
 121844931.57748  94944085.87848  23186330.1084   23186331.9744   23186330.4504
       223.000         176.000
 141286967.82948  92301516.44348  24983092.0044   24983094.5354   24983092.1144
       201.000         149.000
 125790079.23448  98018253.93948  23937045.9084   23937048.0994   23937046.5224
       222.000         164.000
 120660572.29648  94021226.94948  22960940.6794   22960944.2244   22960941.1864
       230.000         186.000
 112881583.77248  87959653.47548  21480668.6274   21480668.9094   21480668.4964
       246.000         215.000
 06  7 19  1 51  0.0000000  0  9G11G15G 3G19G16G27G18G 7G22
 131003043.76148  84288084.86548  23026115.0604   23026117.1024   23026114.8564
       227.000         177.000
 122542500.37548  95487648.70748  23319073.9094   23319077.2414   23319075.7314
       223.000         171.000
 106891262.46248  83291876.40648  20340742.8674   20340745.6384   20340743.1394
       252.000         226.000
 108916722.52848  84870179.12248  20726158.4144   20726159.1344   20726159.4844
       249.000         230.000
 121950537.18148  95026375.92448  23206425.9384   23206428.3274   23206425.8544
       223.000         175.000
 141318915.99048  92326411.04848  24989170.3954   24989174.2184   24989171.2364
       199.000         148.000
 125870643.24648  98081031.12848  23952376.9324   23952378.3354   23952377.5874
       221.000         160.000
 120736438.58948  94080343.54248  22975377.4414   22975381.0794   22975378.3564
       226.000         184.000
 112906876.56548  87979362.14448  21485481.6514   21485481.9104   21485481.9334
       245.000         215.000
 06  7 19  1 51 30.0000000  0  9G11G15G 3G19G16G27G18G 7G22
 130920683.85448  84223908.30948  23010442.3134   23010444.4654   23010442.9674
       227.000         177.000
 122633889.37948  95558860.88048  23336463.2984   23336467.9684   23336463.2094
       218.000         171.000
 106917590.53648  83312391.78748  20345753.0544   20345755.7814   20345753.4674
       252.000         226.000
 108881590.33048  84842803.38648  20719472.9054   20719473.7394   20719473.7454
       249.000         230.000
 122056325.46748  95108808.33448  23226556.5634   23226559.0334   23226557.0334
       221.000         171.000
 141351227.29248  92351588.72348  24995319.6384   24995322.8644   24995318.7624
       209.000         155.000
 125951542.94748  98144069.84248  23967771.6464   23967773.7484   23967772.5594
       221.000         160.000
 120812518.55748  94139626.62348  22989855.0584   22989858.8894   22989855.3524
       230.000         185.000
 112932728.98448  87999506.90348  21490401.0344   21490401.3454   21490400.9554
       246.000         215.000
 06  7 19  1 52  0.0000000  0  9G11G15G 3G19G16G27G18G 7G22
 130838503.81848  84159871.89948  22994804.1184   22994805.6414   22994804.3984
       228.000         176.000
 122725352.27748  95630130.66248  23353869.5004   23353872.9614   23353869.6644
       226.000         173.000
 106944293.57548  83333199.34348  20350834.3344   20350837.3264   20350834.6794
       251.000         226.000
 108846722.02448  84815633.27948  20712837.8014   20712838.6814   20712838.6744
       249.000         230.000
 122162293.88748  95191381.11448  23246722.1074   23246723.9674   23246721.5994
       224.000         175.000
 141383900.00048  92377048.02148  25001537.3934   25001540.7974   25001539.0124
       206.000         156.000
 126032776.10348  98207368.39248  23983229.6464   23983231.9024   23983230.1394
       220.000         161.000
 120888812.30448  94199076.31048  23004373.2314   23004376.7694   23004374.1184
       230.000         185.000
 112959139.97948  88020086.89948  21495427.0084   21495427.3664   21495426.9504
       245.000         215.000
 06  7 19  1 52 30.0000000  0  9G11G15G 3G19G16G27G18G 7G22
 130756503.20648  84095975.30848  22979199.6674   22979201.3124   22979200.1254
       226.000         176.000
 122816886.95648  95701456.39748  23371288.4744   23371290.8174   23371289.6754
       225.000         172.000
 106971370.62048  83354298.33848  20355986.9934   20355989.9474   20355987.3254
       252.000         226.000
 108812118.08348  84788669.17048  20706252.9154   20706253.8064   20706253.8104
       249.000         230.000
 122268439.29848  95274091.81248  23266920.8474   23266923.0684   23266921.0664
       225.000         173.000
 141416931.42748  92402786.78348  25007821.6754   25007826.4614   25007823.7874
       207.000         155.000
 126114339.56548  98270924.32248  23998750.7094   23998752.6504   23998752.0834
       218.000         159.000
 120965318.44848  94258691.47748  23018931.5194   23018935.8974   23018932.2154
       228.000         184.000
 112986107.76148  88041100.76148  21500558.8344   21500559.3004   21500558.8234
       247.000         216.000
 06  7 19  1 53  0.0000000  0  9G11G15G 3G19G16G27G18G 7G22
 130674683.08548  84032219.36248  22963629.8724   22963631.4544   22963629.2644
       226.000         177.000
 122908492.68048  95772837.46548  23388719.5514   23388722.9944   23388720.0244
       221.000         170.000
 106998822.68748  83375689.55148  20361211.0434   20361213.8614   20361211.3564
       252.000         226.000
 108777780.20348  84761912.38348  20699718.5154   20699719.5384   20699719.3534
       249.000         230.000
 122374759.40148  95356938.62148  23287152.8104   23287155.1644   23287153.1554
       227.000         176.000
 141450320.16748  92428803.89348  25014176.3424   25014180.3414   25014175.1814
       208.000         153.000
 126196231.83448  98334736.47848  24014334.6284   24014335.9784   24014335.9904
       221.000         163.000
 121042037.20248  94318472.32848  23033531.0924   23033534.6514   23033531.9184
       229.000         184.000
 113013631.70548  88062547.99848  21505796.3864   21505796.9694   21505796.2614
       248.000         216.000
 06  7 19  1 53 30.0000000  0  9G11G15G 3G19G16G27G18G 7G22
 130593044.23348  83968604.68148  22948094.7504   22948096.3354   22948094.9604
       227.000         179.000
 123000168.20348  95844272.91448  23406165.0564   23406168.4074   23406166.0924
       222.000         170.000
 107026649.81848  83397373.03048  20366506.3474   20366509.1524   20366506.6754
       252.000         226.000
 108743709.45248  84735363.74748  20693235.1804   20693235.8794   20693236.1124
       248.000         230.000
 122481252.60848  95439920.32048  23307418.1164   23307420.3874   23307418.4404
       224.000         174.000
 141484064.36348  92455098.05448  25020598.0984   25020601.5254   25020599.2064
       209.000         153.000
 126278450.44348  98398802.92148  24029980.2124   24029981.8184   24029979.9564
       220.000         159.000
 121118968.19848  94378418.54148  23048170.4944   23048174.2574   23048171.3144
       231.000         184.000
 113041710.89648  88084427.89348  21511139.8034   21511140.1254   21511140.1594
       246.000         215.000
 06  7 19  1 54  0.0000000  0  9G11G15G 3G19G16G27G18G 7G22
 130511586.92348  83905131.47248  22932593.8384   22932595.7414   22932594.4104
       228.000         178.000
 123091912.18548  95915761.70848  23423623.7894   23423626.9694   23423624.4034
       220.000         172.000
 107054852.05348  83419348.79148  20371873.0624   20371875.8634   20371873.2624
       251.000         226.000
 108709906.97748  84709024.15748  20686802.6554   20686803.5184   20686803.5674
       249.000         230.000
 122587915.50348  95523034.26848  23327715.0714   23327717.1214   23327715.8984
       223.000         171.000
 141518161.53448  92481667.30248  25027085.5234   25027089.4434   25027086.1324
       208.000         152.000
 126360992.59848  98463121.48648  24045687.8104   24045688.8774   24045687.9414
       220.000         161.000
 121196110.71948  94438529.60048  23062849.8594   23062853.5974   23062850.5974
       228.000         182.000
 113070343.96148  88106739.38048  21516588.3114   21516588.5434   21516588.4004
       244.000         215.000
 06  7 19  1 54 30.0000000  0  9G11G15G 3G19G16G27G18G 7G22
 130430311.52548  83841800.00048  22917127.5574   22917129.6334   22917128.2904
       228.000         180.000
 123183723.04348  95987302.61248  23441094.3444   23441097.8894   23441094.6564
       220.000         171.000
 107083429.20648  83441616.69548  20377311.2574   20377313.8924   20377311.6124
       252.000         226.000
 108676373.77948  84682894.39248  20680421.4994   20680422.4234   20680422.4154
       248.000         230.000
 122694745.47848  95606278.40148  23348044.1884   23348046.4624   23348044.4934
       221.000         170.000
 141552609.72948  92508509.96948  25033642.1654   25033645.0894   25033640.7904
       207.000         154.000
 126443855.52848  98527690.00648  24061456.3424   24061456.9344   24061457.3164
       221.000         162.000
 121273464.30648  94498805.09748  23077569.8424   23077573.7454   23077569.9784
       229.000         182.000
 113099529.47648  88129481.34448  21522141.8284   21522142.7524   21522141.7774
       245.000         215.000
 06  7 19  1 55  0.0000000  0  9G11G15G 3G19G16G27G18G 7G22
 130349218.98048  83778610.98148  22901696.5214   22901698.3324   22901696.0704
       231.000         182.000
 123275599.97448  96058895.03348  23458578.1674   23458581.0784   23458578.9014
       221.000         167.000
 107112382.07948  83464177.37448  20382820.7744   20382823.4624   20382821.2394
       251.000         226.000
 108643111.72648  84656975.91248  20674091.9034   20674092.8884   20674092.7824
       249.000         230.000
 122801740.74048  95689651.35048  23368404.5134   23368406.8694   23368404.0154
       222.000         172.000
 141587407.40448  92535625.06248  25040263.3084   25040266.6544   25040264.8184
       206.000         153.000
 126527037.59748  98592507.19448  24077284.9204   24077286.5354   24077284.5884
       217.000         160.000
 121351028.79548  94559244.94648  23092330.1634   23092333.1134   23092331.2704
       228.000         181.000
 113129266.81848  88152653.30748  21527801.0454   21527801.4434   21527800.9114
       247.000         215.000
 06  7 19  1 55 30.0000000  0  9G11G15G 3G19G16G27G18G 7G22
 130268309.95048  83715564.98148  22886300.1064   22886301.7714   22886299.9804
       231.000         183.000
 123367541.87448  96130538.04848  23476073.6694   23476077.1854   23476074.0154
       219.000         169.000
 107141710.74548  83487030.87148  20388401.6914   20388404.4984   20388401.8734
       251.000         226.000
 108610121.77848  84631269.45848  20667814.0004   20667815.1174   20667814.8424
       248.000         230.000
 122908898.75748  95773151.11448  23388796.0584   23388798.2514   23388796.3584
       224.000         173.000
 141622552.63748  92563010.98348  25046950.8204   25046954.7674   25046951.2704
       201.000         153.000
 126610536.37548  98657571.16148  24093174.4984   24093176.0294   24093174.8944
       218.000         163.000
 121428803.93348  94619848.92548  23107130.0944   23107133.9214   23107130.9184
       229.000         183.000
 113159554.71748  88176254.27048  21533564.7274   21533565.1424   21533564.9354
       246.000         215.000
 06  7 19  1 56  0.0000000  0  9G11G15G 3G19G16G27G18G 7G22
 130187584.56548  83652662.09148  22870938.5154   22870940.2254   22870939.1744
       230.000         181.000
 123459546.73748  96202230.13648  23493581.6464   23493585.4744   23493582.1674
       218.000         170.000
 107171414.85248  83510176.92848  20394054.2704   20394056.9914   20394054.5054
       252.000         226.000
 108577404.59048  84605775.54548  20661588.2474   20661589.1344   20661588.9374
       248.000         230.000
 123016216.15948  95856775.04848  23409218.0724   23409220.1404   23409218.7494
       224.000         172.000
 141658042.55948  92590665.52648  25053703.4984   25053708.5864   25053702.5174
       194.000         147.000
 126694349.02448  98722879.69848  24109123.6134   24109124.9014   24109123.5824
       220.000         164.000
 121506788.72148  94680616.28348  23121970.1594   23121973.9184   23121970.8604
       229.000         183.000
 113190391.67548  88200283.07748  21539432.7534   21539433.0604   21539432.7744
       246.000         215.000
 06  7 19  1 56 30.0000000  0  9G11G15G 3G19G16G27G18G 7G22
 130107043.03548  83589902.44448  22855611.6974   22855614.0244   22855612.0864
       227.000         180.000
 123551613.28548  96273970.29348  23511101.6234   23511105.3544   23511102.1314
       220.000         171.000
 107201494.38148  83533615.51448  20399778.1734   20399780.9704   20399778.4684
       251.000         226.000
 108544961.37748  84580495.12148  20655414.5184   20655415.3844   20655415.3064
       249.000         231.000
 123123690.70048  95940521.44548  23429669.8374   23429672.2374   23429670.2264
       223.000         173.000
 141693875.01148  92618587.00348  25060522.3574   25060527.2614   25060521.2274
       198.000         146.000
 126778472.78848  98788430.68748  24125131.5134   24125133.3364   24125131.5784
       219.000         162.000
 121584982.44448  94741546.44548  23136849.8844   23136853.8584   23136850.3764
       227.000         179.000
 113221776.27448  88224738.61348  21545405.0064   21545405.3854   21545405.0574
       246.000         215.000
 06  7 19  1 57  0.0000000  0  9G11G15G 3G19G16G27G18G 7G22
 130026686.32448  83527286.83648  22840319.9604   22840322.4434   22840320.4914
       227.000         179.000
 123643740.83548  96345757.96448  23528632.5034   23528637.0314   23528632.8324
       217.000         169.000
 107231950.06948  83557347.21448  20405573.7464   20405576.5864   20405573.9384
       251.000         226.000
 108512793.79948  84555429.47948  20649293.3374   20649294.0644   20649294.3074
       249.000         231.000
 123231320.48348  96024388.82648  23450151.2394   23450153.7414   23450151.3104
       224.000         173.000
 141730048.41548  92646774.12048  25067407.3694   25067411.4414   25067409.0464
       197.000         149.000
 126862905.80248  98854222.64648  24141198.6404   24141200.2194   24141199.6684
       219.000         164.000
 121663385.25748  94802639.54448  23151769.5724   23151773.2804   23151770.4224
       226.000         180.000
 113253707.98048  88249620.46148  21551481.4904   21551481.8314   21551481.6464
       246.000         215.000
 06  7 19  1 57 30.0000000  0  9G11G15G 3G19G16G27G18G 7G22
 129946514.61248  83464815.34248  22825064.3764   22825065.9164   22825064.6074
       229.000         182.000
 123735927.74648  96417591.90048  23546175.4454   23546179.6654   23546177.0314
       218.000         168.000
 107262781.61748  83581371.79648  20411440.6604   20411443.7074   20411440.9184
       251.000         225.000
 108480902.42248  84530579.05848  20643224.5694   20643225.3684   20643225.4344
       249.000         231.000
 123339102.57448  96108374.87948  23470661.3124   23470663.8754   23470662.4404
       223.000         172.000
 141766560.80648  92675225.32948  25074355.0464   25074359.3354   25074354.7614
       196.000         150.000
 126947645.47648  98920253.55348  24157324.0204   24157325.5044   24157324.0724
       217.000         163.000
 121741996.42248  94863894.96748  23166728.5704   23166732.6244   23166728.9084
       228.000         181.000
 113286185.03148  88274927.26348  21557661.6724   21557662.1844   21557661.7534
       245.000         215.000
 06  7 19  1 58  0.0000000  0  9G11G15G 3G19G16G27G18G 7G22
 129866528.37548  83402488.40048  22809843.7644   22809845.2084   22809844.0064
       229.000         182.000
 123828172.92048  96489471.22948  23563729.3544   23563733.1134   23563729.5084
       218.000         167.000
 107293989.11048  83605689.31448  20417379.2714   20417382.1814   20417379.5874
       251.000         226.000
 108449288.97348  84505945.20148  20637208.6344   20637209.5204   20637209.3594
       249.000         231.000
 123447034.13348  96192477.42348  23491199.7764   23491202.0144   23491199.5464
       222.000         169.000
 141803409.69848  92703938.71048  25081367.0374   25081370.9524   25081367.7984
       201.000         149.000
 127032689.53048  98986521.64548  24173507.1934   24173509.0894   24173508.1954
       218.000         164.000
 121820815.23548  94925312.22148  23181727.4704   23181731.1624   23181728.3804
       226.000         177.000
 113319206.08248  88300657.95748  21563945.0904   21563945.6854   21563945.1954
       245.000         214.000
 06  7 19  1 58 30.0000000  0 10G11G15G 3G14G19G16G27G18G 7G22
 129786728.56448  83340306.76348  22794658.2184   22794659.8504   22794659.0354
       229.000         183.000
 123920475.07648  96561394.95848  23581293.1824   23581297.5064   23581294.1834
       212.000         165.000
 107325572.56548  83630299.79548  20423389.5174   20423392.2714   20423389.7414
       252.000         226.000
 130760315.13048 101891149.58048  24882864.7684   24882866.1084   24882864.0494
       208.000         148.000
 108417954.50948  84481528.73948  20631245.8834   20631246.7634   20631246.7494
       248.000         231.000
 123555113.29748  96276694.96048  23511766.3454   23511768.8074   23511767.1744
       223.000         168.000
 141840592.86348  92732912.60048  25088443.4754   25088446.1954   25088441.3874
       196.000         146.000
 127118035.29948  99053024.81948  24189748.2144   24189750.4054   24189748.8264
       215.000         161.000
 121899841.54448  94986891.17148  23196765.7694   23196769.4794   23196766.6994
       228.000         182.000
 113352769.98748  88326811.65548  21570332.1734   21570332.6074   21570332.4824
       245.000         214.000
 06  7 19  1 59  0.0000000  0 10G11G15G 3G14G19G16G27G18G 7G22
 129707114.77148  83278270.07248  22779508.2054   22779509.7604   22779508.5294
       229.000         182.000
 124012832.26548  96633361.60748  23598868.3274   23598872.2394   23598868.7294
       216.000         166.000
 107357531.78448  83655203.07748  20429471.0764   20429473.9674   20429471.5214
       251.000         226.000
 140681149.24258  91829465.39358  24867795.7735   24867797.0635   24867795.8475
       203.000         146.000
 108386900.33648  84457330.68148  20625336.5514   20625337.4044   20625337.3744
       249.000         231.000
 123663336.46948  96361024.73048  23532360.4094   23532363.6784   23532361.5324
       220.000         170.000
 141878107.86648  92762145.04448  25095581.6704   25095584.7694   25095582.1244
       195.000         143.000
 127203679.93848  99119760.87248  24206045.8144   24206047.8294   24206046.8494
       215.000         160.000
 121979074.07248  95048630.76648  23211843.2164   23211847.4074   23211843.9974
       228.000         178.000
 113386874.91748  88353386.92548  21576822.1784   21576822.5324   21576822.4864
       245.000         214.000
 06  7 19  1 59 30.0000000  0 10G11G15G 3G14G19G16G27G18G 7G22
 129627689.06148  83216379.95148  22764393.8854   22764395.4844   22764393.2224
       230.000         181.000
 124105244.91148  96705371.43348  23616453.9084   23616458.0414   23616454.5034
       213.000         164.000
 107389868.05348  83680400.17048  20435624.5284   20435627.4004   20435624.6984
       252.000         226.000
 140602084.82448  91767856.78048  24852750.2294   24852752.7494   24852749.4094
       204.000         145.000
 108356127.72848  84433352.03148  20619480.5684   20619481.5504   20619481.3584
       249.000         231.000
 123771702.76248  96445466.00448  23552981.8764   23552984.9584   23552981.1644
       220.000         170.000
 141915953.94748  92791635.53648  25102782.1684   25102786.5454   25102785.0124
       196.000         137.000
 127289622.38348  99186729.01048  24222399.8864   24222402.3074   24222400.3524
       214.000         157.000
 122058513.83548  95110531.89148  23226960.1454   23226963.7644   23226960.9154
       227.000         180.000
 113421520.97248  88380383.85848  21583415.0984   21583415.4864   21583415.3364
       245.000         214.000
 06  7 19  2  0  0.0000000  0 10G11G15G 3G14G19G16G27G18G 7G22
 129548451.42248  83154636.39848  22749315.1104   22749316.8864   22749315.5804
       229.000         181.000
 124197711.24548  96777423.10848  23634049.4934   23634053.5124   23634050.6274
       212.000         164.000
 107422580.85348  83705890.66048  20441849.5064   20441852.3504   20441849.6684
       252.000         225.000
 140523140.08248  91706341.38848  24837727.9714   24837730.0104   24837728.2044
       208.000         149.000
 108325637.84548  84409593.68248  20613678.7044   20613679.4404   20613679.7104
       249.000         231.000
 123880209.09048  96530016.40348  23573630.6374   23573632.8254   23573630.1724
       223.000         170.000
 141954128.62548  92821381.97948  25110047.5824   25110051.1064   25110046.4644
       181.000         131.000
 127375859.55248  99253926.82248  24238810.2994   24238812.5184   24238810.6044
       215.000         158.000
 122138159.78048  95172593.66048  23242116.3944   23242120.1434   23242117.4354
       226.000         178.000
 113456706.03048  88407800.79148  21590110.6104   21590111.0724   21590110.5314
       245.000         214.000
 06  7 19  2  0 30.0000000  0  9G11G15G 3G14G19G16G18G 7G22
 129469402.06848  83093039.53548  22734272.7464   22734274.3764   22734273.4434
       229.000         183.000
 124290230.01748  96849515.63248  23651655.2444   23651659.2864   23651655.5884
       214.000         164.000
 107455670.24948  83731674.60048  20448146.4254   20448148.9844   20448146.7634
       252.000         225.000
 140444318.35248  91644921.84048  24822728.8904   24822731.6374   24822728.9024
       210.000         152.000
 108295432.02148  84386056.67748  20607930.5674   20607931.4884   20607931.4284
       249.000         231.000
 123988852.90648  96614673.94948  23594304.6964   23594306.5384   23594305.1984
       223.000         169.000
 127462388.95048  99321352.33248  24255276.1534   24255279.0414   24255275.6684
       216.000         158.000
 122218011.27148  95234815.63248  23257311.3584   23257315.0504   23257311.9704
       227.000         178.000
 113492428.69248  88435636.63248  21596908.3594   21596908.6924   21596908.4024
       245.000         213.000
 06  7 19  2  1  0.0000000  0  9G11G15G 3G14G19G16G18G 7G22
 129390541.28548  83031589.61748  22719265.7854   22719267.7214   22719265.6424
       230.000         183.000
 124382799.63348  96921647.76748  23669270.6314   23669274.7364   23669270.6844
       211.000         162.000
 107489135.70248  83757751.56948  20454514.6024   20454517.2904   20454514.8584
       252.000         225.000
 140365622.34148  91583600.29348  24807753.4444   24807755.5714   24807754.0834
       208.000         149.000
 108265511.06848  84362741.64948  20602236.9664   20602237.8454   20602237.7764
       249.000         232.000
 124097631.30548  96699436.35048  23615004.1824   23615006.4384   23615005.0374
       221.000         167.000
 127549207.68748  99389003.30048  24271797.3194   24271800.0594   24271796.8104
       217.000         155.000
 122298067.40648  95297197.02648  23272545.8134   23272549.7594   23272546.3784
       224.000         177.000
 113528687.03248  88463889.88148  21603808.1964   21603808.5694   21603808.2304
       245.000         214.000
 06  7 19  2  1 30.0000000  0  9G11G15G 3G14G19G16G18G 7G22
 129311869.99748  82970287.33348  22704295.0744   22704296.9014   22704294.5504
       231.000         184.000
 124475419.41948  96993818.97748  23686895.5894   23686899.9094   23686895.7184
       210.000         162.000
 107522978.07348  83784122.24648  20460954.5724   20460957.3484   20460954.9704
       252.000         225.000
 140287055.65048  91522379.47248  24792802.1284   24792804.0074   24792802.5274
       208.000         146.000
 108235876.75548  84339649.97848  20596597.6024   20596598.4984   20596598.6454
       248.000         232.000
 124206542.23148  96784302.03748  23635728.9984   23635731.2264   23635728.4984
       219.000         165.000
 127636313.87848  99456878.29648  24288372.3334   24288375.4634   24288373.3164
       214.000         151.000
 122378328.14148  95359737.87948  23287818.5934   23287821.8814   23287819.0044
       226.000         176.000
 113565480.63548  88492560.23048  21610809.8544   21610810.1664   21610810.0284
       243.000         214.000
 06  7 19  2  2  0.0000000  0  9G11G15G 3G14G19G16G18G 7G22
 129233388.57548  82909133.01048  22689360.4764   22689362.3164   22689361.1064
       231.000         182.000
 124568087.97748  97066028.22948  23704530.4174   23704533.8734   23704530.2114
       216.000         164.000
 107557197.05548  83810786.38648  20467466.3014   20467468.9234   20467466.4514
       252.000         225.000
 140208621.34948  91461261.78348  24777877.1694   24777878.4644   24777876.1514
       208.000         147.000
 108206529.89248  84316782.28948  20591013.0994   20591014.0124   20591013.9184
       249.000         232.000
 124315582.82448  96869268.77248  23656478.4494   23656481.2064   23656478.6924
       221.000         167.000
 127723705.22948  99524975.47148  24305002.9364   24305005.5984   24305003.1624
       215.000         154.000
 122458792.91048  95422437.67548  23303130.6554   23303134.3564   23303131.5634
       224.000         177.000
 113602807.66848  88521646.23048  21617912.6864   21617913.3574   21617912.6944
       245.000         214.000
 06  7 19  2  2 30.0000000  0  9G11G15G 3G14G19G16G18G 7G22
 129155096.41448  82848126.14248  22674461.7164   22674463.8754   22674462.1494
       231.000         183.000
 124660803.21648  97138273.85448  23722173.8444   23722176.8094   23722174.8984
       217.000         162.000
 107591791.87148  83837743.38048  20474049.2744   20474052.0944   20474049.7544
       251.000         225.000
 140130321.64148  91400249.02048  24762976.4664   24762979.8574   24762976.7754
       209.000         150.000
 108177470.92948  84294138.94548  20585483.3984   20585484.3184   20585484.3024
       249.000         232.000
 124424749.97248  96954334.12748  23677252.8784   23677255.2644   23677253.1894
       222.000         170.000
 127811378.08948  99593291.97648  24321686.6794   24321688.8034   24321686.5564
       213.000         152.000
 122539460.15348  95485295.29548  23318480.8264   23318485.0974   23318481.6064
       221.000         173.000
 113640665.71848  88551146.01748  21625116.9624   21625117.4804   21625117.2594
       245.000         214.000
 06  7 19  2  3  0.0000000  0  9G11G15G 3G14G19G16G18G 7G22
 129076994.78948  82787267.73448  22659599.7904   22659601.6684   22659600.1574
       232.000         184.000
 124753564.44148  97210555.33448  23739825.8324   23739828.3544   23739827.1734
       212.000         160.000
 107626762.93848  83864993.56348  20480704.2694   20480706.9834   20480704.5214
       251.000         226.000
 140052160.12548  91339343.95548  24748103.1724   24748106.2094   24748102.7454
       207.000         151.000
 108148701.61648  84271721.29948  20580008.7424   20580009.8274   20580009.6534
       249.000         232.000
 124534041.42148  97039496.32948  23698050.2084   23698053.3564   23698050.9654
       220.000         168.000
 127899330.72248  99661826.46348  24338423.8404   24338425.3874   24338424.1714
       209.000         151.000
 122620329.90148  95548310.67848  23333870.1524   23333873.8874   23333869.8794
       225.000         177.000
 113679053.89448  88581058.88148  21632421.9894   21632422.4784   21632422.0884
       245.000         214.000
 06  7 19  2  3 30.0000000  0  9G11G15G 3G14G19G16G18G 7G22
 128999083.99948  82726558.02048  22644774.0224   22644775.4694   22644774.1994
       233.000         185.000
 124846370.63948  97282871.85348  23757485.8054   23757489.3124   23757486.0614
       213.000         162.000
 107662110.27948  83892536.93448  20487430.2924   20487433.4504   20487430.4734
       251.000         226.000
 139974139.85948  91278548.97848  24733256.0074   24733259.4954   24733256.3304
       207.000         150.000
 108120223.07248  84249530.22448  20574589.4574   20574590.4924   20574590.2024
       249.000         232.000
 124643454.88848  97124753.54948  23718870.7604   23718874.1724   23718870.5614
       217.000         165.000
 127987560.42548  99730576.92848  24355212.7624   24355214.3954   24355213.5984
       213.000         152.000
 122701401.39048  95611483.27648  23349297.2704   23349301.5064   23349298.2124
       223.000         174.000
 113717970.57648  88611383.57248  21639827.5754   21639828.0724   21639827.5704
       245.000         213.000
 06  7 19  2  4  0.0000000  0  9G11G15G 3G14G19G16G18G 7G22
 128921365.04248  82665997.81248  22629984.5564   22629986.3354   22629984.8254
       231.000         184.000
 124939220.83148  97355222.62748  23775154.4364   23775158.6854   23775155.1544
       219.000         164.000
 107697834.27048  83920373.81348  20494228.6794   20494231.4944   20494228.9964
       252.000         226.000
 139896264.51848  91217866.89948  24718437.6894   24718439.9104   24718438.3884
       208.000         149.000
 108092037.09748  84227567.12748  20569225.8394   20569226.7784   20569226.8164
       249.000         232.000
 124752987.69948  97210103.81148  23739714.3224   23739716.4044   23739714.7234
       221.000         161.000
 128076065.46948  99799541.90748  24372055.0684   24372056.5184   24372055.1504
       211.000         154.000
 122782674.49148  95674812.99248  23364763.0464   23364766.6444   23364763.3924
       224.000         173.000
 113757414.77848  88642119.31948  21647333.8734   21647333.8974   21647334.1004
       245.000         213.000
 06  7 19  2  4 30.0000000  0  9G11G15G 3G14G19G16G18G 7G22
 128843838.00348  82605587.14048  22615231.5304   22615233.4344   22615231.6704
       232.000         185.000
 125032113.86948  97427606.77648  23792832.3524   23792835.3744   23792832.9874
       216.000         165.000
 107733934.67048  83948503.99148  20501098.0714   20501101.2044   20501098.2964
       252.000         226.000
 139818536.87548  91157299.93548  24703646.6804   24703647.0794   24703646.5894
       210.000         149.000
 108064144.33948  84205832.51448  20563917.9454   20563919.0244   20563918.6324
       249.000         232.000
 124862637.76148  97295545.47248  23760580.4474   23760581.5594   23760581.0784
       218.000         163.000
 128164842.68548  99868718.92848  24388948.1294   24388950.4944   24388949.2704
       208.000         152.000
 122864148.44048  95738299.19848  23380267.0284   23380270.9594   23380267.1944
       224.000         174.000
 113797384.53048  88673264.58048  21654939.5954   21654939.9334   21654939.7734
       245.000         213.000
 06  7 19  2  5  0.0000000  0  9G11G15G 3G14G19G16G18G 7G22
 128766503.45248  82545326.46048  22600515.3654   22600517.2564   22600516.1434
       233.000         186.000
 125125048.73848  97500023.57648  23810516.6494   23810520.4824   23810518.1294
       217.000         165.000
 107770411.41548  83976927.42748  20508039.6454   20508042.5394   20508039.9884
       251.000         226.000
 139740959.99848  91096850.48248  24688883.7174   24688886.1024   24688883.9864
       209.000         150.000
 108036546.23348  84184327.49848  20558666.2994   20558667.1654   20558667.1884
       249.000         232.000
 124972402.24748  97381076.30648  23781467.9594   23781469.6324   23781467.5434
       221.000         166.000
 128253889.89348  99938106.35548  24405893.2974   24405895.0424   24405893.6654
       209.000         153.000
 122945822.73548  95801941.49548  23395809.3084   23395813.0734   23395809.7824
       223.000         170.000
 113837878.33448  88704818.20348  21662645.3914   21662645.5224   21662645.5724
       244.000         213.000
 06  7 19  2  5 30.0000000  0  9G11G15G 3G14G19G16G18G 7G22
 128689362.04148  82485216.28848  22585835.9684   22585837.8244   22585835.5014
       234.000         187.000
 125218024.38448  97572472.10348  23828208.9514   23828212.7844   23828209.3164
       217.000         163.000
 107807264.61348  84005644.20248  20515052.3224   20515055.3384   20515052.2694
       252.000         226.000
 139663537.34748  91036521.13148  24674150.6304   24674153.1594   24674150.2154
       208.000         150.000
 108009244.04848  84163053.07248  20553470.8414   20553471.7784   20553471.6724
       250.000         233.000
 125082278.76048  97466694.40448  23802376.7094   23802378.6224   23802376.9174
       222.000         167.000
 128343204.62048 100007702.23948  24422888.9974   24422891.7754   24422889.1014
       208.000         155.000
 123027696.79648  95865739.47948  23411389.4634   23411393.1434   23411389.9644
       221.000         173.000
 113878894.84248  88736779.12348  21670450.5724   21670450.8004   21670450.4444
       244.000         213.000
 06  7 19  2  6  0.0000000  0  9G11G15G 3G14G19G16G18G 7G22
 128612414.21648  82425256.96948  22571193.1834   22571195.0814   22571193.5154
       232.000         187.000
 125311039.76448  97644951.61048  23845909.9184   23845913.1294   23845911.0144
       219.000         162.000
 107844494.44448  84034654.45748  20522137.1244   20522139.9984   20522137.5404
       251.000         226.000
 139586272.00448  90976314.38848  24659447.7634   24659448.9734   24659447.0264
       211.000         153.000
 107982239.49648  84142010.56248  20548332.0494   20548332.8714   20548333.0644
       249.000         233.000
 125192265.14648  97552398.10248  23823305.9204   23823308.6364   23823307.1384
       221.000         167.000
 128432784.74448 100077504.92448  24439935.5314   24439938.4624   24439935.4294
       208.000         154.000
 123109770.49848  95929692.97148  23427007.3794   23427011.3614   23427008.0834
       222.000         172.000
 113920432.73148  88769146.31148  21678354.9314   21678354.9354   21678354.8774
       244.000         213.000
 06  7 19  2  6 30.0000000  0  9G11G15G 3G14G19G16G18G 7G22
 128535660.10948  82365448.59048  22556587.2894   22556589.1744   22556587.4914
       232.000         188.000
 125404093.20948  97717460.76448  23863617.0034   23863620.2924   23863617.8564
       215.000         159.000
 107882100.43548  84063957.82248  20529293.1534   20529296.1354   20529293.3654
       251.000         225.000
 139509166.94148  90916232.58448  24644774.9204   24644777.8894   24644775.1154
       209.000         153.000
 107955532.85048  84121200.19148  20543249.9674   20543250.8424   20543250.7334
       250.000         233.000
 125302358.16148  97638184.87548  23844256.1734   23844259.0674   23844256.9584
       219.000         166.000
 128522627.26448 100147512.10248  24457031.8464   24457035.1204   24457033.1614
       210.000         156.000
 123192042.39948  95993800.93048  23442663.3154   23442666.8864   23442663.9284
       221.000         169.000
 113962489.83948  88801918.09348  21686358.4334   21686358.2164   21686358.4314
       244.000         213.000
 06  7 19  2  7  0.0000000  0  9G11G15G 3G14G19G16G18G 7G22
 128459100.50748  82305791.77748  22542018.4904   22542020.1984   22542019.0694
       232.000         188.000
 125497184.06648  97789999.08748  23881331.7404   23881334.4644   23881332.0464
       220.000         161.000
 107920082.89948  84093554.54648  20536521.0304   20536524.0554   20536521.4304
       251.000         226.000
 139432225.42848  90856278.19148  24630133.5694   24630136.0724   24630133.6384
       211.000         153.000
 107929125.74248  84100623.22348  20538225.0014   20538225.7084   20538226.0084
       249.000         233.000
 125412555.67348  97724053.10048  23865225.9494   23865227.7484   23865226.2604
       220.000         163.000
 128612730.09548 100217722.13948  24474178.4234   24474180.8764   24474177.9294
       213.000         157.000
 123274512.37648  96058063.23048  23458356.8944   23458360.7084   23458357.6824
       223.000         173.000
 114005064.99048  88835093.52648  21694459.9974   21694460.1144   21694459.8194
       244.000         212.000
 06  7 19  2  7 30.0000000  0  9G11G15G 3G14G19G16G18G 7G22
 128382735.49548  82246286.58548  22527486.6374   22527488.7514   22527486.4584
       232.000         188.000
 125590310.92048  97862565.46148  23899053.4104   23899056.6774   23899053.9084
       219.000         162.000
 107958441.32248  84123444.22248  20543820.4384   20543823.4674   20543820.7444
       252.000         226.000
 139355450.40348  90796453.51248  24615523.2664   24615525.9424   24615523.8064
       211.000         155.000
 107903018.73748  84080280.10348  20533256.9204   20533257.7534   20533257.5254
       249.000         233.000
 125522854.99948  97810000.67148  23886215.3504   23886215.8974   23886215.8204
       220.000         163.000
 128703090.57248 100288132.90548  24491373.7504   24491376.3124   24491374.4464
       211.000         158.000
 123357179.70048  96122479.30648  23474087.8464   23474091.3274   23474088.6244
       221.000         168.000
 114048156.28748  88868671.16948  21702659.9184   21702659.9224   21702659.7254
       243.000         212.000
 06  7 19  2  8  0.0000000  0  9G11G15G 3G14G19G16G18G 7G22
 128306566.21548  82186933.90148  22512992.0134   22512993.8724   22512992.1564
       232.000         188.000
 125683473.27948  97935159.50948  23916780.9674   23916784.8524   23916782.1524
       216.000         162.000
 107997176.25748  84153627.27848  20551191.4854   20551194.2724   20551191.8424
       251.000         225.000
 139278845.40848  90736761.39448  24600946.2434   24600948.2394   24600947.2064
       215.000         157.000
 107877214.05348  84060172.55448  20528346.3024   20528347.2694   20528347.1794
       250.000         233.000
 125633253.91748  97896025.83948  23907224.2854   23907224.6634   23907223.3224
       222.000         164.000
 128793706.57348 100358742.78248  24508616.9944   24508619.7774   24508616.3594
       216.000         160.000
 123440044.06848  96187048.95148  23489856.0844   23489859.8364   23489856.1584
       220.000         169.000
 114091762.52748  88902650.05048  21710957.7004   21710958.2464   21710957.7884
       243.000         211.000
 06  7 19  2  8 30.0000000  0  9G11G15G 3G14G19G16G18G 7G22
 128230592.35348  82127733.51548  22498534.6554   22498536.6334   22498535.2664
       234.000         189.000
 125776669.21548  98007779.68748  23934515.6034   23934519.8784   23934515.6794
       215.000         162.000
 108036286.51648  84184102.80348  20558633.9014   20558636.7774   20558633.9634
       251.000         226.000
 139202412.78648  90677203.47748  24586402.1034   24586404.5534   24586402.5284
       212.000         157.000
 107851712.33848  84040301.08948  20523493.4994   20523494.4544   20523494.2824
       249.000         233.000
 125743749.20848  97982126.08948  23928250.5704   23928252.2974   23928251.2394
       217.000         163.000
 128884574.97948 100429549.33248  24525909.2644   24525911.5284   24525910.5694
       218.000         161.000
 123523104.18848  96251771.09948  23505662.1834   23505666.0384   23505662.4694
       222.000         168.000
 114135880.81648  88937027.94848  21719353.1744   21719353.5334   21719353.1824
       243.000         211.000
 06  7 19  2  9  0.0000000  0  9G11G15G 3G14G19G16G18G 7G22
 128154814.07348  82068685.52548  22484114.8264   22484116.4744   22484115.1924
       234.000         190.000
 125869897.58348  98080425.18348  23952256.6224   23952260.6124   23952257.9124
       216.000         160.000
 108075772.25848  84214870.90848  20566147.8334   20566150.7334   20566148.0694
       252.000         226.000
 139126155.57248  90617782.31448  24571890.7384   24571893.4294   24571891.6424
       215.000         158.000
 107826514.32448  84020666.27248  20518698.4694   20518699.3994   20518699.4014
       249.000         233.000
 125854338.06548  98068299.22248  23949294.3314   23949296.9894   23949294.6024
       217.000         162.000
 128975693.29348 100500550.62848  24543248.6144   24543250.4524   24543249.3234
       219.000         162.000
 123606359.08748  96316645.05948  23521504.8624   23521508.8194   23521505.3554
       218.000         166.000
 114180510.01648  88971803.94448  21727845.6704   21727846.2594   21727845.7934
       244.000         211.000
 06  7 19  2  9 30.0000000  0  9G11G15G 3G14G19G16G18G 7G22
 128079232.30648  82009790.66748  22469731.9184   22469733.9074   22469732.2064
       233.000         191.000
 125963157.97848  98153095.59848  23970003.6534   23970007.2524   23970004.0284
       213.000         156.000
 108115633.78148  84245931.83048  20573733.3284   20573736.0584   20573733.7074
       251.000         226.000
 139050077.43048  90558500.66348  24557413.6084   24557415.5824   24557414.7454
       209.000         157.000
 107801621.69148  84001269.41648  20513961.6434   20513962.4264   20513962.6144
       249.000         234.000
 125965018.92348  98154544.03048  23970356.4804   23970358.5064   23970357.0314
       220.000         165.000
 129067059.29548 100571744.91348  24560635.2044   24560636.5894   24560636.1234
       221.000         160.000
 123689808.93748  96381670.90648  23537384.7084   23537389.0134   23537385.0474
       220.000         166.000
 114225648.63948  89006976.90448  21736435.7664   21736435.6544   21736436.2044
       244.000         211.000
 06  7 19  2 10  0.0000000  0  9G11G15G 3G14G19G16G18G 7G22
 128003847.51748  81951049.29948  22455386.4464   22455388.4814   22455386.5824
       234.000         189.000
 126056449.04148  98225789.97048  23987756.0134   23987759.7204   23987757.6724
       209.000         156.000
 108155870.91448  84277285.43848  20581390.0794   20581393.0954   20581390.3344
       251.000         226.000
 138974181.30148  90499360.87948  24542969.8134   24542972.7674   24542969.7614
       212.000         156.000
 107777035.61348  83982111.43148  20509283.1224   20509284.0434   20509284.0014
       250.000         234.000
 126075788.65748  98240858.15048  23991435.5364   23991436.6524   23991436.9544
       219.000         160.000
 129158670.64248 100643130.39548  24578068.5544   24578069.6524   24578068.9654
       216.000         158.000
 123773452.76448  96446847.90848  23553301.6134   23553305.7224   23553301.9644
       217.000         164.000
 114271294.84548  89042545.37648  21745121.7594   21745122.0244   21745121.9724
       244.000         211.000
 06  7 19  2 10 30.0000000  0  9G11G15G 3G14G19G16G18G 7G22
 127928660.85848  81892462.31748  22441078.9224   22441080.7074   22441079.5284
       234.000         189.000
 126149770.39548  98298507.90848  24005514.2084   24005517.7704   24005513.6054
       214.000         158.000
 108196484.02048  84308932.00948  20589118.3684   20589121.4834   20589118.5914
       251.000         226.000
 138898471.10648  90440365.90648  24528564.0444   24528566.4664   24528564.0814
       209.000         156.000
 107752757.84348  83963193.68848  20504663.3864   20504664.0994   20504664.4094
       250.000         234.000
 126186645.63348  98327240.22348  24012529.6374   24012531.8014   24012530.2364
       213.000         154.000
 129250525.49048 100714705.59948  24595547.5504   24595549.2274   24595547.5814
       215.000         155.000
 123857290.62048  96512176.13248  23569255.4114   23569259.5484   23569255.8924
       218.000         164.000
 114317447.49448  89078508.48848  21753904.2014   21753904.3764   21753904.1834
       243.000         210.000
 06  7 19  2 11  0.0000000  0  9G11G15G 3G14G19G16G18G 7G22
 127853672.25148  81834029.65148  22426809.0344   22426811.0164   22426809.7504
       235.000         190.000
 126243120.78548  98371248.46248  24023278.5054   24023282.2374   24023280.4304
       212.000         158.000
 108237472.71948  84340871.24448  20596918.4354   20596921.4474   20596918.7454
       251.000         226.000
 138822949.32948  90381517.78048  24514191.7284   24514194.5934   24514191.1314
       210.000         156.000
 107728789.37548  83944516.95748  20500102.3064   20500102.9904   20500103.4034
       250.000         235.000
 126297587.11248  98413688.12248  24033641.2524   24033642.2134   24033640.3884
       214.000         155.000
 129342620.72148 100786468.13648  24613072.5704   24613074.3134   24613073.4124
       210.000         151.000
 123941321.55148  96577654.80248  23585246.4214   23585250.5624   23585247.1624
       217.000         164.000
 114364104.66448  89114864.72348  21762782.7924   21762783.1954   21762782.9124
       243.000         211.000
 06  7 19  2 11 30.0000000  0  9G11G15G 3G14G19G16G18G 7G22
 127778881.79448  81775751.40948  22412576.9064   22412578.9444   22412577.1934
       234.000         190.000
 126336498.71848  98444010.50248  24041047.7634   24041051.3644   24041047.8884
       217.000         161.000
 108278836.51848  84373102.77848  20604789.6264   20604792.6484   20604789.9064
       251.000         226.000
 138747619.22348  90322818.97648  24499857.6854   24499859.4744   24499857.7574
       214.000         156.000
 107705131.20848  83926082.02348  20495600.3164   20495601.0774   20495601.0854
       251.000         235.000
 126408610.10748  98500199.53548  24054768.2774   24054769.8324   24054768.3294
       214.000         159.000
 129434953.64248 100858415.91048  24630642.9534   24630644.7624   24630642.7994
       206.000         148.000
 124025544.58148  96643283.14248  23601273.3994   23601277.8274   23601274.3894
       217.000         165.000
 114411264.18148  89151612.40148  21771756.8724   21771757.2784   21771756.9924
       243.000         210.000
 06  7 19  2 12  0.0000000  0  9G11G15G 3G14G19G16G18G 7G22
 127704290.48748  81717628.32148  22398382.6034   22398384.6884   22398382.6284
       234.000         190.000
 126429903.37248  98516793.33748  24058822.0884   24058825.6214   24058822.9814
       219.000         163.000
 108320575.75048  84405626.84948  20612732.3154   20612735.2584   20612732.5994
       251.000         225.000
 138672483.79248  90264271.90448  24485558.7454   24485561.0924   24485558.3134
       214.000         155.000
 107681784.56748  83907889.83348  20491157.4624   20491158.3824   20491158.3034
       250.000         235.000
 126519712.32348  98586772.65648  24075910.9864   24075912.2444   24075911.0324
       222.000         164.000
 129527522.17448 100930547.24348  24648258.5034   24648259.8194   24648258.7424
       206.000         144.000
 124109959.29848  96709060.84548  23617337.2684   23617341.1724   23617338.0594
       218.000         164.000
 114458924.66248  89188750.44548  21780826.4004   21780826.5374   21780826.4634
       244.000         210.000
 06  7 19  2 12 30.0000000  0  9G11G15G 3G14G19G16G18G 7G22
 127629898.05248  81659660.20848  22384226.3054   22384228.0514   22384225.8404
       235.000         191.000
 126523333.46948  98589596.03648  24076601.7014   24076604.8424   24076602.8444
       221.000         168.000
 108362689.70748  84438442.91048  20620746.4444   20620749.3394   20620746.6774
       251.000         225.000
 138597546.13648  90205878.90848  24471298.6664   24471301.3284   24471298.4014
       210.000         156.000
 107658750.66248  83889941.33648  20486774.1174   20486775.2564   20486774.8824
       250.000         235.000
 126630890.90748  98673405.26048  24097067.9284   24097070.1054   24097068.7424
       218.000         164.000
 129620323.74448 101002860.19148  24665918.4154   24665920.0524   24665918.7464
       205.000         144.000
 124194564.67648  96774987.14348  23633436.7274   23633440.6874   23633437.6914
       214.000         162.000
 114507083.63948  89226276.92048  21789990.9364   21789990.9934   21789991.2424
       244.000         211.000
 06  7 19  2 13  0.0000000  0  9G11G15G 3G14G19G16G18G 7G22
 127555705.15348  81601847.58048  22370107.9844   22370109.5544   22370107.9964
       235.000         192.000
 126616788.04248  98662417.77548  24094385.4504   24094388.4994   24094385.7394
       220.000         169.000
 108405178.21548  84471550.83248  20628831.7644   20628834.5764   20628832.0374
       251.000         225.000
 138522809.33248  90147642.43948  24457077.5764   24457079.9904   24457077.4344
       211.000         157.000
 107636030.37848  83872237.21648  20482450.6744   20482451.6734   20482451.5814
       250.000         235.000
 126742143.52248  98760095.55048  24118238.1554   24118241.4974   24118238.9574
       214.000         156.000
 129713355.84148 101075352.69248  24683622.0074   24683622.4564   24683621.4004
       202.000         138.000
 124279360.05748  96841061.43748  23649573.2814   23649577.2374   23649574.6334
       217.000         166.000
 114555739.71748  89264190.74348  21799250.1144   21799250.0404   21799250.3914
       244.000         211.000
 06  7 19  2 13 30.0000000  0  9G11G15G 3G14G19G16G18G 7G22
 127481712.41048  81544190.91148  22356027.5694   22356029.1904   22356027.4734
       235.000         191.000
 126710266.18048  98735257.88248  24112173.2744   24112176.9634   24112174.0164
       217.000         168.000
 108448041.53948  84504950.81948  20636988.3024   20636991.1894   20636988.5684
       252.000         226.000
 138448276.55848  90089564.98648  24442894.0134   24442896.8224   24442894.3424
       215.000         159.000
 107613624.91448  83854778.40948  20478187.0944   20478188.1354   20478187.9864
       250.000         235.000
 126853467.72248  98846841.64248  24139421.8954   24139424.2564   24139422.6044
       213.000         151.000
 129806615.98248 101148022.93548  24701368.0324   24701369.3624   24701368.9194
       202.000         137.000
 124364344.86148  96907283.40748  23665744.7164   23665748.9424   23665745.9184
       214.000         161.000
 114604891.14948  89302490.56648  21808603.1824   21808603.1354   21808603.0714
       244.000         211.000
 06  7 19  2 14  0.0000000  0  9G11G15G 3G14G19G16G18G 7G22
 127407920.21748  81486690.52148  22341985.2414   22341986.7914   22341986.0394
       236.000         191.000
 126803766.99848  98808115.70548  24129965.2664   24129969.7004   24129965.1054
       213.000         166.000
 108491279.03948  84538642.37248  20645216.3284   20645219.0584   20645216.7984
       252.000         226.000
 138373951.01748  90031648.95848  24428750.2294   24428752.5544   24428751.5464
       212.000         154.000
 107591535.82448  83837566.13448  20473983.7034   20473984.6064   20473984.5934
       250.000         235.000
 126964860.81248  98933641.44048  24160620.2164   24160620.6294   24160619.9094
       218.000         152.000
 129900101.68148 101220868.88748  24719158.0024   24719159.0104   24719156.7784
       200.000         135.000
 124449518.49148  96973652.46348  23681952.7874   23681956.9514   23681953.0744
       218.000         165.000
 114654535.95848  89341174.83948  21818050.1254   21818050.2894   21818050.0754
       243.000         211.000
 06  7 19  2 14 30.0000000  0  9G11G15G 3G14G19G16G18G 7G22
 127334328.75448  81429346.53348  22327981.4644   22327982.9174   22327982.2324
       237.000         194.000
 126897289.32248  98880990.24548  24147762.3924   24147766.6034   24147763.0664
       210.000         163.000
 108534890.70448  84572625.48348  20653515.2904   20653518.1584   20653515.5144
       251.000         226.000
 138299835.74048  89973896.79748  24414647.0974   24414649.0894   24414647.5504
       213.000         157.000
 107569764.04548  83820601.10948  20469840.7634   20469841.6234   20469841.6164
       251.000         236.000
 127076320.57948  99020493.18448  24181830.1474   24181831.8434   24181830.3574
       216.000         155.000
 129993810.40948 101293888.63448  24736990.3904   24736991.4814   24736991.0324
       200.000         135.000
 124534879.86848  97040167.84548  23698196.8024   23698200.2744   23698198.3724
       216.000         165.000
 114704672.25448  89380242.07848  21827590.8514   21827590.9644   21827590.7944
       245.000         212.000
 06  7 19  2 15  0.0000000  0  9G11G15G 3G14G19G16G18G 7G22
 127260938.15948  81372159.05848  22314016.0244   22314017.4534   22314016.9664
       237.000         194.000
 126990831.96248  98953880.64948  24165562.8344   24165566.7744   24165562.5614
       209.000         161.000
 108578875.91248  84606899.66048  20661885.4984   20661888.2694   20661885.7844
       252.000         226.000
 138225933.12048  89916310.36848  24400583.7804   24400585.7794   24400584.2174
       213.000         156.000
 107548310.68848  83803884.20848  20465758.3324   20465759.2614   20465759.2454
       251.000         236.000
 127187843.62348  99107394.17848  24203052.1654   24203054.6114   24203051.5414
       215.000         158.000
 130087739.42048 101367080.06648  24754864.5304   24754865.2514   24754864.8224
       201.000         135.000
 124620428.11748  97106828.81748  23714475.8514   23714479.9694   23714476.7644
       216.000         165.000
 114755297.68148  89419690.47348  21837224.5524   21837224.5394   21837224.8934
       245.000         211.000
 06  7 19  2 15 30.0000000  0  9G11G15G 3G14G19G16G18G 7G22
 127187749.55648  81315128.99748  22300088.5944   22300089.9494   22300088.9354
       236.000         193.000
 127084394.19548  99026786.34248  24183368.3514   24183371.3364   24183368.7884
       217.000         164.000
 108623235.14348  84641465.29548  20670326.8184   20670329.5704   20670327.1434
       252.000         226.000
 138152247.27148  89858892.78848  24386561.6464   24386563.2784   24386561.5304
       213.000         155.000
 107527177.34948  83787416.67348  20461736.7874   20461737.7274   20461737.7134
       250.000         236.000
 127299428.47648  99194343.31448  24224285.9014   24224288.2384   24224285.4274
       211.000         155.000
 130181887.00848 101440441.79548  24772780.1594   24772780.9394   24772780.8494
       193.000         137.000
 124706163.20048  97173635.39148  23730791.2934   23730794.4794   23730792.0724
       216.000         163.000
 114806411.08748  89459519.10548  21846950.8284   21846951.3384   21846951.0494
       244.000         212.000
 06  7 19  2 16  0.0000000  0  9G11G15G 3G14G19G16G18G 7G22
 127114763.28148  81258256.60248  22286199.1764   22286201.0374   22286199.5084
       235.000         192.000
 127177975.27948  99099706.70348  24201175.8584   24201179.3504   24201176.3504
       216.000         163.000
 108667968.04048  84676322.09848  20678839.0014   20678841.9344   20678839.4324
       251.000         226.000
 138078780.93348  89801646.27448  24372582.1374   24372583.5604   24372582.2114
       213.000         157.000
 107506364.76048  83771199.06748  20457776.1324   20457777.0804   20457776.8024
       250.000         235.000
 127411072.42648  99281338.51148  24245531.5184   24245533.0964   24245532.2224
       215.000         155.000
 130276250.47548 101513971.82848  24790736.1794   24790738.3344   24790734.3344
       199.000         136.000
 124792084.41348  97240586.99748  23747141.1094   23747144.0884   23747142.0484
       215.000         162.000
 114858010.62948  89499726.54948  21856769.8674   21856770.1924   21856770.0504
       244.000         211.000
 06  7 19  2 16 30.0000000  0  9G11G15G 3G14G19G16G18G 7G22
 127041979.81248  81201542.21048  22272349.1084   22272350.5504   22272349.0094
       236.000         192.000
 127271574.31648  99172641.01248  24218987.0974   24218990.3484   24218987.3604
       217.000         164.000
 108713074.38448  84711469.88548  20687422.3074   20687425.4304   20687422.5244
       251.000         225.000
 138005537.61748  89744573.56448  24358643.7524   24358646.1184   24358643.6324
       209.000         156.000
 107485874.85048  83755232.90548  20453877.0534   20453877.9334   20453877.9874
       251.000         236.000
 127522772.94348  99368377.80148  24266788.3884   24266788.7194   24266789.0214
       219.000         153.000
 130370827.42948 101587668.18348  24808733.2774   24808736.3204   24808734.8234
       195.000         139.000
 124878190.83548  97307682.89048  23763526.5424   23763530.1804   23763527.2684
       217.000         165.000
 114910094.37248  89540311.28348  21866681.0394   21866681.2494   21866681.3844
       244.000         210.000
 06  7 19  2 17  0.0000000  0  8G11G 3G14G19G16G18G 7G22
 126969399.07048  81144985.80648  22258537.4784   22258539.0164   22258537.7894
       236.000         192.000
 108758553.97048  84746908.52148  20696076.8864   20696079.8684   20696077.1204
       251.000         226.000
 137932519.88948  89687676.61448  24344748.4544   24344751.5874   24344747.2844
       211.000         158.000
 107465708.33848  83739518.74048  20450039.5124   20450040.3304   20450040.4504
       250.000         236.000
 127634527.59048  99455459.35148  24288054.2984   24288054.0874   24288055.4114
       218.000         151.000
 130465615.20948 101661528.76648  24826770.9304   24826773.7734   24826770.2804
       202.000         141.000
 124964481.70948  97374922.52048  23779947.6084   23779950.6894   23779947.8454
       218.000         164.000
 114962660.10348  89581271.59648  21876684.2644   21876684.2984   21876684.6814
       245.000         211.000
 06  7 19  2 17 30.0000000  0  8G11G 3G14G19G16G18G 7G22
 126897020.60548  81088587.01348  22244764.2774   22244765.8514   22244764.8524
       237.000         193.000
 108804405.11748  84782636.68648  20704802.0804   20704804.9774   20704802.3924
       252.000         225.000
 137859730.21748  89630957.37248  24330897.2804   24330900.1424   24330897.8234
       213.000         157.000
 107445865.46548  83724056.75848  20446263.5844   20446264.4714   20446264.4834
       250.000         236.000
 127746332.36148  99542579.92248  24309329.8694   24309331.2764   24309330.0584
       216.000         155.000
 130560610.14848 101735550.79948  24844847.7644   24844850.5284   24844847.6164
       205.000         142.000
 125050954.81648  97442304.18448  23796402.6524   23796406.0804   23796402.7904
       217.000         162.000
 115015704.72048  89622605.06048  21886778.3014   21886778.5884   21886778.3384
       244.000         211.000
 06  7 19  2 18  0.0000000  0  8G11G 3G14G19G16G18G 7G22
 126824847.19348  81032348.00748  22231030.2694   22231032.0924   22231030.8624
       238.000         196.000
 108850629.85248  84818655.95148  20713598.3434   20713601.2314   20713598.5984
       252.000         225.000
 137787173.58248  89574419.68848  24317090.9454   24317092.1664   24317090.4974
       215.000         159.000
 107426349.12248  83708849.21348  20442549.8584   20442550.6774   20442550.8724
       251.000         236.000
 127858187.17948  99629739.48848  24330614.7174   24330617.2814   24330614.2434
       211.000         155.000
 130655812.23048 101809734.20548  24862964.2504   24862966.5044   24862963.8494
       203.000         144.000
 125137611.97348  97509829.23748  23812892.5494   23812896.2994   23812893.4474
       216.000         162.000
 115069228.58348  89664311.96448  21896963.6524   21896963.7454   21896963.7694
       245.000         211.000
 06  7 19  2 18 30.0000000  0  8G11G 3G14G19G16G18G 7G22
 126752877.73448  80976267.91248  22217335.0784   22217336.6484   22217335.2474
       237.000         195.000
 108897226.83348  84854965.27348  20722465.5794   20722468.3314   20722465.8394
       251.000         225.000
 137714851.81948  89518065.10648  24303327.7534   24303330.3024   24303328.5614
       211.000         159.000
 107407159.46548  83693896.23448  20438898.1354   20438898.9294   20438899.0344
       251.000         236.000
 127970088.25648  99716935.06448  24351908.4974   24351911.9664   24351908.8454
       213.000         156.000
 130751217.89848 101884076.27948  24881119.4574   24881121.9984   24881120.5584
       210.000         144.000
 125224451.07748  97577496.06348  23829418.1274   23829421.6994   23829418.9454
       215.000         164.000
 115123228.49148  89706389.81248  21907239.2994   21907239.4774   21907239.5864
       244.000         211.000
 06  7 19  2 19  0.0000000  0  8G11G 3G14G19G16G18G 7G22
 126681113.38848  80920347.66348  22203678.5434   22203680.2694   22203678.7884
       238.000         195.000
 108944196.30548  84891564.86248  20731403.4974   20731406.3404   20731403.5714
       252.000         225.000
 137642768.75348  89461896.51348  24289610.3144   24289614.4874   24289610.6934
       208.000         157.000
 107388298.55048  83679199.41548  20435309.0544   20435309.8214   20435309.8604
       251.000         237.000
 128082033.90348  99804165.42948  24373211.9584   24373215.0214   24373212.9424
       220.000         158.000
 130846824.95148 101958575.30348  24899313.2234   24899314.8714   24899314.6744
       204.000         142.000
 125311472.09248  97645304.64248  23845976.6174   23845980.8934   23845977.3484
       215.000         159.000
 115177702.99948  89748837.48548  21917605.5014   21917605.7294   21917605.7004
       243.000         211.000
 06  7 19  2 19 30.0000000  0  8G11G 3G14G19G16G18G 7G22
 126609554.47548  80864587.47948  22190061.4214   22190062.6974   22190062.7884
       238.000         194.000
 108991537.95948  84928454.45948  20740412.2674   20740415.2494   20740412.5644
       252.000         226.000
 137570927.22748  89405916.11548  24275939.6354   24275942.0444   24275940.4054
       214.000         158.000
 107369767.05248  83664759.28748  20431782.4804   20431783.4084   20431783.4074
       250.000         237.000
 128194021.44448  99891428.48048  24394522.4744   24394524.8774   24394523.2304
       217.000         153.000
 130942631.13048 102033229.46348  24917543.8584   24917546.5034   24917543.3384
       206.000         142.000
 125398674.07648  97713254.23448  23862571.2194   23862575.1724   23862572.6534
       216.000         163.000
 115232650.24648  89791653.52848  21928061.4204   21928062.0394   21928061.0974
       244.000         211.000
 06  7 19  2 20  0.0000000  0  8G11G 3G14G19G16G18G 7G22
 126538200.44748  80808986.94748  22176483.0114   22176484.3334   22176483.7154
       238.000         194.000
 109039250.90548  84965633.36748  20749491.8764   20749494.8014   20749492.3074
       252.000         225.000
 137499329.79948  89350125.94148  24262315.1964   24262317.8234   24262316.0684
       215.000         160.000
 107351565.83148  83650576.52048  20428318.9954   20428319.9624   20428319.7324
       251.000         237.000
 128306047.32848  99978721.38848  24415839.8234   24415841.1074   24415839.8154
       213.000         147.000
 131038633.22548 102108036.30748  24935813.3294   24935814.9094   24935813.8514
       208.000         142.000
 125486055.49548  97781343.65148  23879199.0524   23879203.5604   23879200.8574
       214.000         162.000
 115288067.48748  89834835.79548  21938606.9244   21938607.5694   21938606.7864
       244.000         210.000
 06  7 19  2 20 30.0000000  0  8G11G 3G14G19G16G18G 7G22
 126467053.18848  80753547.52648  22162944.3424   22162945.7954   22162944.3684
       238.000         195.000
 109087335.50348  85003101.88248  20758642.0734   20758645.0354   20758642.3804
       252.000         225.000
 137427980.36048  89294528.97748  24248738.0004   24248740.3814   24248738.4504
       212.000         159.000
 107333697.15648  83636652.88148  20424918.6574   20424919.6174   20424919.5264
       250.000         237.000
 128418110.34548 100066043.25648  24437164.8284   24437165.4354   24437165.3484
       211.000         148.000
 131134830.00048 102182994.84548  24954118.9694   24954120.4844   24954120.0464
       205.000         139.000
 125573616.72648  97849573.13448  23895861.7304   23895865.6474   23895862.8044
       215.000         162.000
 115343953.46148  89878383.30548  21949241.8104   21949242.1824   21949241.7754
       242.000         209.000
 06  7 19  2 21  0.0000000  0  8G11G 3G14G19G16G18G 7G22
 126396112.27148  80698268.89848  22149444.4524   22149446.3264   22149445.0074
       235.000         195.000
 109135791.10448  85040859.48848  20767862.7944   20767865.7024   20767863.0734
       252.000         225.000
 137356881.63848  89239127.43048  24235207.5214   24235211.3644   24235207.7434
       206.000         157.000
 107316161.38448  83622988.64248  20421581.7164   20421582.6434   20421582.4174
       250.000         237.000
 128530207.75548 100153391.89648  24458496.1494   24458498.1694   24458496.8164
       213.000         155.000
 131231217.99348 102258102.35848  24972459.9964   24972462.4884   24972462.3624
       199.000         133.000
 125661356.28548  97917941.62548  23912558.1654   23912562.2674   23912558.7494
       214.000         162.000
 115400305.67148  89922294.12248  21959965.2704   21959965.3754   21959964.9244
       243.000         209.000
 06  7 19  2 21 30.0000000  0  8G11G 3G14G19G16G18G 7G22
 126325378.63548  80643151.79048  22135984.0534   22135986.2744   22135983.8704
       238.000         195.000
 109184617.72148  85078906.20348  20777154.2304   20777157.0604   20777154.4744
       251.000         225.000
 137286037.05248  89183923.82348  24221727.2484   24221729.9324   24221726.4984
       211.000         158.000
 107298960.12848  83609585.06548  20418308.4414   20418309.3314   20418309.2874
       251.000         237.000
 128642337.38348 100240765.61848  24479833.6184   24479836.0194   24479833.7044
       213.000         156.000
 131327795.15048 102333357.27648  24990840.2554   24990840.6374   24990840.4094
       190.000         130.000
 125749273.81848  97986448.78248  23929288.2784   23929292.2244   23929288.8604
       214.000         163.000
 115457122.73748  89966567.16748  21970776.9434   21970777.3804   21970777.0944
       243.000         209.000
 06  7 19  2 22  0.0000000  0  8G11G 3G14G19G16G18G 7G22
 126254851.44248  80588195.53348  22122563.7224   22122565.2544   22122564.5654
       237.000         197.000
 109233813.97748  85117240.94248  20786515.9504   20786518.8674   20786516.1544
       251.000         225.000
 137215448.70948  89128919.96648  24208294.8604   24208297.2684   24208295.9974
       211.000         159.000
 107282093.67148  83596442.37348  20415098.8184   20415099.8004   20415099.6444
       251.000         237.000
 128754495.34948 100328161.45148  24501176.5694   24501179.0374   24501176.2994
       213.000         152.000
 131424558.48348 102408757.33348  25009250.6714   25009254.4794   25009252.8124
       188.000         126.000
 125837367.61348  98055093.28848  23946051.7144   23946055.7284   23946052.0894
       214.000         163.000
 115514401.29648  90011199.80848  21981677.0314   21981677.5874   21981677.1244
       244.000         210.000
 06  7 19  2 22 30.0000000  0  7G11G 3G14G19G16G 7G22
 126184531.59748  80533400.85248  22109182.3094   22109183.8914   22109181.7224
       239.000         197.000
 109283379.98548  85155863.80048  20795948.0974   20795950.8714   20795948.4684
       252.000         225.000
 137145119.85848  89074118.25448  24194911.4664   24194913.6144   24194911.3324
       211.000         155.000
 107265563.18848  83583561.48148  20411953.1854   20411954.2134   20411953.9584
       251.000         237.000
 128866679.78948 100415577.94648  24522524.4884   24522527.1794   24522523.9154
       205.000         143.000
 125925637.10948  98123874.70348  23962849.1874   23962853.1354   23962850.4124
       211.000         160.000
 115572139.55548  90056190.66448  21992664.2744   21992664.5024   21992664.5464
       244.000         208.000
 06  7 19  2 23  0.0000000  0  7G11G 3G14G19G16G 7G22
 126114419.62648  80478768.16248  22095840.1584   22095841.7884   22095840.3874
       240.000         196.000
 109333315.45848  85194774.55448  20805450.4464   20805453.3364   20805450.7534
       252.000         225.000
 137075053.60348  89019521.22548  24181578.2484   24181581.0254   24181578.7874
       208.000         156.000
 107249370.27548  83570943.62748  20408871.7994   20408872.7104   20408872.6914
       252.000         237.000
 128978888.24348 100503013.15248  24543876.8744   24543879.5994   24543876.0334
       206.000         139.000
 126014081.57548  98192792.45348  23979679.5324   23979683.2334   23979679.4644
       214.000         162.000
 115630336.00548  90101538.54348  22003738.8744   22003738.6934   22003738.9504
       244.000         209.000
 06  7 19  2 23 30.0000000  0  7G11G 3G14G19G16G 7G22
 126044515.53548  80424297.45148  22082537.7684   22082539.2424   22082538.6554
       237.000         196.000
 109383619.97048  85233972.86748  20815023.1824   20815025.9824   20815023.4934
       251.000         225.000
 137005252.98348  88965131.12948  24168295.7674   24168297.9404   24168295.4104
       208.000         155.000
 107233515.70748  83558589.41748  20405854.8584   20405855.6194   20405855.6744
       251.000         237.000
 129091118.09348 100590465.04848  24565233.1274   24565236.4514   24565234.1504
       208.000         148.000
 126102700.14848  98261845.89748  23996542.7304   23996546.6104   23996543.8464
       214.000         161.000
 115688987.97248  90147241.38148  22014899.9334   22014899.7144   22014900.2564
       244.000         208.000
 06  7 19  2 24  0.0000000  0  7G11G 3G14G19G16G 7G22
 125974820.28948  80369989.47948  22069275.2864   22069276.9574   22069275.3944
       237.000         195.000
 109434293.31948  85273458.58948  20824665.8694   20824668.8384   20824666.1444
       251.000         225.000
 136935721.36548  88910950.70948  24155064.0654   24155066.3704   24155064.5724
       210.000         158.000
 107218001.25748  83546500.23448  20402902.4964   20402903.2714   20402903.3834
       250.000         237.000
 129203366.95548 100677931.72148  24586593.4004   24586597.0204   24586593.6284
       212.000         155.000
 126191492.14448  98331034.44948  24013439.1264   24013443.2994   24013439.3724
       210.000         156.000
 115748093.84848  90193297.91248  22026147.3024   22026147.4134   22026147.8264
       244.000         208.000
