     2.10           OBSERVATION DATA    M: Mixed            RINEX VERSION / TYPE
RTKCONV demo5 b34b                      20210720 143242 UTC PGM / RUN BY / DATE 
format: u-blox UBX                                          COMMENT             
log: C:\Users\YX\Desktop\SAVE2021_7_20_22-32-23.DAT         COMMENT             
                                                            MARKER NAME         
                                                            MARKER NUMBER       
                                                            OBSERVER / AGENCY   
                                                            REC # / TYPE / VERS 
                                                            ANT # / TYPE        
 -2175466.4461  4387262.9328  4072915.5971                  APPROX POSITION XYZ 
        0.0000        0.0000        0.0000                  ANTENNA: DELTA H/E/N
     1     1                                                WAVELENGTH FACT L1/2
     4    C1    L1    D1    S1                              # / TYPES OF OBSERV 
  2021    07    20    14    31   58.4980000     GPS         TIME OF FIRST OBS   
  2021    07    20    14    32   40.9980000     GPS         TIME OF LAST OBS    
                                                            END OF HEADER       
 21 07 20 14 31 58.4980000  0  9G32G10G12G31G23G24G21G25G22
  19869117.975 1 104412913.95611      1371.690          45.000  
  20204645.047 1 106176124.86611     -1595.563          44.000  
  21101126.678 1 110887167.37811      -574.576          42.000  
  21507886.045 1 113024714.46511      3109.629          38.000  
  22416926.965 1 117801737.17911     -3154.828          39.000  
  23841028.249 4 125285477.69413     -2932.506          27.000  
  24437892.496 4 128422011.18212       -88.783          30.000  
  20082108.483 1 105532195.12111      1610.639          41.000  
  24389948.659 9               9      3581.054          25.000  
 21 07 20 14 31 58.9980000  0  9G32G10G12G31G23G24G21G25G22
  19868987.465 1 104412227.965 1      1372.151          45.000  
  20204796.994 1 106176922.649 1     -1595.654          44.000  
  21101181.350 1 110887454.764 1      -574.688          42.000  
  21507590.194 1 113023159.609 1      3109.196          38.000  
  22417226.995 1 117803314.488 1     -3154.208          39.000  
  23841307.985 4 125286943.835 3     -2932.082          27.000  
  24437899.563 4 128422055.491 3       -88.680          30.000  
  20081955.079 1 105531389.659 1      1610.778          41.000  
  24389610.081 9               9      3582.629          25.000  
 21 07 20 14 31 59.4980000  0  9G32G10G12G31G23G24G21G25G22
  19868857.059 1 104411541.743 1      1372.577          45.000  
  20204948.480 1 106177720.241 1     -1595.099          44.000  
  21101236.239 1 110887742.006 1      -574.220          42.000  
  21507294.160 1 113021604.458 1      3110.713          38.000  
  22417527.095 1 117804891.575 1     -3153.922          39.000  
  23841587.442 4 125288409.669 3     -2931.012          28.000  
  24437907.512 4 128422099.610 2       -88.186          30.000  
  20081801.787 1 105530584.052 1      1611.379          41.000  
  24389269.357 9               9      3582.013          25.000  
 21 07 20 14 31 59.9980000  0  9G32G10G12G31G23G24G21G25G22
  19868726.514 1 104410855.422 1      1372.613          45.000  
  20205100.113 1 106178517.811 1     -1595.233          44.000  
  21101290.710 1 110888029.242 1      -574.389          42.000  
  21506998.099 1 113020049.287 1      3110.352          38.000  
  22417827.117 1 117806468.536 1     -3153.856          39.000  
  23841864.316 4 125289875.372 3     -2930.972          28.000  
  24437915.940 4 128422143.673 2       -88.221          29.000  
  20081648.417 1 105529778.453 1      1611.262          41.000  
  24388929.759 9               9      3583.244          25.000  
 21 07 20 14 32 00.4980000  0  9G32G10G12G31G23G24G21G25G22
  19868596.091 1 104410169.040 1      1372.655          45.000  
  20205251.555 1 106179315.391 1     -1595.227          44.000  
  21101345.434 1 110888316.533 1      -574.576          42.000  
  21506702.048 1 113018494.069 1      3110.062          38.000  
  22418127.295 1 117808045.408 1     -3153.743          39.000  
  23842143.955 4 125291340.933 3     -2931.237          28.000  
  24437923.653 4 128422187.656 2       -87.842          29.000  
  20081495.126 1 105528972.900 1      1610.688          41.000  
  24388587.281 9               9      3583.671          25.000  
 21 07 20 14 32 00.9980000  0  9G32G10G12G31G23G24G21G25G22
  19868465.729 1 104409482.653 1      1372.519          45.000  
  20205403.372 1 106180113.042 1     -1595.624          44.000  
  21101399.992 1 110888603.924 1      -575.054          42.000  
  21506405.944 1 113016938.797 1      3110.542          37.000  
  22418427.387 1 117809622.261 1     -3153.786          39.000  
  23842422.897 4 125292806.351 3     -2931.115          28.000  
  24437931.253 4 128422231.714 2       -88.337          29.000  
  20081341.826 1 105528167.423 1      1610.685          41.000  
  24388245.911 9               9      3583.943          25.000  
 21 07 20 14 32 01.4980000  0  9G32G10G12G31G23G24G21G25G22
  19868335.210 1 104408796.370 1      1372.533          45.000  
  20205555.023 1 106180910.862 1     -1595.886          44.000  
  21101454.751 1 110888891.505 1      -575.334          42.000  
  21506110.040 2 113015383.693 1      3109.827          37.000  
  22418727.400 1 117811199.215 1     -3153.954          39.000  
  23842699.797 4 125294271.786 3     -2930.815          28.000  
  24437939.253 2 128422275.859 2       -88.081          29.000  
  20081188.630 1 105527362.169 1      1610.289          41.000  
  24387904.986 9               9      3582.748          25.000  
 21 07 20 14 32 01.9980000  0  9G32G10G12G31G23G24G21G25G22
  19868204.482 1 104408110.151 1      1372.424          45.000  
  20205706.823 1 106181708.797 1     -1596.051          44.000  
  21101509.309 1 110889179.252 1      -575.543          42.000  
  21505814.067 1 113013828.648 1      3109.919          37.000  
  22419027.439 1 117812776.183 1     -3154.024          39.000  
  23842977.805 4 125295737.216 3     -2930.884          28.000  
  24437948.511 2 128422320.167 2       -89.072          29.000  
  20081035.426 1 105526557.052 1      1610.002          41.000  
  24387564.986 9               9      3583.162          25.000  
 21 07 20 14 32 02.4980000  0  9G32G10G12G31G23G24G21G25G22
  19868073.920 1 104407424.080 1      1371.874          45.000  
  20205858.727 1 106182506.963 1     -1596.728          44.000  
  21101563.972 1 110889467.249 1      -576.333          42.000  
  21505518.068 1 113012273.768 1      3109.190          37.000  
  22419327.582 1 117814353.289 1     -3154.302          39.000  
  23843256.939 4 125297202.761 3     -2931.720          28.000  
  24437958.178 2 128422364.635 2       -89.401          29.000  
  20080882.353 1 105525752.219 1      1608.986          41.000  
  24387224.139 9               9      3582.060          25.000  
 21 07 20 14 32 02.9980000  0  9G32G10G12G31G23G24G21G25G22
  19867943.436 1 104406738.177 1      1371.634          45.000  
  20206010.596 1 106183305.356 1     -1596.967          44.000  
  21101618.923 1 110889755.520 1      -576.946          42.000  
  21505222.068 2 113010719.055 1      3109.240          37.000  
  22419627.805 1 117815930.576 1     -3154.867          39.000  
  23843537.006 4 125298668.352 3     -2931.163          28.000  
  24437965.499 2 128422409.258 2       -88.867          29.000  
  20080729.070 1 105524947.613 1      1608.889          41.000  
  24386883.328 9               9      3582.333          25.000  
 21 07 20 14 32 03.4980000  0  9G32G10G12G31G23G24G21G25G22
  19867813.004 1 104406052.154 1      1372.236          45.000  
  20206162.395 1 106184103.711 1     -1596.600          44.000  
  21101673.769 1 110890043.758 1      -576.459          42.000  
  21504926.244 2 113009164.238 1      3109.919          37.000  
  22419928.140 1 117817507.684 1     -3154.152          39.000  
  23843816.786 4 125300133.811 3     -2931.053          28.000  
  24437973.159 2 128422453.895 2       -89.333          29.000  
  20080575.944 1 105524143.011 1      1609.259          41.000  
  24386542.848 9               9      3583.283          25.000  
 21 07 20 14 32 03.9980000  0  9G32G10G12G31G23G24G21G25G22
  19867682.415 1 104405366.137 1      1371.721          45.000  
  20206314.369 1 106184902.137 1     -1597.461          44.000  
  21101728.676 1 110890332.094 1      -577.076          42.000  
  21504630.105 2 113007609.451 1      3109.052          37.000  
  22420228.223 1 117819084.795 1     -3154.562          39.000  
  23844095.474 4 125301599.127 3     -2931.278          28.000  
  24437981.998 2 128422498.528 2       -90.030          29.000  
  20080422.827 1 105523338.504 1      1608.487          41.000  
  24386203.528 9               9      3582.663          25.000  
 21 07 20 14 32 04.4980000  0  9G32G10G12G31G23G24G21G25G22
  19867551.835 1 104404680.375 1      1371.215          45.000  
  20206466.125 1 106185700.877 1     -1597.815          44.000  
  21101783.757 1 110890620.803 1      -577.760          42.000  
  21504334.132 2 113006054.916 1      3108.659          37.000  
  22420528.419 1 117820662.131 1     -3154.690          39.000  
  23844372.950 4 125303064.647 3     -2931.644          28.000  
  24437990.653 2 128422543.412 2       -90.330          29.000  
  20080269.588 1 105522534.345 1      1607.928          41.000  
  24385862.778 9               9      3582.535          25.000  
 21 07 20 14 32 04.9980000  0  9G32G10G12G31G23G24G21G25G22
  19867421.351 1 104403994.717 1      1371.275          45.000  
  20206618.265 1 106186499.802 1     -1597.888          44.000  
  21101838.621 1 110890909.712 1      -577.789          42.000  
  21504038.185 2 113004500.506 1      3108.883          37.000  
  22420828.702 1 117822239.575 1     -3154.842          39.000  
  23844652.049 4 125304530.188 3     -2930.976          28.000  
  24437997.511 2 128422588.443 2       -89.978          29.000  
  20080116.750 1 105521730.411 1      1607.749          41.000  
  24385522.525 9               9      3581.512          25.000  
 21 07 20 14 32 05.4980000  0  9G32G10G12G31G23G24G21G25G22
  19867290.937 1 104403308.939 1      1371.490          45.000  
  20206770.370 1 106187298.666 1     -1597.913          44.000  
  21101893.860 1 110891198.595 1      -577.812          42.000  
  21503742.246 1 113002945.976 1      3108.933          37.000  
  22421129.021 1 117823816.855 1     -3154.606          39.000  
  23844931.156 4 125305995.493 3     -2930.565          28.000  
  24438004.997 2 128422633.434 2       -90.363          29.000  
  20079963.852 1 105520926.438 1      1607.739          41.000  
  24385182.534 9               9      3581.481          25.000  
 21 07 20 14 32 05.9980000  0  9G32G10G12G31G23G24G21G25G22
  19867160.549 1 104402623.295 1      1371.202          45.000  
  20206922.352 1 106188097.744 1     -1598.462          44.000  
  21101948.994 1 110891487.716 1      -578.450          42.000  
  21503446.291 2 113001391.595 1      3108.362          37.000  
  22421429.234 1 117825394.266 1     -3154.899          39.000  
  23845212.070 4 125307460.866 3     -2930.641          29.000  
  24438011.480 2 128422678.540 2       -90.283          29.000  
  20079810.962 1 105520122.700 1      1607.218          41.000  
  24384843.197 9               9      3581.513          25.000  
 21 07 20 14 32 06.4980000  0  9G32G10G12G31G23G24G21G25G22
  19867030.170 1 104401937.687 1      1371.296          45.000  
  20207074.475 1 106188896.918 1     -1598.419          44.000  
  21102003.962 1 110891777.004 1      -578.800          42.000  
  21503150.571 2 112999837.277 1      3108.588          37.000  
  22421729.509 1 117826971.703 1     -3154.920          39.000  
  23845490.672 2 125308926.227 3     -2930.456          29.000  
  24438021.278 2 128422723.758 2       -90.443          29.000  
  20079657.941 1 105519319.112 1      1606.968          41.000  
  24384503.659 9               9      3581.138          25.000  
 21 07 20 14 32 06.9980000  0  9G32G10G12G31G23G24G21G25G22
  19866899.511 1 104401252.021 1      1371.626          45.000  
  20207226.719 1 106189696.106 1     -1598.364          44.000  
  21102058.991 1 110892066.282 1      -578.469          42.000  
  21502854.737 1 112998282.899 1      3108.694          37.000  
  22422029.731 1 117828549.035 1     -3154.377          39.000  
  23845770.782 2 125310391.450 2     -2930.156          29.000  
  24438031.120 2 128422768.937 2       -90.094          29.000  
  20079505.181 1 105518515.555 1      1607.196          41.000  
  24384163.659 9               9      3581.288          25.000  
 21 07 20 14 32 07.4980000  0  9G32G10G12G31G23G24G21G25G22
  19866768.940 1 104400566.266 1      1371.742          46.000  
  20207378.772 1 106190495.255 1     -1598.114          43.000  
  21102114.073 1 110892355.579 1      -578.460          42.000  
  21502558.773 2 112996728.416 1      3108.958          37.000  
  22422329.953 1 117830126.285 1     -3154.428          39.000  
  23846050.413 4 125311856.484 3     -2929.925          29.000  
  24438039.994 2 128422814.065 2       -90.250          29.000  
  20079352.448 1 105517712.000 1      1607.097          41.000  
  24383823.345 9               9      3583.063          25.000  
 21 07 20 14 32 07.9980000  0  9G32G10G12G31G23G24G21G25G22
  19866638.639 1 104399880.342 1      1371.991          46.000  
  20207530.850 1 106191294.326 1     -1597.967          43.000  
  21102169.337 1 110892644.837 1      -578.632          42.000  
  21502262.817 1 112995173.802 1      3109.443          37.000  
  22422630.071 1 117831703.331 1     -3154.040          39.000  
  23846329.259 2 125313321.296 2     -2929.568          29.000  
  24438047.951 2 128422859.037 2       -90.043          29.000  
  20079199.523 1 105516908.389 1      1607.109          41.000  
  24383483.005 9               9      3583.205          25.000  
 21 07 20 14 32 08.4980000  0  9G32G10G12G31G23G24G21G25G22
  19866508.094 1 104399194.188 1      1372.425          46.000  
  20207683.007 1 106192093.216 1     -1597.400          44.000  
  21102224.297 1 110892933.927 1      -578.203          42.000  
  21501966.887 2 112993618.964 1      3109.841          37.000  
  22422930.189 1 117833280.140 1     -3153.616          39.000  
  23846607.171 2 125314785.791 3     -2929.335          29.000  
  24438055.760 2 128422903.814 2       -89.513          29.000  
  20079046.564 1 105516104.619 1      1607.772          41.000  
  24383141.713 9               9      3583.990          25.000  
 21 07 20 14 32 08.9980000  0  9G32G10G12G31G23G24G21G25G22
  19866377.514 1 104398507.845 1      1372.852          46.000  
  20207834.807 1 106192892.020 1     -1597.528          44.000  
  21102279.239 1 110893222.979 1      -578.333          42.000  
  21501670.975 2 112992063.973 1      3110.066          37.000  
  22423230.254 1 117834856.724 1     -3152.955          39.000  
  23846885.415 2 125316249.961 2     -2928.149          29.000  
  24438065.070 2 128422948.482 2       -89.213          29.000  
  20078893.892 1 105515300.799 1      1607.630          41.000  
  24382802.045 9               9      3583.681          25.000  
 21 07 20 14 32 09.4980000  0  9G32G10G12G31G23G24G21G25G22
  19866247.013 1 104397821.420 1      1373.324          46.000  
  20207986.912 1 106193690.807 1     -1597.589          44.000  
  21102334.321 1 110893512.004 1      -577.822          43.000  
  21501375.255 1 112990508.882 1      3110.761          37.000  
  22423530.310 1 117836433.231 1     -3153.023          39.000  
  23847162.472 2 125317714.058 3     -2927.875          29.000  
  24438072.957 2 128422993.066 2       -89.058          30.000  
  20078740.905 1 105514496.979 1      1607.732          42.000  
  24382463.031 9               9      3584.625          26.000  
 21 07 20 14 32 09.9980000  0  9G32G10G12G31G23G24G21G25G22
  19866116.276 1 104397134.865 1      1373.255          46.000  
  20208138.929 1 106194489.501 1     -1597.406          44.000  
  21102389.332 1 110893801.016 1      -578.287          43.000  
  21501079.334 1 112988953.696 1      3110.073          37.000  
  22423830.358 1 117838009.571 1     -3152.604          40.000  
  23847441.588 2 125319177.877 3     -2927.515          29.000  
  24438082.991 2 128423037.601 2       -89.989          30.000  
  20078587.954 1 105513693.121 1      1607.683          42.000  
  24382121.434 9               9      3584.572          26.000  
 21 07 20 14 32 10.4980000  0  9G32G10G12G31G23G24G21G25G22
  19865985.652 1 104396448.328 1      1372.641          46.000  
  20208290.903 1 106195288.282 1     -1598.047          44.000  
  21102444.397 1 110894090.125 1      -578.524          43.000  
  21500783.387 1 112987398.513 1      3110.078          37.000  
  22424130.249 1 117839585.897 1     -3152.963          40.000  
  23847719.771 2 125320641.687 2     -2928.063          29.000  
  24438093.060 4 128423082.115 3       -89.951          30.000  
  20078435.003 1 105512889.383 1      1606.880          42.000  
  24381781.050 9               9      3583.150          26.000  
 21 07 20 14 32 10.9980000  0  9G32G10G12G31G23G24G21G25G22
  19865854.941 1 104395761.858 1      1372.869          46.000  
  20208443.078 1 106196087.217 1     -1598.053          44.000  
  21102499.469 1 110894379.427 1      -578.720          43.000  
  21500487.467 1 112985843.422 1      3110.229          37.000  
  22424430.244 1 117841162.297 1     -3152.783          39.000  
  23847999.114 4 125322105.433 3     -2927.788          29.000  
  24438103.818 4 128423126.791 3       -89.951          29.000  
  20078282.305 1 105512085.800 1      1607.061          42.000  
  24381440.614 9               9      3584.106          25.000  
 21 07 20 14 32 11.4980000  0  9G32G10G12G31G23G24G21G25G22
  19865724.230 1 104395075.392 1      1372.973          46.000  
  20208595.252 1 106196886.232 1     -1598.279          44.000  
  21102554.525 1 110894668.829 1      -578.990          43.000  
  21500191.502 1 112984288.367 1      3110.059          37.000  
  22424730.100 1 117842738.689 1     -3152.940          39.000  
  23848276.799 4 125323569.127 3     -2927.731          29.000  
  24438110.929 4 128423171.440 3       -89.388          29.000  
  20078129.467 1 105511282.349 1      1606.631          42.000  
  24381099.026 9               9      3584.366          26.000  
 21 07 20 14 32 11.9980000  0  9G32G10G12G31G23G24G21G25G22
  19865593.485 1 104394388.988 1      1372.733          46.000  
  20208747.209 1 106197685.341 1     -1598.267          44.000  
  21102609.441 1 110894958.378 1      -579.121          43.000  
  21499895.520 1 112982733.355 1      3109.983          37.000  
  22425030.008 1 117844315.088 1     -3152.884          39.000  
  23848555.052 2 125325032.776 3     -2926.825          29.000  
  24438116.836 4 128423216.213 3       -89.525          29.000  
  20077976.490 1 105510479.030 1      1606.516          42.000  
  24380758.371 9               9      3584.316          25.000  
 21 07 20 14 32 12.4980000  0  9G32G10G12G31G23G24G21G25G22
  19865462.844 1 104393702.562 1      1373.000          46.000  
  20208899.375 1 106198484.521 1     -1598.279          45.000  
  21102664.636 1 110895248.023 1      -579.342          43.000  
  21499599.556 1 112981178.357 1      3109.898          37.000  
  22425329.995 1 117845891.472 1     -3152.762          39.000  
  23848833.566 4 125326496.373 3     -2927.166          29.000  
  24438125.744 4 128423261.027 2       -89.901          29.000  
  20077823.757 1 105509675.811 1      1606.558          42.000  
  24380416.966 9               9      3583.945          25.000  
 21 07 20 14 32 12.9980000  0  9G32G10G12G31G23G24G21G25G22
  19865332.342 1 104393016.209 1      1372.485          46.000  
  20209051.419 1 106199283.837 1     -1598.969          45.000  
  21102719.552 1 110895537.809 1      -579.846          43.000  
  21499303.557 1 112979623.407 1      3109.795          37.000  
  22425629.938 1 117847467.895 1     -3153.104          39.000  
  23849111.426 4 125327959.929 3     -2927.366          30.000  
  24438135.307 4 128423305.911 2       -90.332          30.000  
  20077670.762 1 105508872.748 1      1605.668          42.000  
  24380076.103 9               9      3584.526          25.000  
 21 07 20 14 32 13.4980000  0  9G32G10G12G31G23G24G21G25G22
  19865201.910 1 104392329.995 1      1371.994          46.000  
  20209203.611 1 106200083.359 1     -1599.316          45.000  
  21102774.659 1 110895827.854 1      -580.427          43.000  
  21499007.522 1 112978068.620 1      3109.126          37.000  
  22425929.925 1 117849044.448 1     -3153.468          40.000  
  23849390.141 4 125329423.562 3     -2927.288          30.000  
  24438151.553 4 128423350.912 2       -89.740          30.000  
  20077518.090 1 105508069.914 1      1605.320          42.000  
  24379736.888 9               9      3582.866          25.000  
 21 07 20 14 32 13.9980000  0  9G32G10G12G31G23G24G21G25G22
  19865071.374 1 104391643.847 1      1372.259          46.000  
  20209355.934 1 106200883.026 1     -1599.481          45.000  
  21102830.090 1 110896118.066 1      -580.393          43.000  
  21498711.479 1 112976513.922 1      3109.365          37.000  
  22426229.815 1 117850621.043 1     -3153.263          40.000  
  23849670.775 8 125330887.186 4     -2926.992          30.000  
  24438159.964 4 128423396.159 2       -90.457          30.000  
  20077365.322 1 105507267.280 1      1605.033          42.000  
  24379395.754 9               9      3583.739          25.000  
 21 07 20 14 32 14.4980000  0  9G32G10G12G31G23G24G21G25G22
  19864940.934 1 104390957.810 1      1371.787          46.000  
  20209508.248 1 106201682.855 1     -1599.860          45.000  
  21102885.486 1 110896408.486 1      -581.116          43.000  
  21498415.533 1 112974959.348 1      3108.690          37.000  
  22426529.924 1 117852197.737 1     -3153.568          39.000  
  23849951.314 8 125332350.827 4     -2927.319          29.000  
  24438167.188 4 128423441.450 2       -90.824          30.000  
  20077212.598 1 105506464.820 1      1604.495          42.000  
  24379055.919 9               9      3583.797          25.000  
 21 07 20 14 32 14.9980000  0  9G32G10G12G31G23G24G21G25G22
  19864810.397 1 104390271.874 1      1371.585          46.000  
  20209660.824 1 106202482.869 1     -1600.323          45.000  
  21102940.707 1 110896699.106 1      -581.468          43.000  
  21498119.682 2 112973404.865 1      3108.958          37.000  
  22426830.085 1 117853774.496 1     -3153.464          40.000  
  23850225.683 4 125333814.459 3     -2926.762          29.000  
  24438172.868 8 128423486.894 3       -90.642          30.000  
  20077059.856 1 105505662.584 1      1603.981          42.000  
  24378713.258 9               9      3582.512          25.000  
 21 07 20 14 32 15.4980000  0  9G32G10G12G31G23G24G21G25G22
  19864679.931 1 104389586.195 1      1370.926          46.000  
  20209812.972 1 106203283.210 1     -1601.282          45.000  
  21102996.050 1 110896990.085 1      -582.579          43.000  
  21497823.778 2 112971850.678 1      3107.786          37.000  
  22427130.386 1 117855351.521 1     -3154.299          40.000  
  23850507.574 8 125335278.340 3     -2928.054          29.000  
  24438182.309 4 128423532.687 3       -92.306          30.000  
  20076907.559 1 105504860.695 1      1602.990          42.000  
  24378372.839 9               9      3583.768          25.000  
 21 07 20 14 32 15.9980000  0  9G32G10G12G31G23G24G21G25G22
  19864549.630 1 104388900.789 1      1370.660          47.000  
  20209965.278 1 106204083.884 1     -1601.611          45.000  
  21103051.420 1 110897281.444 1      -583.328          43.000  
  21497527.945 2 112970296.786 1      3107.226          37.000  
  22427430.434 1 117856928.792 1     -3155.045          40.000  
  23850782.494 8 125336742.337 3     -2928.067          29.000  
  24438190.929 8 128423578.718 3       -92.361          30.000  
  20076755.210 1 105504059.169 1      1603.029          42.000  
  24378032.124 9               9      3582.989          25.000  
 21 07 20 14 32 16.4980000  0  9G32G10G12G31G23G24G21G25G22
  19864419.242 1 104388215.538 1      1370.587          47.000  
  20210117.766 1 106204884.771 1     -1601.776          45.000  
  21103107.069 1 110897573.019 1      -582.953          43.000  
  21497232.102 2 112968742.991 1      3107.769          37.000  
  22427730.560 1 117858506.190 1     -3154.751          40.000  
  23851060.432 4 125338206.449 3     -2927.671          29.000  
  24438197.534 4 128423624.928 2       -91.603          30.000  
  20076602.756 1 105503257.923 1      1602.532          42.000  
  24377690.352 9               9      3582.095          25.000  
 21 07 20 14 32 16.9980000  0  9G32G10G12G31G23G24G21G25G22
  19864288.706 1 104387530.194 1      1370.703          47.000  
  20210270.360 1 106205685.651 1     -1601.990          45.000  
  21103162.648 1 110897864.634 1      -583.350          43.000  
  21496936.435 2 112967189.176 1      3107.813          37.000  
  22428030.695 1 117860083.479 1     -3154.694          39.000  
  23851342.811 8 125339670.444 4     -2928.093          29.000  
  24438209.653 4 128423671.106 2       -92.177          30.000  
  20076450.381 1 105502456.654 1      1602.441          42.000  
  24377349.288 9               9      3583.077          25.000  
 21 07 20 14 32 17.4980000  0  9G32G10G12G31G23G24G21G25G22
  19864158.239 1 104386844.850 1      1370.973          47.000  
  20210422.613 1 106206486.583 1     -1601.617          45.000  
  21103217.956 1 110898156.348 1      -583.314          43.000  
  21496640.610 2 112965635.351 1      3108.114          37.000  
  22428330.952 1 117861660.741 1     -3154.396          40.000  
  23851619.240 8 125341134.252 4     -2927.306          30.000  
  24438222.034 8 128423717.336 3       -92.353          30.000  
  20076298.207 1 105501655.502 1      1602.521          42.000  
  24377009.244 9               9      3583.103          25.000  
 21 07 20 14 32 17.9980000  0  9G32G10G12G31G23G24G21G25G22
  19864027.860 1 104386159.411 1      1370.866          47.000  
  20210575.154 1 106207287.481 1     -1601.740          45.000  
  21103273.561 1 110898448.048 1      -583.438          43.000  
  21496344.837 1 112964081.442 1      3107.836          37.000  
  22428631.044 1 117863237.883 1     -3154.238          40.000  
  23851899.063 8 125342597.988 4     -2927.232          30.000  
  24438228.770 8 128423763.513 3       -92.335          30.000  
  20076145.735 1 105500854.338 1      1602.276          42.000  
  24376668.756 9               9      3582.339          25.000  
 21 07 20 14 32 18.4980000  0  9G32G10G12G31G23G24G21G25G22
  19863897.568 1 104385474.170 1      1369.733          47.000  
  20210727.739 1 106208088.666 1     -1603.107          45.000  
  21103329.262 1 110898740.066 1      -584.866          43.000  
  21496049.274 1 112962527.764 1      3106.828          37.000  
  22428931.188 1 117864815.239 1     -3155.452          40.000  
  23852173.834 8 125344061.776 3     -2928.366          29.000  
  24438237.198 8 128423809.842 3       -92.526          30.000  
  20075993.491 1 105500053.482 1      1601.176          42.000  
  24376327.386 9               9      3580.712          24.000  
 21 07 20 14 32 18.9980000  0  9G32G10G12G31G23G24G21G25G22
  19863767.232 1 104384789.095 1      1370.650          47.000  
  20210880.228 1 106208890.078 1     -1602.344          45.000  
  21103384.859 1 110899032.338 1      -584.079          43.000  
  21495753.720 1 112960974.224 1      3107.881          37.000  
  22429231.331 1 117866392.701 1     -3154.117          40.000  
  23852454.643 8 125345525.631 3     -2927.047          29.000  
  24438243.184 8 128423856.398 3       -91.504          30.000  
  20075841.403 1 105499252.888 1      1601.719          42.000  
  24375986.199 9               9      3583.233          25.000  
 21 07 20 14 32 19.4980000  0  9G32G10G12G31G23G24G21G25G22
  19863636.818 1 104384103.908 1      1370.471          47.000  
  20211032.742 1 106209691.451 1     -1602.802          45.000  
  21103440.490 1 110899324.589 1      -584.638          43.000  
  21495458.105 1 112959420.635 1      3106.787          37.000  
  22429531.484 1 117867970.048 1     -3154.318          40.000  
  23852733.411 4 125346989.360 3     -2927.019          29.000  
  24438252.476 8 128423902.941 4       -92.325          30.000  
  20075689.177 1 105498452.292 1      1601.239          42.000  
  24375645.309 9               9      3580.872          25.000  
 21 07 20 14 32 19.9980000  0  9G32G10G12G31G23G24G21G25G22
  19863506.482 1 104383418.519 1      1370.654          47.000  
  20211184.935 1 106210492.671 1     -1602.502          45.000  
  21103496.069 1 110899616.748 1      -584.588          43.000  
  21495162.550 1 112957866.785 1      3107.660          37.000  
  22429831.758 1 117869547.171 1     -3154.305          40.000  
  23853013.766 4 125348452.794 3     -2926.903          29.000  
  24438263.400 8 128423949.287 3       -93.136          30.000  
  20075536.915 1 105497651.582 1      1601.201          42.000  
  24375303.808 9               9      3582.597          25.000  
 21 07 20 14 32 20.4980000  0  9G32G10G12G31G23G24G21G25G22
  19863376.129 1 104382733.181 1      1370.715          47.000  
  20211337.484 1 106211294.026 1     -1602.746          45.000  
  21103551.892 1 110899909.055 1      -584.753          43.000  
  21494866.926 2 112956313.037 1      3107.854          37.000  
  22430131.815 1 117871124.325 1     -3154.089          40.000  
  23853290.273 4 125349916.162 3     -2926.524          29.000  
  24438273.879 8 128423995.657 3       -91.793          30.000  
  20075384.688 1 105496851.016 1      1600.975          42.000  
  24374963.887 9               9      3582.661          25.000  
 21 07 20 14 32 20.9980000  0  9G32G10G12G31G23G24G21G25G22
  19863245.654 1 104382047.775 1      1371.041          47.000  
  20211490.052 1 106212095.369 1     -1602.368          45.000  
  21103607.515 1 110900201.388 1      -584.580          43.000  
  21494571.389 2 112954759.275 1      3107.517          37.000  
  22430431.915 1 117872701.400 1     -3153.849          40.000  
  23853568.028 4 125351379.404 3     -2925.892          29.000  
  24438280.405 8 128424042.100 3       -93.086          31.000  
  20075232.496 1 105496050.496 1      1601.019          42.000  
  24374623.686 9               9      3584.111          24.000  
 21 07 20 14 32 21.4980000  0  9G32G10G12G31G23G24G21G25G22
  19863115.248 1 104381362.449 1      1370.550          47.000  
  20211642.619 1 106212896.882 1     -1603.107          45.000  
  21103663.233 1 110900493.906 1      -585.091          43.000  
  21494275.852 2 112953205.545 1      3107.257          37.000  
  22430731.814 1 117874278.527 1     -3154.505          39.000  
  23853847.459 4 125352842.636 3     -2926.272          29.000  
  24438289.898 8 128424088.550 3       -92.404          31.000  
  20075080.120 1 105495250.143 1      1600.505          42.000  
  24374284.053 9               9      3589.352          24.000  
 21 07 20 14 32 21.9980000  0  8G32G10G12G31G23G24G21G25
  19862984.904 1 104380677.161 1      1370.629          47.000  
  20211795.212 1 106213698.491 1     -1603.204          45.000  
  21103718.969 1 110900786.586 1      -585.635          43.000  
  21493980.263 2 112951651.891 1      3106.920          37.000  
  22431031.679 1 117875855.694 1     -3154.332          39.000  
  23854124.411 4 125354305.874 3     -2926.269          29.000  
  24438300.298 8 128424135.118 3       -92.294          31.000  
  20074927.989 1 105494449.938 1      1600.284          42.000  
 21 07 20 14 32 22.4980000  0  8G32G10G12G31G23G24G21G25
  19862854.263 1 104379991.917 1      1370.674          47.000  
  20211947.718 1 106214500.206 1     -1603.339          45.000  
  21103774.688 1 110901079.367 1      -585.613          43.000  
  21493684.491 2 112950098.259 1      3107.522          37.000  
  22431331.779 1 117877432.867 1     -3154.346          39.000  
  23854402.314 4 125355769.058 3     -2926.625          30.000  
  24438307.287 8 128424181.814 3       -93.625          31.000  
  20074775.675 1 105493649.856 1      1600.467          42.000  
 21 07 20 14 32 22.9980000  0  8G32G10G12G31G23G24G21G25
  19862723.779 1 104379306.714 1      1370.212          47.000  
  20212100.486 1 106215302.038 1     -1603.796          45.000  
  21103830.485 1 110901372.298 1      -585.943          43.000  
  21493388.823 1 112948544.719 1      3106.900          37.000  
  22431631.958 1 117879010.045 1     -3154.334          39.000  
  23854682.303 4 125357232.169 3     -2926.396          30.000  
  24438316.388 8 128424228.554 3       -93.948          31.000  
  20074623.562 1 105492849.937 1      1599.651          42.000  
 21 07 20 14 32 23.4980000  0  8G32G10G12G31G23G24G21G25
  19862593.400 1 104378621.537 1      1370.430          47.000  
  20212253.150 1 106216103.956 1     -1603.979          45.000  
  21103886.404 1 110901665.379 1      -586.328          43.000  
  21493093.076 1 112946991.219 1      3106.653          37.000  
  22431931.953 1 117880587.271 1     -3154.522          39.000  
  23854961.306 4 125358695.234 3     -2926.285          30.000  
  24438323.411 4 128424275.276 2       -92.871          30.000  
  20074471.431 1 105492050.137 1      1599.672          42.000  
 21 07 20 14 32 23.9980000  0  8G32G10G12G31G23G24G21G25
  19862462.898 1 104377936.512 1      1369.915          47.000  
  20212405.743 1 106216906.104 1     -1604.669          45.000  
  21103942.149 1 110901958.699 1      -586.963          43.000  
  21492797.461 1 112945437.848 1      3106.824          37.000  
  22432232.263 1 117882164.596 1     -3154.697          39.000  
  23855243.991 4 125360158.319 3     -2925.271          30.000  
  24438334.004 8 128424322.256 3       -93.678          31.000  
  20074319.457 1 105491250.586 1      1598.790          42.000  
 21 07 20 14 32 24.4980000  0  8G32G10G12G31G23G24G21G25
  19862332.685 1 104377251.583 1      1369.762          47.000  
  20212558.415 1 106217708.395 1     -1604.681          45.000  
  21103997.937 1 110902252.206 1      -587.181          43.000  
  21492502.038 1 112943884.621 1      3106.219          37.000  
  22432532.223 1 117883742.007 1     -3154.901          39.000  
  23855517.715 4 125361621.524 3     -2926.688          30.000  
  24438344.849 8 128424369.355 3       -94.366          30.000  
  20074167.430 1 105490451.225 1      1598.613          42.000  
 21 07 20 14 32 24.9980000  0  8G32G10G12G31G23G24G21G25
  19862202.305 1 104376566.759 1      1369.528          47.000  
  20212711.261 1 106218510.868 1     -1605.041          45.000  
  21104053.900 1 110902545.898 1      -587.492          43.000  
  21492206.640 1 112942331.468 1      3106.184          37.000  
  22432832.472 1 117885319.497 1     -3154.965          39.000  
  23855798.061 8 125363084.694 3     -2926.868          30.000  
  24438352.876 8 128424416.601 2       -95.081          31.000  
  20074015.229 1 105489652.076 1      1598.229          42.000  
 21 07 20 14 32 25.4980000  0  8G32G10G12G31G23G24G21G25
  19862072.083 1 104375882.000 1      1369.279          47.000  
  20212864.082 1 106219313.479 1     -1605.402          45.000  
  21104109.653 1 110902839.792 1      -588.084          43.000  
  21491910.990 1 112940778.403 1      3105.941          37.000  
  22433132.607 1 117886897.032 1     -3155.191          39.000  
  23856076.541 8 125364547.844 3     -2926.129          30.000  
  24438362.657 8 128424463.915 3       -94.310          31.000  
  20073863.212 1 105488853.083 1      1597.604          42.000  
 21 07 20 14 32 25.9980000  0  8G32G10G12G31G23G24G21G25
  19861941.756 1 104375197.420 1      1368.599          47.000  
  20213017.059 1 106220116.339 1     -1606.372          45.000  
  21104165.721 1 110903133.952 1      -588.990          43.000  
  21491615.671 1 112939225.526 1      3105.644          37.000  
  22433432.777 1 117888474.750 1     -3156.075          40.000  
  23856358.728 8 125366011.068 3     -2925.954          30.000  
  24438366.653 8 128424511.469 3       -94.821          31.000  
  20073711.282 1 105488054.376 1      1596.791          42.000  
 21 07 20 14 32 26.4980000  0  8G32G10G12G31G23G24G21G25
  19861811.595 1 104374513.028 1      1368.557          47.000  
  20213169.906 1 106220919.455 1     -1606.354          45.000  
  21104221.788 1 110903428.406 1      -589.375          43.000  
  21491320.082 2 112937672.890 1      3104.843          37.000  
  22433733.060 1 117890052.612 1     -3155.889          39.000  
  23856636.012 8 125367474.501 3     -2927.168          30.000  
  24438374.165 8 128424559.263 3       -96.041          31.000  
  20073559.439 1 105487255.958 1      1596.523          42.000  
 21 07 20 14 32 26.9980000  0  8G32G10G12G31G23G24G21G25
  19861681.591 1 104373828.813 1      1368.390          47.000  
  20213322.935 1 106221722.819 1     -1606.824          45.000  
  21104277.917 1 110903723.124 1      -589.658          43.000  
  21491024.737 2 112936120.425 1      3104.763          37.000  
  22434033.457 1 117891630.626 1     -3155.821          39.000  
  23856913.226 8 125368937.939 4     -2926.843          30.000  
  24438386.258 8 128424607.229 3       -95.763          31.000  
  20073407.342 1 105486457.822 1      1595.957          42.000  
 21 07 20 14 32 27.4980000  0  8G32G10G12G31G23G24G21G25
  19861551.534 1 104373144.718 1      1367.972          47.000  
  20213475.703 1 106222526.350 1     -1607.281          45.000  
  21104334.081 1 110904018.068 1      -590.176          43.000  
  21490729.418 1 112934568.039 1      3104.934          37.000  
  22434333.758 1 117893208.771 1     -3156.472          40.000  
  23857189.324 8 125370401.475 4     -2927.092          30.000  
  24438395.926 4 128424655.358 2       -96.523          31.000  
  20073255.491 1 105485659.871 1      1595.819          42.000  
 21 07 20 14 32 27.9980000  0  8G32G10G12G31G23G24G21G25
  19861421.347 1 104372460.545 1      1368.561          47.000  
  20213628.471 1 106223329.889 1     -1607.007          45.000  
  21104390.192 1 110904313.023 1      -589.734          43.000  
  21490433.934 2 112933015.649 1      3105.261          37.000  
  22434634.102 1 117894786.804 1     -3155.900          40.000  
  23857469.565 8 125371864.810 3     -2925.649          30.000  
  24438405.846 8 128424703.440 3       -95.949          31.000  
  20073103.639 1 105484861.983 1      1595.836          42.000  
 21 07 20 14 32 28.4980000  0  8G32G10G12G31G23G24G21G25
  19861291.160 1 104371776.172 1      1368.594          47.000  
  20213781.291 1 106224133.286 1     -1606.989          45.000  
  21104446.172 1 110904607.887 1      -589.975          43.000  
  21490138.231 1 112931463.039 1      3105.174          37.000  
  22434934.394 1 117896364.591 1     -3155.418          40.000  
  23857747.041 8 125373327.908 3     -2925.905          30.000  
  24438414.528 8 128424751.400 3       -96.617          31.000  
  20072951.700 1 105484063.964 1      1595.823          42.000  
 21 07 20 14 32 28.9980000  0  8G32G10G12G31G23G24G21G25
  19861161.033 1 104371091.633 1      1369.313          47.000  
  20213934.260 1 106224936.590 1     -1606.396          45.000  
  21104502.275 1 110904902.681 1      -589.385          43.000  
  21489842.555 2 112929910.290 1      3105.470          37.000  
  22435234.581 1 117897942.237 1     -3155.000          39.000  
  23858021.228 8 125374790.780 3     -2925.530          30.000  
  24438423.767 8 128424799.167 3       -95.770          31.000  
  20072799.665 1 105483265.894 1      1596.425          42.000  
 21 07 20 14 32 29.4980000  0  8G32G10G12G31G23G24G21G25
  19861030.785 1 104370407.007 1      1369.134          47.000  
  20214087.159 1 106225739.882 1     -1606.763          45.000  
  21104558.394 1 110905197.504 1      -590.126          43.000  
  21489547.166 2 112928357.461 1      3105.169          37.000  
  22435534.786 1 117899519.747 1     -3155.078          39.000  
  23858301.112 8 125376253.401 3     -2925.033          30.000  
  24438432.519 4 128424846.902 3       -95.780          31.000  
  20072647.630 1 105482467.836 1      1595.965          42.000  
 21 07 20 14 32 29.9980000  0  8G32G10G12G31G23G24G21G25
  19860900.624 1 104369722.380 1      1369.242          47.000  
  20214240.154 1 106226543.233 1     -1606.744          45.000  
  21104614.445 1 110905492.389 1      -589.865          43.000  
  21489251.446 2 112926804.625 1      3105.581          37.000  
  22435834.808 1 117901097.245 1     -3154.927          39.000  
  23858581.511 8 125377715.978 3     -2924.927          30.000  
  24438438.687 4 128424894.646 2       -95.393          31.000  
  20072495.612 1 105481669.875 1      1595.724          42.000  
 21 07 20 14 32 30.4980000  0  8G32G10G12G31G23G24G21G25
  19860770.306 1 104369037.765 1      1369.209          47.000  
  20214393.000 1 106227346.653 1     -1606.934          45.000  
  21104670.495 1 110905787.401 1      -590.197          43.000  
  21488955.874 1 112925251.801 1      3105.572          37.000  
  22436134.838 1 117902674.735 1     -3155.104          39.000  
  23858857.739 8 125379178.532 3     -2925.685          30.000  
  24438450.362 8 128424942.483 2       -96.185          31.000  
  20072343.909 1 105480872.014 1      1595.427          42.000  
 21 07 20 14 32 30.9980000  0  8G32G10G12G31G23G24G21G25
  19860640.118 1 104368353.244 1      1369.238          47.000  
  20214546.030 1 106228150.247 1     -1607.050          45.000  
  21104726.745 1 110906082.606 1      -590.094          43.000  
  21488660.346 2 112923699.110 1      3105.411          37.000  
  22436435.191 1 117904252.288 1     -3154.843          40.000  
  23859137.763 8 125380641.035 3     -2925.221          30.000  
  24438460.352 4 128424990.420 2       -96.164          31.000  
  20072192.022 1 105480074.359 1      1595.281          42.000  
 21 07 20 14 32 31.4980000  0  8G32G10G12G31G23G24G21G25
  19860509.957 1 104367668.659 1      1369.558          47.000  
  20214699.103 1 106228953.857 1     -1607.202          45.000  
  21104783.005 1 110906377.856 1      -590.433          43.000  
  21488364.879 2 112922146.359 1      3105.640          36.000  
  22436735.326 1 117905829.775 1     -3154.595          40.000  
  23859415.762 8 125382103.407 3     -2924.124          30.000  
  24438468.449 4 128425038.321 2       -95.854          31.000  
  20072040.135 1 105479276.723 1      1595.491          41.000  
 21 07 20 14 32 31.9980000  0  8G32G10G12G31G23G24G21G25
  19860379.691 1 104366984.186 1      1369.001          47.000  
  20214852.176 1 106229757.612 1     -1607.178          45.000  
  21104839.203 1 110906673.309 1      -591.077          43.000  
  21488069.490 2 112920593.711 1      3105.597          36.000  
  22437035.470 1 117907407.337 1     -3154.794          40.000  
  23859696.135 8 125383565.836 3     -2924.819          30.000  
  24438478.230 4 128425086.365 2       -95.834          31.000  
  20071888.519 1 105478479.312 1      1594.905          41.000  
 21 07 20 14 32 32.4980000  0  8G32G10G12G31G23G24G21G25
  19860249.434 1 104366299.635 1      1369.175          47.000  
  20215005.127 1 106230561.391 1     -1607.367          45.000  
  21104895.620 1 110906968.779 1      -590.858          44.000  
  21487774.119 2 112919041.027 1      3105.651          37.000  
  22437335.649 1 117908984.812 1     -3154.609          40.000  
  23859972.773 8 125385028.148 3     -2925.520          30.000  
  24438488.517 8 128425134.339 3       -95.747          31.000  
  20071736.554 1 105477681.929 1      1594.582          41.000  
 21 07 20 14 32 32.9980000  0  8G32G10G12G31G23G24G21G25
  19860119.028 1 104365614.971 1      1369.329          47.000  
  20215158.175 1 106231365.114 1     -1607.611          45.000  
  21104951.714 1 110907264.236 1      -591.088          44.000  
  21487478.277 2 112917488.252 1      3105.324          36.000  
  22437635.775 1 117910562.154 1     -3154.896          40.000  
  23860251.689 8 125386490.145 3     -2924.019          30.000  
  24438496.648 8 128425182.256 2       -95.842          31.000  
  20071584.554 1 105476884.516 1      1594.460          41.000  
 21 07 20 14 32 33.4980000  0  8G32G10G12G31G23G24G21G25
  19859988.841 1 104364930.306 1      1369.502          48.000  
  20215311.161 1 106232168.903 1     -1607.501          45.000  
  21105007.851 1 110907559.790 1      -591.028          44.000  
  21487182.897 2 112915935.420 1      3106.137          36.000  
  22437936.128 1 117912139.480 1     -3154.564          40.000  
  23860528.606 8 125387952.088 3     -2923.391          30.000  
  24438505.190 4 128425230.237 2       -95.603          31.000  
  20071432.815 1 105476087.192 1      1594.714          41.000  
 21 07 20 14 32 33.9980000  0  8G32G10G12G31G23G24G21G25
  19859858.558 1 104364245.608 1      1369.736          48.000  
  20215464.094 1 106232972.719 1     -1607.489          45.000  
  21105064.110 1 110907855.404 1      -590.915          44.000  
  21486887.229 2 112914382.621 1      3105.926          36.000  
  22438236.228 1 117913716.748 1     -3154.393          39.000  
  23860808.385 8 125389414.022 3     -2924.042          30.000  
  24438513.523 8 128425278.188 3       -95.708          31.000  
  20071281.094 1 105475289.937 1      1594.999          41.000  
 21 07 20 14 32 34.4980000  0  8G32G10G12G31G23G24G21G25
  19859728.222 1 104363560.882 1      1369.199          48.000  
  20215617.028 1 106233776.565 1     -1607.904          45.000  
  21105120.449 1 110908151.110 1      -591.743          44.000  
  21486591.640 2 112912829.791 1      3105.362          37.000  
  22438536.503 1 117915293.953 1     -3154.733          40.000  
  23861084.806 8 125390875.748 3     -2923.308          30.000  
  24438524.289 8 128425326.136 3       -95.372          31.000  
  20071129.251 1 105474492.777 1      1593.917          41.000  
 21 07 20 14 32 34.9980000  0  8G32G10G12G31G23G24G21G25
  19859597.991 1 104362876.559 1      1368.403          47.000  
  20215770.206 1 106234580.934 1     -1609.247          45.000  
  21105176.874 1 110908447.331 1      -592.871          44.000  
  21486295.981 2 112911277.379 1      3104.698          36.000  
  22438836.699 1 117916871.579 1     -3155.586          40.000  
  23861362.936 8 125392337.887 3     -2924.503          30.000  
  24438531.592 8 128425374.558 2       -96.752          31.000  
  20070977.461 1 105473696.109 1      1593.037          41.000  
 21 07 20 14 32 35.4980000  0  8G32G10G12G31G23G24G21G25
  19859467.935 1 104362192.476 1      1368.214          47.000  
  20215923.576 1 106235385.553 1     -1609.277          45.000  
  21105233.308 1 110908743.854 1      -592.983          44.000  
  21486000.610 2 112909725.216 1      3104.615          37.000  
  22439137.035 1 117918449.393 1     -3155.674          40.000  
  23861640.700 8 125393800.101 3     -2924.049          31.000  
  24438544.183 8 128425423.223 2       -97.500          31.000  
  20070825.914 1 105472899.766 1      1592.677          41.000  
 21 07 20 14 32 35.9980000  0  8G32G10G12G31G23G24G21G25
  19859337.669 1 104361508.205 1      1368.555          47.000  
  20216076.527 1 106236190.068 1     -1608.679          45.000  
  21105289.620 1 110909040.308 1      -592.807          44.000  
  21485705.152 2 112908172.880 1      3104.900          37.000  
  22439437.248 1 117920026.991 1     -3154.898          40.000  
  23861917.975 8 125395262.060 3     -2923.562          31.000  
  24438550.727 4 128425471.715 2       -95.961          31.000  
  20070673.958 1 105472103.335 1      1593.087          41.000  
 21 07 20 14 32 36.4980000  0  8G32G10G12G31G23G24G21G25
  19859207.455 1 104360823.798 1      1369.057          47.000  
  20216229.609 1 106236994.541 1     -1608.880          45.000  
  21105346.019 1 110909336.728 1      -592.773          43.000  
  21485409.667 2 112906620.410 1      3105.508          37.000  
  22439737.296 1 117921604.461 1     -3154.660          40.000  
  23862195.180 8 125396723.863 2     -2923.546          30.000  
  24438561.738 8 128425520.188 2       -96.686          31.000  
  20070522.184 1 105471306.885 1      1593.197          41.000  
 21 07 20 14 32 36.9980000  0  8G32G10G12G31G23G24G21G25
  19859077.181 1 104360139.313 1      1368.956          47.000  
  20216382.726 1 106237798.984 1     -1609.326          45.000  
  21105402.435 1 110909633.153 1      -592.930          43.000  
  21485114.156 2 112905067.889 1      3105.107          37.000  
  22440037.457 1 117923181.815 1     -3154.698          40.000  
  23862475.902 8 125398185.488 3     -2923.761          31.000  
  24438569.555 4 128425568.565 2       -97.163          31.000  
  20070370.507 1 105470510.455 1      1592.519          41.000  
 21 07 20 14 32 37.4980000  0  8G32G10G12G31G23G24G21G25
  19858946.828 1 104359454.749 1      1369.306          47.000  
  20216535.721 1 106238603.400 1     -1608.759          45.000  
  21105458.782 1 110909929.604 1      -592.873          43.000  
  21484818.681 2 112903515.289 1      3105.511          37.000  
  22440337.723 1 117924759.077 1     -3154.267          40.000  
  23862755.105 8 125399646.832 3     -2921.534          30.000  
  24438579.947 4 128425616.895 2       -97.164          31.000  
  20070218.821 1 105469714.035 1      1592.827          41.000  
 21 07 20 14 32 37.9980000  0  8G32G10G12G31G23G24G21G25
  19858816.466 1 104358770.364 1      1368.497          47.000  
  20216688.847 1 106239408.074 1     -1609.674          45.000  
  21105515.347 1 110910226.340 1      -593.951          43.000  
  21484523.231 2 112901962.904 1      3104.195          37.000  
  22440637.910 1 117926336.514 1     -3155.158          40.000  
  23863033.663 8 125401108.410 3     -2922.200          30.000  
  24438587.014 8 128425665.435 3       -97.383          31.000  
  20070067.301 1 105468917.907 1      1591.601          41.000  
 21 07 20 14 32 38.4980000  0  8G32G10G12G31G23G24G21G25
  19858686.069 1 104358086.024 1      1368.633          47.000  
  20216841.868 1 106240212.868 1     -1609.882          45.000  
  21105571.868 1 110910523.224 1      -594.030          43.000  
  21484227.851 2 112900410.553 1      3104.312          37.000  
  22440938.115 1 117927913.961 1     -3154.945          40.000  
  23863313.198 8 125402569.964 3     -2923.660          30.000  
  24438599.517 8 128425714.092 2       -98.111          31.000  
  20069915.720 1 105468121.895 1      1591.905          41.000  
 21 07 20 14 32 38.9980000  0  8G32G10G12G31G23G24G21G25
  19858555.838 1 104357401.903 1      1367.953          47.000  
  20216995.072 1 106241017.935 1     -1610.455          45.000  
  21105628.337 1 110910820.405 1      -594.530          43.000  
  21483932.367 2 112898858.416 1      3104.052          36.000  
  22441238.442 1 117929491.595 1     -3155.585          40.000  
  23863588.624 8 125404031.587 3     -2923.566          30.000  
  24438609.385 8 128425762.950 2       -98.309          31.000  
  20069764.313 1 105467326.221 1      1591.056          41.000  
 21 07 20 14 32 39.4980000  0  8G32G10G12G31G23G24G21G25
  19858425.686 1 104356717.894 1      1368.158          47.000  
  20217148.311 1 106241823.190 1     -1610.315          45.000  
  21105685.068 1 110911117.813 1      -594.906          43.000  
  21483637.109 2 112897306.391 1      3104.432          36.000  
  22441538.656 1 117931069.328 1     -3155.105          40.000  
  23863868.351 8 125405493.289 3     -2923.407          30.000  
  24438619.952 8 128425811.969 2       -98.033          31.000  
  20069612.775 1 105466530.748 1      1590.953          41.000  
 21 07 20 14 32 39.9980000  0  8G32G10G12G31G23G24G21G25
  19858295.376 1 104356033.840 1      1368.011          47.000  
  20217301.585 1 106242628.479 1     -1610.828          45.000  
  21105741.938 1 110911415.260 1      -594.848          43.000  
  21483341.834 2 112895754.377 1      3103.707          36.000  
  22441839.000 1 117932647.014 1     -3155.633          40.000  
  23864147.476 8 125406954.815 2     -2923.136          31.000  
  24438627.586 4 128425860.935 2       -97.582          31.000  
  20069461.412 1 105465735.346 1      1590.692          41.000  
 21 07 20 14 32 40.4980000  0  8G32G10G12G31G23G24G21G25
  19858165.145 1 104355349.850 1      1367.981          47.000  
  20217454.850 1 106243433.862 1     -1610.620          45.000  
  21105798.468 1 110911712.892 1      -595.503          43.000  
  21483046.480 2 112894202.409 1      3103.745          36.000  
  22442139.275 1 117934224.704 1     -3155.163          40.000  
  23864425.754 8 125408416.346 3     -2922.791          30.000  
  24438637.428 4 128425910.079 2       -98.457          31.000  
  20069309.944 1 105464940.091 1      1590.497          41.000  
 21 07 20 14 32 40.9980000  0  8G32G10G12G31G23G24G21G25
  19858035.193 1 104354665.935 1      1367.448          47.000  
  20217608.133 1 106244239.424 1     -1611.432          45.000  
  21105855.338 1 110912010.688 1      -596.156          43.000  
  21482750.978 2 112892650.531 1      3103.504          36.000  
  22442439.480 1 117935802.496 1     -3155.949          40.000  
  23864701.067 8 125409877.873 3     -2923.234          30.000  
  24438644.748 4 128425959.299 2       -98.582          31.000  
  20069158.476 1 105464145.022 1      1589.652          41.000  
