     3.03           OBSERVATION DATA    M: Mixed            RINEX VERSION / TYPE
RTKCONV demo5 b33c                      20200312 063544 UTC PGM / RUN BY / DATE 
log: C:\Users\YX\Desktop\rtcm_data.rtcm                     COMMENT             
format: RTCM 3, station ID: 0                               COMMENT             
0000                                                        MARKER NAME         
                                                            MARKER NUMBER       
                                                            MARKER TYPE         
                                                            OBSERVER / AGENCY   
                                                            REC # / TYPE / VERS 
                                                            ANT # / TYPE        
        0.0000        0.0000        0.0000                  APPROX POSITION XYZ 
        0.0000        0.0000        0.0000                  ANTENNA: DELTA H/E/N
G    3 C1C L1C S1C                                          SYS / # / OBS TYPES 
  2020     3    12     6    20   11.5870000     GPS         TIME OF FIRST OBS   
  2020     3    12     6    35   54.3860000     GPS         TIME OF LAST OBS    
G                                                           SYS / PHASE SHIFT   
  0                                                         GLONASS SLOT / FRQ #
 C1C    0.000 C1P    0.000 C2C    0.000 C2P    0.000        GLONASS COD/PHS/BIS 
                                                            END OF HEADER       
> 2020  3 12  6 20 11.5870000  0  8                     
G27  16109022.154    84653475.6731         35.000  
G16                              1         21.000  
G 4  17859270.742    93851102.2671         33.000  
G 8  16950406.488    89075044.5231         35.000  
G 9  17987781.760    94526447.8451         38.000  
G26  18802115.936    98805786.6271         30.000  
G23  17871410.722    93914910.8521         26.000  
G 7  19901457.168   104582862.5221         29.000  
> 2020  3 12  6 20 11.7870000  0  8                     
G27  16109008.014    84653401.8011         35.000  
G16                              1         21.000  
G 4  17859343.822    93851486.2311         32.000  
G 8  16950309.328    89074534.1361         34.000  
G 9  17987782.840    94526453.8041         38.000  
G26  18802199.036    98806223.8041         30.000  
G23  17871466.042    93915199.5111         26.000  
G 7  19901321.468   104582150.2801         29.000  
> 2020  3 12  6 20 12.5870000  0  8                     
G27  16108951.634    84653106.399          35.000  
G16                                        21.000  
G 4  17859635.882    93853022.131          32.000  
G 8  16949920.768    89072492.867          35.000  
G 9  17987787.220    94526477.772          38.000  
G26  18802527.816    98807972.488          30.000  
G23  17871687.422    93916354.628          26.000  
G 7  19900779.888   104579301.252          29.000  
> 2020  3 12  6 20 12.9870000  0  8                     
G27  16108923.514    84652958.843          35.000  
G16                                        21.000  
G 4  17859782.022    93853790.225          32.000  
G 8  16949726.648    89071472.350          35.000  
G 9  17987789.620    94526489.927          38.000  
G26  18802696.396    98808846.947          30.000  
G23  17871797.162    93916932.346          26.000  
G 7  19900508.888   104577876.757          29.000  
> 2020  3 12  6 20 13.3870000  0  8                     
G27  16108895.374    84652811.350          35.000  
G16                                        20.000  
G 4  17859928.182    93854558.280          32.000  
G 8  16949532.508    89070451.853          35.000  
G 9  17987792.140    94526502.127          38.000  
G26  18802865.536    98809721.267          30.000  
G23  17871908.082    93917510.103          26.000  
G 7  19900238.388   104576452.106          29.000  
> 2020  3 12  6 20 13.7870000  0  8                     
G27  16108867.274    84652663.944          35.000  
G16                                        20.000  
G 4  17860074.282    93855326.443          32.000  
G 8  16949338.448    89069431.452          35.000  
G 9  17987794.380    94526514.416          38.000  
G26  18803033.616    98810595.636          29.000  
G23  17872017.362    93918087.839          25.000  
G 7  19899968.988   104575027.642          29.000  
> 2020  3 12  6 20 14.1870000  0  8                     
G27  16108839.194    84652516.753          35.000  
G16                                        21.000  
G 4  17860220.662    93856094.732          32.000  
G 8  16949144.268    89068411.218          35.000  
G 9  17987796.640    94526526.891          38.000  
G26  18803198.276    98811470.113          30.000  
G23  17872129.902    93918665.777          26.000  
G 7  19899695.908   104573603.167          29.000  
> 2020  3 12  6 20 14.9870000  0  8                     
G27  16108783.294    84652222.707          35.000  
G16                                        20.000  
G 4  17860512.962    93857631.693          32.000  
G 8  16948756.088    89066371.040          35.000  
G 9  17987801.260    94526552.176          38.000  
G26  18803534.156    98813219.092          29.000  
G23  17872348.542    93919821.982          26.000  
G 7  19899153.328   104570754.268          29.000  
> 2020  3 12  6 20 15.3870000  0  8                     
G27  16108755.214    84652075.829          35.000  
G16                                        20.000  
G 4  17860659.182    93858400.289          32.000  
G 8  16948561.968    89065351.090          34.000  
G 9  17987803.680    94526565.001          38.000  
G26  18803700.196    98814093.611          29.000  
G23  17872457.582    93920400.212          26.000  
G 7  19898882.248   104569329.849          29.000  
> 2020  3 12  6 20 15.5870000  0  8                     
G27  16108741.174    84652002.519          35.000  
G16                                        20.000  
G 4  17860731.202    93858784.642          32.000  
G 8  16948464.908    89064841.191          34.000  
G 9  17987804.960    94526571.535          38.000  
G26  18803782.036    98814530.938          29.000  
G23  17872512.302    93920689.389          26.000  
G 7  19898746.608   104568617.736          29.000  
> 2020  3 12  6 20 15.7870000  0  8                     
G27  16108727.254    84651929.200          35.000  
G16                                        20.000  
G 4  17860805.162    93859168.990          32.000  
G 8  16948367.988    89064331.295          35.000  
G 9  17987805.980    94526578.017          38.000  
G26  18803868.076    98814968.204          29.000  
G23  17872567.682    93920978.584          26.000  
G 7  19898609.208   104567905.558          29.000  
> 2020  3 12  6 20 16.1870000  0  8                     
G27  16108699.334    84651782.606          35.000  
G16                                        20.000  
G 4  17860951.742    93859937.792          32.000  
G 8  16948173.928    89063311.574          35.000  
G 9  17987808.400    94526591.113          38.000  
G26  18804031.336    98815842.876          30.000  
G23  17872679.542    93921557.045          26.000  
G 7  19898343.288   104566481.223          29.000  
> 2020  3 12  6 20 16.5870000  0  8                     
G27  16108671.534    84651636.114          35.000  
G16                                        20.000  
G 4  17861098.902    93860706.630          32.000  
G 8  16947979.968    89062291.903          35.000  
G 9  17987810.920    94526604.266          38.000  
G26  18804196.696    98816717.461          29.000  
G23  17872789.322    93922135.545          26.000  
G 7  19898067.948   104565056.885          29.000  
> 2020  3 12  6 20 17.3870000  0  8                     
G27  16108615.614    84651343.487          35.000  
G16                                        20.000  
G 4  17861391.042    93862244.621          32.000  
G 8  16947591.748    89060252.870          35.000  
G 9  17987815.960    94526631.001          38.000  
G26  18804529.776    98818466.789          29.000  
G23  17873010.162    93923292.859          26.000  
G 7  19897528.268   104562208.246          29.000  
> 2020  3 12  6 20 17.7870000  0  8                     
G27  16108587.474    84651197.247          35.000  
G16                                        20.000  
G 4  17861536.842    93863013.695          32.000  
G 8  16947397.528    89059233.388          35.000  
G 9  17987818.560    94526644.396          38.000  
G26  18804700.636    98819341.342          29.000  
G23  17873120.662    93923871.615          26.000  
G 7  19897255.768   104560783.897          29.000  
> 2020  3 12  6 20 18.5870000  0  8                     
G27  16108531.774    84650904.905          35.000  
G16                                        20.000  
G 4  17861828.362    93864551.726          32.000  
G 8  16947009.668    89057194.513          34.000  
G 9  17987823.740    94526671.376          38.000  
G26  18805028.976    98821090.449          29.000  
G23  17873340.222    93925029.047          26.000  
G 7  19896714.708   104557934.980          29.000  
> 2020  3 12  6 20 18.9870000  0  8                     
G27  16108503.994    84650758.780          35.000  
G16                                        20.000  
G 4  17861973.922    93865320.795          32.000  
G 8  16946815.668    89056175.044          35.000  
G 9  17987826.360    94526684.900          38.000  
G26  18805195.036    98821964.879          29.000  
G23  17873449.822    93925607.800          26.000  
G 7  19896442.468   104556510.387          29.000  
> 2020  3 12  6 20 19.3870000  0  8                     
G27  16108475.974    84650612.669          35.000  
G16                                        20.000  
G 4  17862120.602    93866089.864          32.000  
G 8  16946621.748    89055155.643          34.000  
G 9  17987828.940    94526698.471          38.000  
G26  18805359.336    98822839.241          29.000  
G23  17873559.822    93926186.550          26.000  
G 7  19896171.208   104555085.797          29.000  
> 2020  3 12  6 20 19.7870000  0  8                     
G27  16108448.234    84650466.669          35.000  
G16                                        20.000  
G 4  17862266.982    93866858.902          31.000  
G 8  16946427.828    89054136.243          35.000  
G 9  17987831.560    94526712.097          38.000  
G26  18805528.916    98823713.613          29.000  
G23  17873670.142    93926765.321          26.000  
G 7  19895902.228   104553661.117          29.000  
> 2020  3 12  6 20 20.1870000  0  8                     
G27  16108420.494    84650320.752          35.000  
G16                                        20.000  
G 4  17862416.762    93867628.089          32.000  
G 8  16946233.868    89053116.939          34.000  
G 9  17987834.220    94526725.828          38.000  
G26  18805689.496    98824587.980          29.000  
G23  17873780.702    93927344.218          26.000  
G 7  19895634.228   104552236.461          29.000  
> 2020  3 12  6 20 20.5870000  0  8                     
G27  16108392.634    84650174.943          35.000  
G16                                        21.000  
G 4  17862560.702    93868397.303          31.000  
G 8  16946039.988    89052097.704          35.000  
G 9  17987836.740    94526739.633          38.000  
G26  18805854.736    98825462.360          29.000  
G23  17873889.222    93927923.231          26.000  
G 7  19895357.388   104550811.792          29.000  
> 2020  3 12  6 20 20.9870000  0  8                     
G27  16108364.994    84650029.282          35.000  
G16                                        21.000  
G 4  17862707.662    93869166.625          31.000  
G 8  16945846.068    89051078.584          35.000  
G 9  17987839.540    94526753.604          38.000  
G26  18806023.756    98826336.809          29.000  
G23  17873999.642    93928502.202          26.000  
G 7  19895084.208   104549387.186          29.000  
> 2020  3 12  6 20 21.3870000  0  8                     
G27  16108337.274    84649883.628          35.000  
G16                                        21.000  
G 4  17862854.282    93869935.996          32.000  
G 8  16945652.328    89050059.462          35.000  
G 9  17987842.360    94526767.606          38.000  
G26  18806188.836    98827211.175          29.000  
G23  17874110.862    93929081.325          26.000  
G 7  19894814.748   104547962.551          29.000  
> 2020  3 12  6 20 21.7870000  0  8                     
G27  16108309.674    84649738.077          35.000  
G16                                        21.000  
G 4  17863000.022    93870705.420          32.000  
G 8  16945458.348    89049040.406          35.000  
G 9  17987845.140    94526781.647          38.000  
G26  18806357.116    98828085.511          29.000  
G23  17874221.382    93929660.465          26.000  
G 7  19894544.568   104546537.861          29.000  
> 2020  3 12  6 20 22.1870000  0  8                     
G27  16108281.934    84649592.562          35.000  
G16                                        21.000  
G 4  17863145.862    93871474.833          32.000  
G 8  16945264.568    89048021.407          35.000  
G 9  17987847.760    94526795.786          38.000  
G26  18806527.396    98828959.823          29.000  
G23  17874331.802    93930239.688          26.000  
G 7  19894275.368   104545113.090          29.000  
> 2020  3 12  6 20 22.5870000  0  8                     
G27  16108254.234    84649447.168          35.000  
G16                                        21.000  
G 4  17863291.422    93872244.336          32.000  
G 8  16945070.488    89047002.487          35.000  
G 9  17987850.480    94526810.046          38.000  
G26  18806694.196    98829834.203          29.000  
G23  17874441.482    93930818.921          26.000  
G 7  19894005.448   104543688.410          29.000  
> 2020  3 12  6 20 23.3870000  0  8                     
G27  16108198.994    84649157.253          35.000  
G16                                        21.000  
G 4  17863584.382    93873784.098          31.000  
G 8  16944682.748    89044965.441          35.000  
G 9  17987856.140    94526839.363          38.000  
G26  18807025.816    98831583.481          29.000  
G23                                        26.000  
G 7  19893459.948   104540839.490          29.000  
> 2020  3 12  6 20 23.7870000  0  8                     
G27  16108171.534    84649012.600          35.000  
G16                                        21.000  
G 4  17863731.002    93874554.271          31.000  
G 8  16944489.048    89043947.207          35.000  
G 9  17987859.060    94526854.340          38.000  
G26  18807191.056    98832458.271          29.000  
G23                                        26.000  
G 7  19893189.688   104539415.228          29.000  
> 2020  3 12  6 20 24.5870000  0  8                     
G27  16108116.634    84648723.915          35.000  
G16                                        21.000  
G 4  17864024.442    93876095.150          31.000  
G 8  16944101.808    89041911.222          35.000  
G 9  17987864.960    94526884.877          38.000  
G26  18807524.396    98834208.229          29.000  
G23                                        26.000  
G 7  19892648.768   104536567.036          29.000  
> 2020  3 12  6 20 24.9870000  0  8                     
G27  16108088.974    84648579.743          35.000  
G16                                        20.000  
G 4  17864171.102    93876865.730          31.000  
G 8  16943908.228    89040893.364          35.000  
G 9  17987867.840    94526900.353          38.000  
G26  18807690.156    98835083.234          29.000  
G23                                        26.000  
G 7  19892377.868   104535142.971          29.000  
> 2020  3 12  6 20 25.3870000  0  8                     
G27  16108061.674    84648435.671          35.000  
G16                                        20.000  
G 4  17864317.642    93877636.354          31.000  
G 8  16943714.548    89039875.629          35.000  
G 9  17987870.700    94526915.916          38.000  
G26  18807856.536    98835958.287          29.000  
G23                                        27.000  
G 7  19892106.148   104533718.935          29.000  
> 2020  3 12  6 20 25.5870000  0  8                     
G27  16108047.994    84648363.706          35.000  
G16                                        20.000  
G 4  17864390.822    93878021.709          31.000  
G 8  16943617.908    89039366.787          35.000  
G 9  17987872.260    94526923.733          38.000  
G26  18807939.896    98836395.834          29.000  
G23                                        27.000  
G 7  19891970.468   104533006.870          29.000  
> 2020  3 12  6 20 25.7870000  0  8                     
G27  16108034.254    84648291.691          35.000  
G16                                        20.000  
G 4  17864464.162    93878407.005          31.000  
G 8  16943520.968    89038857.908          35.000  
G 9  17987873.720    94526931.516          38.000  
G26  18808023.816    98836833.350          29.000  
G23                                        26.000  
G 7  19891835.548   104532294.797          29.000  
> 2020  3 12  6 20 26.1870000  0  8                     
G27  16108006.894    84648147.758          35.000  
G16                                        20.000  
G 4  17864610.862    93879177.740          31.000  
G 8  16943327.528    89037840.233          35.000  
G 9  17987876.780    94526947.152          38.000  
G26  18808189.916    98837708.306          29.000  
G23                                        27.000  
G 7  19891565.088   104530870.669          29.000  
> 2020  3 12  6 20 26.5870000  0  8                     
G27  16107979.534    84648003.896          35.000  
G16                                        20.000  
G 4  17864757.582    93879948.491          31.000  
G 8  16943133.708    89036822.617          35.000  
G 9  17987879.740    94526962.912          38.000  
G26  18808356.316    98838583.293          29.000  
G23                                        26.000  
G 7  19891294.728   104529446.468          29.000  
> 2020  3 12  6 20 26.7870000  0  8                     
G27  16107965.934    84647932.005          35.000  
G16                                        20.000  
G 4  17864830.882    93880333.859          31.000  
G 8  16943036.768    89036313.808          35.000  
G 9  17987881.300    94526970.784          38.000  
G26  18808439.316    98839020.714          29.000  
G23                                        26.000  
G 7  19891160.308   104528734.366          29.000  
> 2020  3 12  6 20 26.9870000  0  8                     
G27  16107952.254    84647860.108          35.000  
G16                                        20.000  
G 4  17864904.082    93880719.255          31.000  
G 8  16942939.988    89035805.024          35.000  
G 9  17987882.900    94526978.711          38.000  
G26  18808521.636    98839458.220          29.000  
G23                                        26.000  
G 7  19891025.528   104528022.290          29.000  
> 2020  3 12  6 20 27.5870000  0  8                     
G27  16107911.314    84647644.591          35.000  
G16                                        20.000  
G 4  17865124.442    93881875.492          31.000  
G 8  16942649.608    89034278.738          35.000  
G 9  17987887.400    94527002.564          38.000  
G26  18808771.496    98840770.602          29.000  
G23                                        26.000  
G 7  19890619.008   104525885.940          29.000  
> 2020  3 12  6 20 27.7870000  0  8                     
G27  16107897.634    84647572.781          35.000  
G16                                        20.000  
G 4  17865197.742    93882260.954          31.000  
G 8  16942552.728    89033770.053          35.000  
G 9  17987889.100    94527010.601          38.000  
G26  18808853.876    98841208.023          29.000  
G23                                        27.000  
G 7  19890483.608   104525173.880          29.000  
> 2020  3 12  6 20 28.1870000  0  8                     
G27  16107870.394    84647429.419          35.000  
G16                                        20.000  
G 4  17865344.422    93883032.083          31.000  
G 8  16942359.228    89032752.825          35.000  
G 9  17987892.260    94527026.803          38.000  
G26  18809020.396    98842083.131          29.000  
G23                                        27.000  
G 7  19890212.868   104523749.760          29.000  
> 2020  3 12  6 20 28.5870000  0  8                     
G27  16107843.034    84647286.153          35.000  
G16                                        20.000  
G 4  17865491.022    93883803.202          31.000  
G 8  16942165.528    89031735.663          35.000  
G 9  17987895.560    94527043.114          38.000  
G26  18809185.956    98842958.257          29.000  
G23  17876095.882    93939520.2671         27.000  
G 7  19889941.328   104522325.685          29.000  
> 2020  3 12  6 20 29.1870000  0  8                     
G27  16107802.254    84647071.254          35.000  
G16                                        21.000  
G 4  17865711.062    93884959.945          31.000  
G 8  16941874.928    89030209.922          35.000  
G 9  17987900.360    94527067.595          38.000  
G26  18809435.076    98844270.723          29.000  
G23  17876261.482    93940391.7991         27.000  
G 7  19889534.548   104520189.455          29.000  
> 2020  3 12  6 20 29.3870000  0  8                     
G27  16107788.594    84646999.651          35.000  
G16                                        21.000  
G 4  17865784.422    93885345.539          31.000  
G 8  16941778.188    89029701.337          35.000  
G 9  17987902.060    94527075.788          38.000  
G26  18809518.356    98844708.150          29.000  
G23  17876316.262    93940682.3001         27.000  
G 7  19889399.448   104519477.309          28.000  
> 2020  3 12  6 20 29.7870000  0  8                     
G27  16107761.314    84646856.499          35.000  
G16                                        21.000  
G 4  17865930.882    93886116.736          31.000  
G 8  16941584.688    89028684.248          35.000  
G 9  17987905.140    94527092.252          38.000  
G26  18809685.716    98845583.124          29.000  
G23  17876426.962    93941263.381          27.000  
G 7  19889128.308   104518053.065          28.000  
> 2020  3 12  6 20 30.5870000  0  8                     
G27  16107706.974    84646570.622          35.000  
G16                                        21.000  
G 4  17866225.122    93887659.509          31.000  
G 8  16941197.568    89026650.400          35.000  
G 9  17987911.580    94527125.500          38.000  
G26  18810018.096    98847333.142          29.000  
G23  17876648.862    93942425.871          27.000  
G 7  19888585.548   104515204.723          29.000  
> 2020  3 12  6 20 30.7870000  0  8                     
G27  16107693.514    84646499.246          35.000  
G16                                        21.000  
G 4  17866301.962    93888045.276          31.000  
G 8  16941100.788    89026141.983          35.000  
G 9  17987913.280    94527133.906          38.000  
G26  18810100.856    98847770.682          29.000  
G23  17876704.122    93942716.508          27.000  
G 7  19888449.348   104514492.647          29.000  
> 2020  3 12  6 20 30.9870000  0  8                     
G27  16107679.994    84646427.867          35.000  
G16                                        21.000  
G 4  17866373.162    93888431.035          31.000  
G 8  16941004.008    89025633.629          35.000  
G 9  17987914.860    94527142.343          38.000  
G26  18810184.036    98848208.256          29.000  
G23  17876759.802    93943007.275          27.000  
G 7  19888313.108   104513780.572          29.000  
> 2020  3 12  6 20 31.7870000  0  8                     
G27  16107625.894    84646142.855          35.000  
G16                                        21.000  
G 4  17866663.102    93889974.505          31.000  
G 8  16940617.468    89023600.503          35.000  
G 9  17987921.200    94527176.485          38.000  
G26  18810518.096    98849958.579          29.000  
G23  17876980.062    93944170.477          27.000  
G 7  19887770.288   104510932.516          29.000  
> 2020  3 12  6 20 32.5870000  0  8                     
G27  16107571.774    84645858.431          35.000  
G16                                        21.000  
G 4  17866961.242    93891518.448          31.000  
G 8  16940230.768    89021567.863          35.000  
G 9  17987927.760    94527211.184          38.000  
G26  18810851.036    98851709.139          29.000  
G23  17877202.202    93945334.154          27.000  
G 7  19887227.188   104508084.649          29.000  
> 2020  3 12  6 20 32.9870000  0  8                     
G27  16107544.954    84645716.309          35.000  
G16                                        21.000  
G 4  17867105.562    93892290.475          31.000  
G 8  16940037.528    89020551.574          35.000  
G 9  17987931.040    94527228.625          38.000  
G26  18811016.176    98852584.392          29.000  
G23  17877312.662    93945916.071          27.000  
G 7  19886956.708   104506660.661          29.000  
> 2020  3 12  6 20 33.7870000  0  8                     
G27  16107491.114    84645432.271          35.000  
G16                                        21.000  
G 4  17867399.702    93893834.484          31.000  
G 8  16939651.128    89018519.199          35.000  
G 9  17987937.760    94527263.723          38.000  
G26  18811348.496    98854334.778          29.000  
G23  17877533.542    93947079.974          27.000  
G 7  19886416.208   104503812.565          28.000  
> 2020  3 12  6 20 33.9870000  0  8                     
G27  16107477.614    84645361.339          35.000  
G16                                        21.000  
G 4  17867472.962    93894220.629          31.000  
G 8  16939554.488    89018011.148          35.000  
G 9  17987939.480    94527272.547          38.000  
G26  18811432.796    98854772.405          29.000  
G23  17877589.382    93947371.032          27.000  
G 7  19886280.828   104503100.542          28.000  
> 2020  3 12  6 20 34.1870000  0  8                     
G27  16107464.014    84645290.393          35.000  
G16                                        21.000  
G 4  17867546.602    93894606.716          31.000  
G 8  16939457.868    89017503.130          35.000  
G 9  17987941.160    94527281.367          38.000  
G26  18811516.416    98855209.989          29.000  
G23  17877645.502    93947662.090          27.000  
G 7  19886144.888   104502388.516          28.000  
> 2020  3 12  6 20 34.9870000  0  8                     
G27  16107410.094    84645006.989          35.000  
G16                                        21.000  
G 4  17867841.662    93896151.289          31.000  
G 8  16939071.148    89015471.218          35.000  
G 9  17987947.720    94527317.067          38.000  
G26  18811849.996    98856960.496          29.000  
G23  17877866.702    93948826.535          27.000  
G 7  19885601.848   104499540.461          28.000  
> 2020  3 12  6 20 35.3870000  0  8                     
G27  16107383.194    84644865.403          35.000  
G16                                        21.000  
G 4  17867988.822    93896923.667          31.000  
G 8  16938877.908    89014455.341          35.000  
G 9  17987951.100    94527335.058          38.000  
G26  18812017.736    98857835.738          29.000  
G23  17877977.042    93949408.775          27.000  
G 7  19885330.108   104498116.456          28.000  
> 2020  3 12  6 20 35.5870000  0  8                     
G27  16107369.694    84644794.709          35.000  
G16                                        21.000  
G 4  17868061.342    93897309.888          31.000  
G 8  16938781.268    89013947.473          35.000  
G 9  17987952.800    94527344.112          38.000  
G26  18812101.696    98858273.396          29.000  
G23  17878032.342    93949700.101          27.000  
G 7  19885194.088   104497404.462          28.000  
> 2020  3 12  6 20 35.7870000  0  8                     
G27  16107356.274    84644724.040          35.000  
G16                                        21.000  
G 4  17868135.482    93897696.191          31.000  
G 8  16938684.628    89013439.666          35.000  
G 9  17987954.620    94527353.251          38.000  
G26  18812184.836    98858711.035          29.000  
G23  17878087.502    93949991.298          27.000  
G 7  19885059.388   104496692.468          28.000  
> 2020  3 12  6 20 36.5870000  0  8                     
G27  16107302.414    84644441.681          35.000  
G16                                        21.000  
G 4  17868429.022    93899241.600          31.000  
G 8  16938298.308    89011408.666          35.000  
G 9  17987961.320    94527389.965          38.000  
G26  18812516.736    98860461.913          29.000  
G23  17878308.722    93951156.1081         26.000  
G 7  19884516.548   104493844.759          28.000  
> 2020  3 12  6 20 36.7870000  0  8                     
G27  16107288.974    84644371.172          35.000  
G16                                        21.000  
G 4  17868502.562    93899628.005          31.000  
G 8  16938201.708    89010900.938          35.000  
G 9  17987963.040    94527399.217          38.000  
G26  18812599.996    98860899.623          29.000  
G23  17878364.542    93951447.4081         26.000  
G 7  19884381.728   104493132.830          28.000  
> 2020  3 12  6 20 36.9870000  0  8                     
G27  16107275.594    84644300.754          35.000  
G16                                        21.000  
G 4  17868575.742    93900014.481          31.000  
G 8  16938105.068    89010393.301          35.000  
G 9  17987964.760    94527408.536          38.000  
G26  18812683.436    98861337.360          29.000  
G23  17878420.322    93951738.9101         26.000  
G 7  19884245.908   104492420.907          28.000  
> 2020  3 12  6 20 37.3870000  0  8                     
G27  16107248.734    84644159.909          35.000  
G16                                        21.000  
G 4  17868722.342    93900787.395          32.000  
G 8  16937911.928    89009378.073          35.000  
G 9  17987968.120    94527427.265          38.000  
G26  18812850.516    98862212.899          29.000  
G23  17878531.522    93952321.8201         26.000  
G 7  19883974.208   104490997.145          28.000  
> 2020  3 12  6 20 37.5870000  0  8                     
G27  16107235.414    84644089.557          35.000  
G16                                        21.000  
G 4  17868795.962    93901173.984          32.000  
G 8  16937815.348    89008870.515          35.000  
G 9  17987969.920    94527436.669          38.000  
G26  18812935.296    98862650.693          29.000  
G23  17878586.722    93952613.356          27.000  
G 7  19883839.668   104490285.250          28.000  
> 2020  3 12  6 20 37.7870000  0  8                     
G27  16107221.994    84644019.229          35.000  
G16                                        21.000  
G 4  17868869.502    93901560.542          32.000  
G 8  16937718.928    89008362.979          35.000  
G 9  17987971.660    94527446.091          38.000  
G26  18813018.956    98863088.493          29.000  
G23  17878642.162    93952904.974          26.000  
G 7  19883704.508   104489573.419          28.000  
> 2020  3 12  6 20 38.1870000  0  8                     
G27  16107195.214    84643878.602          35.000  
G16                                        21.000  
G 4  17869016.762    93902333.676          31.000  
G 8  16937525.728    89007347.929          35.000  
G 9  17987975.460    94527465.007          38.000  
G26  18813185.356    98863964.047          29.000  
G23  17878752.562    93953487.936          26.000  
G 7  19883434.108   104488149.646          28.000  
> 2020  3 12  6 20 38.5870000  0  8                     
G27  16107168.454    84643738.050          35.000  
G16                                        21.000  
G 4  17869163.842    93903106.854          32.000  
G 8  16937332.528    89006332.864          35.000  
G 9  17987978.980    94527483.975          38.000  
G26  18813352.836    98864839.531          29.000  
G23  17878862.702    93954071.137          26.000  
G 7  19883163.908   104486725.828          29.000  
> 2020  3 12  6 20 38.9870000  0  8                     
G27  16107141.574    84643597.541          35.000  
G16                                        21.000  
G 4  17869311.022    93903879.957          32.000  
G 8  16937139.268    89005317.878          35.000  
G 9  17987982.380    94527502.983          38.000  
G26  18813520.276    98865715.028          29.000  
G23  17878971.942    93954654.251          26.000  
G 7  19882892.448   104485301.997          29.000  
> 2020  3 12  6 20 39.3870000  0  8                     
G27  16107114.834    84643457.121          35.000  
G16                                        21.000  
G 4  17869458.222    93904653.172          31.000  
G 8  16936946.108    89004302.933          35.000  
G 9  17987986.100    94527522.082          38.000  
G26  18813687.756    98866590.533          29.000  
G23  17879082.682    93955237.495          26.000  
G 7  19882622.068   104483878.153          28.000  
> 2020  3 12  6 20 39.7870000  0  8                     
G27  16107088.194    84643316.712          35.000  
G16                                        21.000  
G 4  17869605.462    93905426.419          32.000  
G 8  16936753.228    89003287.994          35.000  
G 9  17987989.660    94527541.210          38.000  
G26  18813853.696    98867465.909          29.000  
G23  17879194.182    93955820.704          26.000  
G 7  19882349.408   104482454.181          29.000  
> 2020  3 12  6 20 40.1870000  0  8                     
G27  16107061.534    84643176.308          35.000  
G16                                        21.000  
G 4  17869752.722    93906199.550          32.000  
G 8  16936560.188    89002273.010          35.000  
G 9  17987993.260    94527560.310          38.000  
G26  18814019.956    98868341.179          29.000  
G23  17879304.022    93956403.858          26.000  
G 7  19882079.288   104481030.129          28.000  
> 2020  3 12  6 20 40.5870000  0  8                     
G27  16107034.754    84643036.041          35.000  
G16                                        21.000  
G 4  17869899.982    93906972.853          32.000  
G 8  16936367.188    89001258.187          35.000  
G 9  17987996.940    94527579.577          38.000  
G26  18814187.656    98869216.550          29.000  
G23  17879415.282    93956987.188          26.000  
G 7  19881807.568   104479606.143          28.000  
> 2020  3 12  6 20 40.9870000  0  8                     
G27  16107008.294    84642895.968          35.000  
G16                                        21.000  
G 4  17870047.322    93907746.283          32.000  
G 8  16936174.068    89000243.484          35.000  
G 9  17988000.680    94527599.010          38.000  
G26  18814354.416    98870092.042          29.000  
G23  17879525.582    93957570.615          26.000  
G 7  19881536.788   104478182.252          28.000  
> 2020  3 12  6 20 41.3870000  0  8                     
G27  16106981.774    84642756.121          35.000  
G16                                        21.000  
G 4  17870194.602    93908519.993          32.000  
G 8  16935980.948    88999229.005          35.000  
G 9  17988004.300    94527618.677          38.000  
G26  18814521.876    98870967.641          29.000  
G23  17879636.782    93958154.281          26.000  
G 7  19881265.928   104476758.468          28.000  
> 2020  3 12  6 20 41.7870000  0  8                     
G27  16106955.154    84642616.421          35.000  
G16                                        21.000  
G 4  17870341.962    93909293.789          32.000  
G 8  16935787.948    88998214.641          35.000  
G 9  17988008.120    94527638.491          38.000  
G26  18814686.256    98871843.251          29.000  
G23  17879747.922    93958738.102          26.000  
G 7  19880994.848   104475334.753          28.000  
> 2020  3 12  6 20 42.5870000  0  8                     
G27  16106902.234    84642337.552          35.000  
G16                                        22.000  
G 4  17870636.702    93910841.731          32.000  
G 8  16935401.928    88996186.405          35.000  
G 9  17988015.680    94527678.601          38.000  
G26  18815022.956    98873594.812          29.000  
G23  17879969.282    93959906.150          26.000  
G 7  19880453.528   104472487.533          29.000  
> 2020  3 12  6 20 42.9870000  0  8                     
G27  16106875.694    84642198.333          35.000  
G16                                        22.000  
G 4  17870784.002    93911615.874          32.000  
G 8  16935209.048    88995172.430          35.000  
G 9  17988019.520    94527698.874          38.000  
G26  18815190.036    98874470.668          29.000  
G23  17880080.702    93960490.263          26.000  
G 7  19880183.468   104471064.002          29.000  
> 2020  3 12  6 20 43.3870000  0  8                     
G27  16106849.394    84642059.216          35.000  
G16                                        22.000  
G 4  17870931.382    93912390.140          32.000  
G 8  16935015.928    88994158.584          35.000  
G 9  17988023.300    94527719.277          38.000  
G26  18815355.036    98875346.512          29.000  
G23  17880193.242    93961074.612          26.000  
G 7  19879912.688   104469640.470          28.000  
> 2020  3 12  6 20 43.7870000  0  8                     
G27  16106822.894    84641920.268          35.000  
G16                                        22.000  
G 4  17871078.762    93913164.490          32.000  
G 8  16934822.988    88993144.880          35.000  
G 9  17988027.160    94527739.824          38.000  
G26  18815522.196    98876222.511          29.000  
G23  17880304.242    93961659.090          26.000  
G 7  19879640.528   104468217.002          29.000  
> 2020  3 12  6 20 44.5870000  0  8                     
G27  16106770.314    84641642.629          35.000  
G16                                        22.000  
G 4  17871373.642    93914713.349          32.000  
G 8  16934437.368    88991117.639          35.000  
G 9  17988035.280    94527781.147          38.000  
G26  18815858.396    98877974.324          29.000  
G23  17880524.822    93962828.065          26.000  
G 7  19879100.628   104465370.023          29.000  
> 2020  3 12  6 20 44.9870000  0  8                     
G27  16106743.914    84641503.888          35.000  
G16                                        22.000  
G 4  17871521.142    93915487.881          32.000  
G 8  16934244.388    88990104.056          35.000  
G 9  17988039.080    94527801.897          38.000  
G26  18816023.796    98878850.239          29.000  
G23  17880636.102    93963412.611          26.000  
G 7  19878829.108   104463946.471          29.000  
> 2020  3 12  6 20 45.3870000  0  8                     
G27  16106717.614    84641365.207          35.000  
G16                                        22.000  
G 4  17871668.602    93916262.413          32.000  
G 8  16934051.528    88989090.536          35.000  
G 9  17988043.080    94527822.717          38.000  
G26  18816185.456    98879726.030          29.000  
G23  17880748.282    93963997.226          25.000  
G 7  19878557.648   104462522.924          29.000  
> 2020  3 12  6 20 45.7870000  0  8                     
G27  16106691.334    84641226.559          35.000  
G16                                        22.000  
G 4  17871816.202    93917036.921          32.000  
G 8  16933858.668    88988076.957          35.000  
G 9  17988047.000    94527843.535          38.000  
G26  18816349.316    98880601.795          29.000  
G23  17880857.502    93964581.833          26.000  
G 7  19878287.328   104461099.227          29.000  
> 2020  3 12  6 20 46.1870000  0  8                     
G27  16106664.914    84641088.004          35.000  
G16                                        22.000  
G 4  17871963.642    93917811.503          32.000  
G 8  16933665.788    88987063.532          35.000  
G 9  17988050.960    94527864.458          38.000  
G26  18816517.636    98881477.657          29.000  
G23  17880968.002    93965166.561          25.000  
G 7  19878016.328   104459675.583          29.000  
> 2020  3 12  6 20 46.9870000  0  8                     
G27  16106612.314    84640811.356          35.000  
G16                                        22.000  
G 4  17872258.682    93919361.036          32.000  
G 8  16933280.128    88985036.975          35.000  
G 9  17988058.920    94527906.772          38.000  
G26  18816850.856    98883229.386          29.000  
G23  17881191.182    93966336.229          25.000  
G 7  19877474.288   104456828.491          29.000  
> 2020  3 12  6 20 47.3870000  0  8                     
G27  16106586.074    84640673.224          35.000  
G16                                        22.000  
G 4  17872406.302    93920135.981          32.000  
G 8  16933087.428    88984023.856          35.000  
G 9  17988062.960    94527928.096          38.000  
G26  18817018.756    98884105.311          29.000  
G23  17881302.522    93966921.280          25.000  
G 7  19877203.048   104455404.934          29.000  
> 2020  3 12  6 20 47.7870000  0  8                     
G27  16106559.994    84640535.290          35.000  
G16                                        22.000  
G 4  17872553.962    93920911.007          32.000  
G 8  16932894.708    88983010.909          35.000  
G 9  17988066.860    94527949.618          38.000  
G26  18817184.316    98884981.360          29.000  
G23  17881414.402    93967506.434          25.000  
G 7  19876933.428   104453981.447          29.000  
> 2020  3 12  6 20 48.5870000  0  8                     
G27  16106507.674    84640259.771          36.000  
G16                                        23.000  
G 4  17872849.502    93922461.473          32.000  
G 8  16932509.108    88980985.313          35.000  
G 9  17988075.360    94527993.041          38.000  
G26  18817518.216    98886733.546          29.000  
G23  17881635.482    93968677.111          25.000  
G 7  19876390.168   104451134.708          29.000  
> 2020  3 12  6 20 48.9870000  0  8                     
G27  16106481.374    84640122.166          35.000  
G16                                        23.000  
G 4  17872997.162    93923236.791          32.000  
G 8  16932316.268    88979972.629          35.000  
G 9  17988079.600    94528014.912          38.000  
G26  18817685.356    98887609.642          29.000  
G23  17881747.362    93969262.491          25.000  
G 7  19876120.028   104449711.303          29.000  
> 2020  3 12  6 20 49.3870000  0  8                     
G27  16106454.994    84639984.691          35.000  
G16                                        23.000  
G 4  17873145.142    93924012.250          32.000  
G 8  16932123.348    88978960.052          35.000  
G 9  17988083.680    94528036.910          38.000  
G26  18817851.376    98888485.769          29.000  
G23                                        25.000  
G 7  19875849.568   104448287.955          29.000  
> 2020  3 12  6 20 49.7870000  0  8                     
G27  16106428.874    84639847.280          35.000  
G16                                        23.000  
G 4  17873292.802    93924787.678          32.000  
G 8  16931930.748    88977947.511          35.000  
G 9  17988087.980    94528058.923          38.000  
G26  18818016.496    98889361.849          29.000  
G23                                        25.000  
G 7  19875578.368   104446864.597          29.000  
> 2020  3 12  6 20 50.5870000  0  8                     
G27  16106376.354    84639572.547          35.000  
G16                                        22.000  
G 4  17873587.922    93926338.575          32.000  
G 8  16931545.188    88975922.473          35.000  
G 9  17988096.220    94528103.123          38.000  
G26  18818352.436    98891113.897          29.000  
G23                                        25.000  
G 7  19875038.488   104444017.556          28.000  
> 2020  3 12  6 20 50.9870000  0  8                     
G27  16106350.374    84639435.246          35.000  
G16                                        22.000  
G 4  17873735.582    93927114.074          32.000  
G 8  16931352.328    88974909.991          35.000  
G 9  17988100.260    94528125.244          38.000  
G26  18818519.556    98891989.830          29.000  
G23                                        25.000  
G 7  19874766.688   104442593.980          28.000  
> 2020  3 12  6 20 51.3870000  0  8                     
G27  16106324.114    84639297.869          35.000  
G16                                        22.000  
G 4  17873883.182    93927889.428          32.000  
G 8  16931159.488    88973897.390          34.000  
G 9  17988104.500    94528147.313          38.000  
G26  18818685.836    98892865.623          29.000  
G23                                        25.000  
G 7  19874495.048   104441170.230          29.000  
> 2020  3 12  6 20 52.1870000  0  8                     
G27  16106271.954    84639023.264          35.000  
G16                                        22.000  
G 4  17874178.442    93929440.226          32.000  
G 8  16930774.028    88971872.270          34.000  
G 9  17988112.980    94528191.576          38.000  
G26  18819018.796    98894617.016          29.000  
G23                                        25.000  
G 7  19873951.748   104438322.569          28.000  
> 2020  3 12  6 20 52.9870000  0  8                     
G27  16106219.794    84638749.054          36.000  
G16                                        22.000  
G 4  17874473.742    93930991.289          32.000  
G 8  16930388.508    88969847.486          34.000  
G 9  17988121.380    94528236.291          38.000  
G26  18819351.256    98896368.491          29.000  
G23                                        25.000  
G 7  19873410.008   104435474.973          29.000  
> 2020  3 12  6 20 53.7870000  0  8                     
G27  16106167.754    84638475.424          36.000  
G16                                        22.000  
G 4  17874769.262    93932542.862          32.000  
G 8  16930003.288    88967823.189          34.000  
G 9  17988129.880    94528281.479          38.000  
G26  18819685.796    98898120.146          29.000  
G23                                        25.000  
G 7  19872866.748   104432627.526          28.000  
> 2020  3 12  6 20 54.9870000  0  8                     
G27  16106089.814    84638066.359          36.000  
G16                                        23.000  
G 4  17875212.482    93934871.316          32.000  
G 8  16929425.368    88964787.933          34.000  
G 9  17988143.080    94528350.706          38.000  
G26  18820182.876    98900748.392          29.000  
G23                                        25.000  
G 7  19872054.388   104428356.996          29.000  
> 2020  3 12  6 20 55.3870000  0  8                     
G27  16106064.094    84637930.558          36.000  
G16                                        23.000  
G 4  17875360.342    93935647.986          32.000  
G 8  16929232.908    88963776.691          34.000  
G 9  17988147.640    94528374.354          38.000  
G26  18820349.736    98901624.793          29.000  
G23                                        25.000  
G 7  19871782.568   104426933.885          29.000  
> 2020  3 12  6 20 55.7870000  0  8                     
G27  16106038.314    84637794.886          36.000  
G16                                        23.000  
G 4  17875508.142    93936424.730          32.000  
G 8  16929040.628    88962765.559          34.000  
G 9  17988152.160    94528398.094          38.000  
G26  18820516.896    98902501.280          29.000  
G23                                        25.000  
G 7  19871512.468   104425510.734          28.000  
> 2020  3 12  6 20 56.5870000  0  8                     
G27  16105986.894    84637523.671          36.000  
G16                                        23.000  
G 4  17875803.962    93937978.224          32.000  
G 8  16928655.468    88960743.306          34.000  
G 9  17988161.060    94528445.662          38.000  
G26  18820854.436    98904254.034          29.000  
G23                                        25.000  
G 7  19870971.748   104422664.344          28.000  
> 2020  3 12  6 20 56.9870000  0  8                     
G27  16105961.234    84637387.931          36.000  
G16                                        24.000  
G 4  17875951.722    93938754.800          32.000  
G 8  16928463.008    88959732.011          34.000  
G 9  17988165.540    94528469.341          38.000  
G26  18821019.736    98905130.206          29.000  
G23                                        25.000  
G 7  19870700.808   104421240.821          28.000  
> 2020  3 12  6 20 57.3870000  0  8                     
G27  16105935.434    84637252.170          35.000  
G16                                        24.000  
G 4  17876099.522    93939531.360          33.000  
G 8  16928270.428    88958720.721          34.000  
G 9  17988169.960    94528493.005          38.000  
G26  18821187.356    98906006.189          29.000  
G23                                        25.000  
G 7  19870429.848   104419817.253          28.000  
> 2020  3 12  6 20 57.7870000  0  8                     
G27  16105909.434    84637116.372          36.000  
G16                                        24.000  
G 4  17876247.322    93940307.844          33.000  
G 8  16928078.028    88957709.358          34.000  
G 9  17988174.440    94528516.653          38.000  
G26  18821351.676    98906882.124          29.000  
G23                                        25.000  
G 7  19870158.328   104418393.538          28.000  
> 2020  3 12  6 20 58.1870000  0  8                     
G27  16105883.554    84636980.669          35.000  
G16                                        24.000  
G 4  17876395.142    93941084.357          33.000  
G 8  16927885.488    88956698.034          34.000  
G 9  17988179.100    94528540.342          38.000  
G26  18821520.296    98907758.018          29.000  
G23                                        25.000  
G 7  19869888.188   104416969.788          28.000  
> 2020  3 12  6 20 58.9870000  0  8                     
G27  16105832.034    84636709.567          35.000  
G16                                        24.000  
G 4  17876690.922    93942637.662          33.000  
G 8  16927500.488    88954675.639          34.000  
G 9  17988188.120    94528588.026          38.000  
G26  18821853.356    98909509.826          29.000  
G23                                        25.000  
G 7  19869345.928   104414122.350          28.000  
> 2020  3 12  6 20 59.3870000  0  8                     
G27  16105806.154    84636574.228          35.000  
G16                                        24.000  
G 4  17876838.682    93943414.440          33.000  
G 8  16927308.068    88953664.634          34.000  
G 9  17988192.640    94528612.089          38.000  
G26  18822022.996    98910385.841          29.000  
G23                                        25.000  
G 7  19869073.608   104412698.721          28.000  
> 2020  3 12  6 20 59.7870000  0  8                     
G27  16105780.414    84636439.001          35.000  
G16                                        24.000  
G 4  17876986.482    93944191.350          32.000  
G 8  16927115.748    88952653.701          34.000  
G 9  17988197.200    94528636.276          38.000  
G26  18822190.056    98911261.858          29.000  
G23                                        25.000  
G 7  19868803.608   104411275.046          28.000  
> 2020  3 12  6 21  0.5870000  0  8                     
G27  16105728.774    84636168.771          36.000  
G16                                        24.000  
G 4  17877282.382    93945745.256          33.000  
G 8  16926731.128    88950631.987          34.000  
G 9  17988206.620    94528684.787          38.000  
G26  18822522.056    98913013.721          30.000  
G23                                        25.000  
G 7  19868262.508   104408427.665          28.000  
> 2020  3 12  6 21  0.9870000  0  8                     
G27  16105703.094    84636033.711          35.000  
G16                                        24.000  
G 4  17877430.182    93946522.242          32.000  
G 8  16926538.948    88949621.149          34.000  
G 9  17988211.200    94528709.126          38.000  
G26  18822687.916    98913889.667          30.000  
G23                                        25.000  
G 7  19867990.688   104407003.929          28.000  
> 2020  3 12  6 21  1.3870000  0  8                     
G27  16105677.494    84635898.843          35.000  
G16                                        24.000  
G 4  17877577.842    93947299.359          32.000  
G 8  16926346.368    88948610.482          34.000  
G 9  17988215.720    94528733.636          38.000  
G26  18822854.996    98914765.637          30.000  
G23                                        25.000  
G 7  19867719.288   104405580.227          28.000  
> 2020  3 12  6 21  1.7870000  0  8                     
G27  16105651.594    84635764.123          35.000  
G16                                        24.000  
G 4  17877725.822    93948076.573          33.000  
G 8  16926154.188    88947599.950          34.000  
G 9  17988220.540    94528758.282          38.000  
G26  18823019.376    98915641.704          30.000  
G23                                        25.000  
G 7  19867449.428   104404156.609          28.000  
> 2020  3 12  6 21  2.1870000  0  8                     
G27  16105626.174    84635629.573          35.000  
G16                                        24.000  
G 4  17877873.682    93948854.024          33.000  
G 8  16925961.828    88946589.590          34.000  
G 9  17988225.260    94528783.159          38.000  
G26  18823188.456    98916517.857          30.000  
G23                                        25.000  
G 7  19867178.428   104402733.064          28.000  
> 2020  3 12  6 21  2.5870000  0  8                     
G27  16105600.494    84635495.265          35.000  
G16                                        24.000  
G 4  17878021.542    93949631.565          33.000  
G 8  16925769.528    88945579.415          34.000  
G 9  17988230.000    94528808.226          38.000  
G26  18823351.616    98917394.150          30.000  
G23                                        25.000  
G 7  19866907.668   104401309.633          29.000  
> 2020  3 12  6 21  2.9870000  0  8                     
G27  16105574.854    84635361.088          35.000  
G16                                        24.000  
G 4  17878169.602    93950409.336          33.000  
G 8  16925577.388    88944569.371          34.000  
G 9  17988234.820    94528833.408          38.000  
G26  18823520.736    98918270.491          30.000  
G23                                        25.000  
G 7  19866637.728   104399886.272          28.000  
> 2020  3 12  6 21  3.3870000  0  8                     
G27  16105549.374    84635227.084          35.000  
G16                                        24.000  
G 4  17878317.502    93951187.126          32.000  
G 8  16925385.308    88943559.450          34.000  
G 9  17988239.540    94528858.761          38.000  
G26  18823691.236    98919146.915          30.000  
G23                                        25.000  
G 7  19866369.008   104398463.004          29.000  
> 2020  3 12  6 21  3.7870000  0  8                     
G27  16105523.814    84635093.225          35.000  
G16                                        25.000  
G 4  17878465.562    93951965.079          33.000  
G 8  16925193.228    88942549.684          34.000  
G 9  17988244.420    94528884.271          38.000  
G26  18823855.116    98920023.358          30.000  
G23                                        25.000  
G 7  19866096.348   104397039.714          29.000  
> 2020  3 12  6 21  4.1870000  0  8                     
G27  16105498.314    84634959.498          36.000  
G16                                        25.000  
G 4  17878613.642    93952743.142          32.000  
G 8  16925001.048    88941539.990          34.000  
G 9  17988249.280    94528909.897          38.000  
G26  18824021.336    98920899.816          30.000  
G23                                        25.000  
G 7  19865825.748   104395616.509          29.000  
> 2020  3 12  6 21  5.5870000  0  8                     
G27  16105409.514    84634491.989          35.000  
G16                                        25.000  
G 4  17879132.142    93955466.601          32.000  
G 8  16924328.828    88938006.399          34.000  
G 9  17988266.840    94529000.176          38.000  
G26  18824606.936    98923967.417          30.000  
G23                                        25.000  
G 7  19864879.248   104390635.032          28.000  
> 2020  3 12  6 21 10.1870000  0  8                     
G27  16105119.734    84632969.240          35.000  
G16                                        24.000  
G 4  17880837.002    93964426.045          32.000  
G 8  16922121.148    88926407.634          33.000  
G 9  17988326.220    94529309.821          38.000  
G26  18826528.556    98934051.995          30.000  
G23                                        25.000  
G 7  19861759.488   104374272.134          28.000  
> 2020  3 12  6 21 11.3870000  0  8                     
G27  16105044.554    84632574.250          35.000  
G16                                        24.000  
G 4  17881282.302    93966764.851          32.000  
G 8  16921545.788    88923383.608          33.000  
G 9  17988342.100    94529392.798          38.000  
G26  18827027.216    98936683.005          30.000  
G23                                        25.000  
G 7  19860947.848   104370003.687          28.000  
> 2020  3 12  6 21 12.3870000  0  8                     
G27  16104981.954    84632245.918          35.000  
G16                                        24.000  
G 4  17881653.382    93968714.454          32.000  
G 8  16921066.348    88920864.250          34.000  
G 9  17988355.440    94529462.743          38.000  
G26  18827442.996    98938875.742          30.000  
G23                                        25.000  
G 7  19860272.288   104366446.769          28.000  
> 2020  3 12  6 21 12.5870000  0  8                     
G27  16104969.474    84632180.378          35.000  
G16                                        24.000  
G 4  17881727.462    93969104.522          32.000  
G 8  16920970.288    88920360.502          34.000  
G 9  17988358.120    94529476.866          38.000  
G26  18827527.956    98939314.348          30.000  
G23                                        25.000  
G 7  19860137.308   104365735.526          28.000  
> 2020  3 12  6 21 12.9870000  0  8                     
G27  16104944.514    84632049.275          35.000  
G16                                        24.000  
G 4  17881875.682    93969884.519          32.000  
G 8  16920778.508    88919352.933          34.000  
G 9  17988363.600    94529505.067          38.000  
G26  18827693.056    98940191.506          29.000  
G23                                        25.000  
G 7  19859866.968   104364312.754          28.000  
> 2020  3 12  6 21 13.3870000  0  8                     
G27  16104919.554    84631918.385          35.000  
G16                                        24.000  
G 4  17882024.122    93970664.687          32.000  
G 8  16920586.828    88918345.595          34.000  
G 9  17988368.860    94529533.497          38.000  
G26  18827863.956    98941068.726          29.000  
G23                                        25.000  
G 7  19859596.828   104362890.134          28.000  
> 2020  3 12  6 21 14.1870000  0  8                     
G27  16104869.754    84631657.315          35.000  
G16                                        24.000  
G 4  17882320.802    93972225.760          32.000  
G 8  16920203.488    88916331.490          34.000  
G 9  17988379.760    94529591.034          38.000  
G26  18828193.916    98942823.566          29.000  
G23                                        25.000  
G 7  19859056.208   104360045.310          28.000  
> 2020  3 12  6 21 14.5870000  0  8                     
G27  16104845.074    84631527.072          35.000  
G16                                        24.000  
G 4  17882469.322    93973006.428          32.000  
G 8  16920011.868    88915324.680          34.000  
G 9  17988385.280    94529620.044          38.000  
G26  18828360.456    98943701.147          30.000  
G23                                        24.000  
G 7  19858786.188   104358623.011          29.000  
> 2020  3 12  6 21 14.9870000  0  8                     
G27  16104820.334    84631396.870          35.000  
G16                                        24.000  
G 4  17882618.002    93973787.268          32.000  
G 8  16919820.228    88914317.926          34.000  
G 9  17988390.840    94529649.152          38.000  
G26  18828529.236    98944578.727          30.000  
G23                                        24.000  
G 7  19858514.528   104357200.723          28.000  
> 2020  3 12  6 21 15.3870000  0  8                     
G27  16104795.634    84631266.863          35.000  
G16                                        24.000  
G 4  17882766.622    93974568.172          32.000  
G 8  16919628.628    88913311.290          34.000  
G 9  17988396.340    94529678.444          38.000  
G26  18828694.736    98945456.350          30.000  
G23                                        25.000  
G 7  19858242.488   104355778.463          28.000  
> 2020  3 12  6 21 15.7870000  0  8                     
G27  16104770.794    84631137.011          35.000  
G16                                        24.000  
G 4  17882915.142    93975349.243          32.000  
G 8  16919437.128    88912304.827          34.000  
G 9  17988402.020    94529707.869          38.000  
G26  18828862.436    98946334.132          30.000  
G23                                        24.000  
G 7  19857971.888   104354356.267          28.000  
> 2020  3 12  6 21 16.5870000  0  8                     
G27  16104721.474    84630877.691          35.000  
G16                                        23.000  
G 4  17883212.282    93976911.602          32.000  
G 8  16919054.508    88910292.206          34.000  
G 9  17988413.160    94529767.143          38.000  
G26  18829193.936    98948089.703          30.000  
G23                                        25.000  
G 7  19857431.528   104351512.052          29.000  
> 2020  3 12  6 21 16.9870000  0  8                     
G27  16104696.894    84630748.225          35.000  
G16                                        23.000  
G 4  17883361.062    93977693.000          32.000  
G 8  16918862.928    88909286.053          33.000  
G 9  17988418.760    94529796.966          38.000  
G26  18829362.176    98948967.531          30.000  
G23                                        25.000  
G 7  19857160.628   104350089.992          29.000  
> 2020  3 12  6 21 17.3870000  0  8                     
G27  16104672.394    84630618.868          35.000  
G16                                        23.000  
G 4  17883509.622    93978474.363          32.000  
G 8  16918671.608    88908280.014          34.000  
G 9  17988424.580    94529826.880          38.000  
G26  18829530.756    98949845.332          30.000  
G23                                        25.000  
G 7  19856888.428   104348667.867          29.000  
> 2020  3 12  6 21 18.7870000  0  8                     
G27  16104586.774    84630167.139          35.000  
G16                                        23.000  
G 4  17884030.362    93981210.192          33.000  
G 8  16918001.628    88904759.600          34.000  
G 9  17988445.060    94529932.635          38.000  
G26  18830115.776    98952918.174          30.000  
G23                                        25.000  
G 7  19855941.248   104343690.946          29.000  
> 2020  3 12  6 21 18.9870000  0  8                     
G27  16104574.474    84630102.763          35.000  
G16                                        23.000  
G 4  17884104.762    93981601.156          33.000  
G 8  16917905.988    88904256.840          34.000  
G 9  17988448.000    94529947.890          38.000  
G26  18830197.836    98953357.204          30.000  
G23                                        25.000  
G 7  19855806.108   104342980.021          29.000  
> 2020  3 12  6 21 19.1870000  0  8                     
G27  16104562.234    84630038.425          35.000  
G16                                        23.000  
G 4  17884179.222    93981992.152          33.000  
G 8  16917810.288    88903754.080          34.000  
G 9  17988450.900    94529963.175          38.000  
G26  18830283.316    98953796.215          30.000  
G23                                        25.000  
G 7  19855671.288   104342269.094          29.000  
> 2020  3 12  6 21 19.3870000  0  8                     
G27  16104550.034    84629974.153          35.000  
G16                                        23.000  
G 4  17884253.742    93982383.142          33.000  
G 8  16917714.568    88903251.370          34.000  
G 9  17988453.780    94529978.504          38.000  
G26  18830365.136    98954235.294          30.000  
G23                                        25.000  
G 7  19855536.348   104341558.224          29.000  
> 2020  3 12  6 21 19.9870000  0  8                     
G27  16104513.374    84629781.420          35.000  
G16                                        23.000  
G 4  17884477.222    93983556.321          33.000  
G 8  16917427.648    88901743.364          34.000  
G 9  17988462.700    94530024.711          38.000  
G26  18830619.316    98955552.526          30.000  
G23                                        25.000  
G 7  19855130.548   104339425.473          28.000  
> 2020  3 12  6 21 20.1870000  0  8                     
G27  16104501.174    84629717.232          35.000  
G16                                        23.000  
G 4  17884551.602    93983947.432          33.000  
G 8  16917332.068    88901240.736          34.000  
G 9  17988465.720    94530040.174          38.000  
G26  18830701.496    98955991.634          30.000  
G23                                        25.000  
G 7  19854995.288   104338714.633          28.000  
> 2020  3 12  6 21 20.5870000  0  8                     
G27  16104476.654    84629588.952          35.000  
G16                                        23.000  
G 4  17884700.422    93984729.697          33.000  
G 8  16917140.628    88900235.569          34.000  
G 9  17988471.340    94530071.134          38.000  
G26  18830867.416    98956869.869          30.000  
G23                                        25.000  
G 7  19854724.148   104337292.820          28.000  
> 2020  3 12  6 21 20.9870000  0  8                     
G27  16104452.314    84629460.834          35.000  
G16                                        23.000  
G 4  17884849.602    93985512.082          32.000  
G 8  16916949.268    88899230.530          33.000  
G 9  17988477.320    94530102.236          38.000  
G26  18831035.776    98957748.051          30.000  
G23                                        25.000  
G 7  19854454.508   104335871.099          29.000  
> 2020  3 12  6 21 21.3870000  0  8                     
G27  16104428.074    84629332.750          35.000  
G16                                        22.000  
G 4  17884998.422    93986294.476          33.000  
G 8  16916757.888    88898225.494          33.000  
G 9  17988483.060    94530133.430          38.000  
G26  18831202.776    98958626.328          30.000  
G23                                        25.000  
G 7  19854183.228   104334449.365          28.000  
> 2020  3 12  6 21 21.7870000  0  8                     
G27  16104403.794    84629204.795          35.000  
G16                                        22.000  
G 4  17885147.362    93987076.961          33.000  
G 8  16916566.568    88897220.618          33.000  
G 9  17988488.940    94530164.742          38.000  
G26  18831365.996    98959504.594          30.000  
G23                                        25.000  
G 7  19853912.068   104333027.649          28.000  
> 2020  3 12  6 21 22.1870000  0  8                     
G27  16104379.494    84629077.027          35.000  
G16                                        23.000  
G 4  17885296.202    93987859.567          33.000  
G 8  16916375.448    88896215.842          34.000  
G 9  17988494.820    94530196.167          38.000  
G26  18831535.156    98960382.918          30.000  
G23                                        25.000  
G 7  19853640.768   104331605.957          28.000  
> 2020  3 12  6 21 22.5870000  0  8                     
G27  16104355.274    84628949.301          35.000  
G16                                        23.000  
G 4  17885445.202    93988642.292          33.000  
G 8  16916184.288    88895211.103          33.000  
G 9  17988500.960    94530227.739          38.000  
G26  18831698.376    98961261.200          30.000  
G23                                        25.000  
G 7  19853369.128   104330184.286          28.000  
> 2020  3 12  6 21 22.9870000  0  8                     
G27  16104331.034    84628821.861          35.000  
G16                                        22.000  
G 4  17885594.342    93989425.216          33.000  
G 8  16915993.088    88894206.637          33.000  
G 9  17988506.960    94530259.532          38.000  
G26  18831866.536    98962139.705          30.000  
G23                                        25.000  
G 7  19853098.228   104328762.778          28.000  
> 2020  3 12  6 21 23.3870000  0  8                     
G27  16104306.754    84628694.510          35.000  
G16                                        22.000  
G 4  17885743.502    93990208.192          33.000  
G 8  16915801.848    88893202.250          33.000  
G 9  17988512.940    94530291.425          38.000  
G26  18832037.176    98963018.174          30.000  
G23                                        25.000  
G 7  19852827.928   104327341.285          28.000  
> 2020  3 12  6 21 24.5870000  0  8                     
G27  16104234.314    84628313.336          35.000  
G16                                        22.000  
G 4  17886190.862    93992557.842          33.000  
G 8  16915228.728    88890189.793          33.000  
G 9  17988531.200    94530388.002          38.000  
G26  18832541.856    98965653.973          30.000  
G23                                        25.000  
G 7  19852016.748   104323077.034          28.000  
> 2020  3 12  6 21 24.9870000  0  8                     
G27  16104210.194    84628186.540          35.000  
G16                                        23.000  
G 4  17886340.082    93993341.276          33.000  
G 8  16915037.528    88889185.845          33.000  
G 9  17988537.440    94530420.431          37.000  
G26  18832708.836    98966532.657          30.000  
G23                                        26.000  
G 7  19851746.408   104321655.668          28.000  
> 2020  3 12  6 21 26.1870000  0  8                     
G27  16104137.834    84627806.788          35.000  
G16                                        23.000  
G 4  17886787.642    93995691.945          33.000  
G 8  16914464.388    88886174.518          33.000  
G 9  17988555.740    94530518.351          38.000  
G26  18833211.916    98969168.807          30.000  
G23                                        25.000  
G 7  19850934.808   104317391.627          28.000  
> 2020  3 12  6 21 26.5870000  0  8                     
G27  16104113.694    84627680.546          35.000  
G16                                        23.000  
G 4  17886936.662    93996475.752          33.000  
G 8  16914273.608    88885171.027          33.000  
G 9  17988561.880    94530551.302          38.000  
G26  18833378.736    98970047.604          30.000  
G23                                        25.000  
G 7  19850666.128   104315970.427          28.000  
> 2020  3 12  6 21 26.9870000  0  8                     
G27  16104089.714    84627554.346          35.000  
G16                                        23.000  
G 4  17887085.702    93997259.638          33.000  
G 8  16914082.708    88884167.588          33.000  
G 9  17988568.340    94530584.354          38.000  
G26  18833541.916    98970926.482          30.000  
G23                                        25.000  
G 7  19850395.228   104314549.252          28.000  
> 2020  3 12  6 21 27.3870000  0  8                     
G27  16104065.634    84627428.231          35.000  
G16                                        23.000  
G 4  17887234.922    93998043.576          33.000  
G 8  16913891.968    88883164.179          33.000  
G 9  17988574.640    94530617.455          38.000  
G26  18833708.516    98971805.263          30.000  
G23                                        25.000  
G 7  19850124.328   104313127.970          28.000  
> 2020  3 12  6 21 27.7870000  0  8                     
G27  16104041.574    84627302.131          35.000  
G16                                        23.000  
G 4  17887384.122    93998827.441          33.000  
G 8  16913700.828    88882160.798          33.000  
G 9  17988580.900    94530650.554          37.000  
G26  18833878.736    98972683.989          30.000  
G23                                        25.000  
G 7  19849853.388   104311706.656          28.000  
> 2020  3 12  6 21 28.1870000  0  8                     
G27  16104017.674    84627176.110          35.000  
G16                                        23.000  
G 4  17887533.362    93999611.416          33.000  
G 8  16913509.928    88881157.433          33.000  
G 9  17988587.100    94530683.727          37.000  
G26  18834046.956    98973562.736          30.000  
G23                                        25.000  
G 7  19849582.808   104310285.309          28.000  
> 2020  3 12  6 21 28.5870000  0  8                     
G27  16103993.654    84627050.162          35.000  
G16                                        23.000  
G 4  17887682.562    94000395.378          33.000  
G 8  16913319.028    88880154.152          33.000  
G 9  17988593.320    94530717.002          37.000  
G26  18834213.056    98974441.425          30.000  
G23                                        25.000  
G 7  19849313.068   104308863.969          28.000  
> 2020  3 12  6 21 28.9870000  0  8                     
G27  16103969.554    84626924.286          35.000  
G16                                        23.000  
G 4  17887831.762    94001179.395          32.000  
G 8  16913128.088    88879150.882          34.000  
G 9  17988599.700    94530750.324          37.000  
G26  18834380.416    98975320.057          30.000  
G23                                        25.000  
G 7  19849042.588   104307442.518          28.000  
> 2020  3 12  6 21 29.3870000  0  8                     
G27  16103945.694    84626798.470          35.000  
G16                                        22.000  
G 4  17887980.722    94001963.504          33.000  
G 8  16912937.288    88878147.693          33.000  
G 9  17988606.020    94530783.743          37.000  
G26  18834547.216    98976198.801          30.000  
G23                                        25.000  
G 7  19848771.688   104306021.094          28.000  
> 2020  3 12  6 21 29.7870000  0  8                     
G27  16103921.574    84626672.738          35.000  
G16                                        22.000  
G 4  17888129.882    94002747.585          33.000  
G 8  16912746.328    88877144.538          34.000  
G 9  17988612.320    94530817.202          37.000  
G26  18834712.876    98977077.398          30.000  
G23                                        25.000  
G 7  19848499.908   104304599.649          29.000  
> 2020  3 12  6 21 30.9870000  0  8                     
G27  16103850.114    84626296.498          35.000  
G16                                        23.000  
G 4  17888577.942    94005100.697          33.000  
G 8  16912174.028    88874135.941          33.000  
G 9  17988631.460    94530918.572          37.000  
G26  18835214.916    98979713.789          30.000  
G23                                        25.000  
G 7  19847687.708   104300335.658          29.000  
> 2020  3 12  6 21 32.1870000  0  8                     
G27  16103778.994    84625922.390          35.000  
G16                                        24.000  
G 4  17889026.022    94007455.629          33.000  
G 8  16911601.748    88871129.251          34.000  
G 9  17988651.180    94531022.012          37.000  
G26  18835718.376    98982351.370          30.000  
G23                                        25.000  
G 7  19846874.868   104296072.892          29.000  
> 2020  3 12  6 21 32.5870000  0  8                     
G27  16103755.294    84625798.127          35.000  
G16                                        24.000  
G 4  17889175.362    94008241.036          33.000  
G 8  16911411.088    88870127.442          34.000  
G 9  17988657.740    94531056.926          37.000  
G26  18835882.296    98983230.816          30.000  
G23                                        25.000  
G 7  19846605.268   104294652.224          28.000  
> 2020  3 12  6 21 32.7870000  0  8                     
G27  16103743.454    84625736.038          35.000  
G16                                        24.000  
G 4  17889249.942    94008633.721          32.000  
G 8  16911315.808    88869626.545          34.000  
G 9  17988661.100    94531074.446          37.000  
G26  18835966.876    98983670.605          30.000  
G23                                        25.000  
G 7  19846470.608   104293941.906          28.000  
> 2020  3 12  6 21 33.3870000  0  8                     
G27  16103707.854    84625549.889          35.000  
G16                                        24.000  
G 4  17889474.322    94009811.916          33.000  
G 8  16911029.788    88868123.939          33.000  
G 9  17988671.060    94531127.055          37.000  
G26  18836216.976    98984989.819          30.000  
G23                                        25.000  
G 7  19846064.608   104291810.874          29.000  
> 2020  3 12  6 21 33.7870000  0  8                     
G27  16103684.274    84625425.750          35.000  
G16                                        24.000  
G 4  17889623.782    94010597.317          33.000  
G 8  16910839.228    88867122.184          33.000  
G 9  17988677.760    94531162.098          37.000  
G26  18836387.516    98985869.162          30.000  
G23                                        25.000  
G 7  19845793.748   104290390.109          29.000  
> 2020  3 12  6 21 33.9870000  0  8                     
G27  16103672.554    84625363.688          35.000  
G16                                        24.000  
G 4  17889698.462    94010990.047          33.000  
G 8  16910743.828    88866621.311          34.000  
G 9  17988681.060    94531179.597          37.000  
G26  18836472.376    98986308.764          30.000  
G23                                        25.000  
G 7  19845659.348   104289679.587          29.000  
> 2020  3 12  6 21 34.3870000  0  8                     
G27  16103648.834    84625239.435          35.000  
G16                                        25.000  
G 4  17889847.722    94011775.276          33.000  
G 8  16910553.148    88865619.363          33.000  
G 9  17988687.740    94531214.538          37.000  
G26  18836638.316    98987187.840          31.000  
G23                                        25.000  
G 7  19845389.488   104288258.528          29.000  
> 2020  3 12  6 21 34.9870000  0  8                     
G27  16103613.634    84625053.131          35.000  
G16                                        25.000  
G 4  17890071.942    94012953.131          32.000  
G 8  16910266.848    88864116.535          33.000  
G 9  17988697.700    94531266.996          37.000  
G26  18836888.896    98988506.354          31.000  
G23                                        25.000  
G 7  19844984.408   104286126.770          29.000  
> 2020  3 12  6 21 35.1870000  0  8                     
G27  16103601.834    84624991.092          35.000  
G16                                        25.000  
G 4  17890146.702    94013345.782          32.000  
G 8  16910171.388    88863615.589          33.000  
G 9  17988701.080    94531284.530          37.000  
G26  18836974.116    98988945.870          31.000  
G23                                        24.000  
G 7  19844849.448   104285416.226          29.000  
> 2020  3 12  6 21 35.3870000  0  8                     
G27  16103590.054    84624929.059          35.000  
G16                                        25.000  
G 4  17890221.362    94013738.486          32.000  
G 8  16910076.028    88863114.729          34.000  
G 9  17988704.360    94531302.074          37.000  
G26  18837058.656    98989385.383          30.000  
G23                                        24.000  
G 7  19844714.808   104284705.617          29.000  
> 2020  3 12  6 21 35.5870000  0  8                     
G27  16103578.354    84624867.050          35.000  
G16                                        25.000  
G 4  17890296.182    94014131.184          32.000  
G 8  16909980.708    88862613.850          34.000  
G 9  17988707.660    94531319.660          37.000  
G26  18837142.476    98989824.940          30.000  
G23                                        24.000  
G 7  19844579.168   104283995.065          29.000  
> 2020  3 12  6 21 35.7870000  0  8                     
G27  16103566.474    84624805.080          35.000  
G16                                        25.000  
G 4  17890371.082    94014523.932          32.000  
G 8  16909885.428    88862113.006          33.000  
G 9  17988711.020    94531337.274          37.000  
G26  18837227.036    98990264.421          31.000  
G23                                        24.000  
G 7  19844443.548   104283284.469          29.000  
> 2020  3 12  6 21 36.7870000  0  8                     
G27  16103507.574    84624495.803          35.000  
G16                                        25.000  
G 4  17890744.622    94016487.936          33.000  
G 8  16909408.928    88859609.213          34.000  
G 9  17988727.700    94531425.901          37.000  
G26  18837644.296    98992462.253          31.000  
G23                                        25.000  
G 7  19843766.608   104279731.802          29.000  
> 2020  3 12  6 21 37.5870000  0  8                     
G27  16103460.614    84624249.223          36.000  
G16                                        25.000  
G 4  17891043.762    94018059.912          33.000  
G 8  16909027.868    88857606.934          33.000  
G 9  17988741.240    94531497.629          37.000  
G26  18837977.836    98994220.930          31.000  
G23                                        25.000  
G 7  19843226.808   104276890.173          29.000  
> 2020  3 12  6 21 37.9870000  0  8                     
G27  16103437.334    84624126.400          36.000  
G16                                        25.000  
G 4  17891193.422    94018846.315          33.000  
G 8  16908837.608    88856606.217          33.000  
G 9  17988748.120    94531533.989          37.000  
G26  18838145.596    98995100.662          30.000  
G23                                        25.000  
G 7  19842956.748   104275469.553          29.000  
> 2020  3 12  6 21 38.7870000  0  8                     
G27  16103390.934    84623882.177          36.000  
G16                                        25.000  
G 4  17891493.102    94020420.434          33.000  
G 8  16908456.928    88854606.143          33.000  
G 9  17988762.200    94531608.009          37.000  
G26  18838478.196    98996861.122          30.000  
G23                                        25.000  
G 7  19842416.408   104272629.635          29.000  
> 2020  3 12  6 21 39.9870000  0  8                     
G27  16103321.634    84623517.357          35.000  
G16                                        26.000  
G 4  17891942.702    94022782.875          33.000  
G 8  16907886.128    88851607.404          33.000  
G 9  17988783.600    94531720.614          37.000  
G26  18838980.916    98999502.760          30.000  
G23                                        25.000  
G 7  19841603.268   104268370.507          29.000  
> 2020  3 12  6 21 40.3870000  0  8                     
G27  16103298.354    84623395.742          36.000  
G16                                        25.000  
G 4  17892092.402    94023570.305          33.000  
G 8  16907695.948    88850607.763          33.000  
G 9  17988790.660    94531758.161          37.000  
G26  18839147.916    99000383.045          30.000  
G23                                        25.000  
G 7  19841334.488   104266950.573          29.000  
> 2020  3 12  6 21 41.7870000  0  8                     
G27  16103217.494    84622969.443          35.000  
G16                                        26.000  
G 4  17892616.802    94026325.363          32.000  
G 8  16907028.888    88847108.237          33.000  
G 9  17988815.580    94531888.772          37.000  
G26  18839734.716    99003462.892          30.000  
G23                                        24.000  
G 7  19840389.268   104261979.470          29.000  
> 2020  3 12  6 21 42.5870000  0  8                     
G27  16103171.014    84622726.030          35.000  
G16                                        26.000  
G 4  17892916.422    94027899.740          33.000  
G 8  16906649.888    88845108.539          33.000  
G 9  17988829.860    94531963.612          37.000  
G26  18840068.276    99005222.514          30.000  
G23                                        25.000  
G 7  19839852.868   104259138.521          29.000  
> 2020  3 12  6 21 42.7870000  0  8                     
G27  16103159.494    84622665.224          35.000  
G16                                        26.000  
G 4  17892991.382    94028293.350          33.000  
G 8  16906552.688    88844608.677          33.000  
G 9  17988833.460    94531982.383          37.000  
G26  18840150.736    99005662.366          30.000  
G23                                        25.000  
G 7  19839714.968   104258428.282          29.000  
> 2020  3 12  6 21 42.9870000  0  8                     
G27  16103147.914    84622604.463          35.000  
G16                                        26.000  
G 4  17893066.182    94028687.002          33.000  
G 8  16906457.048    88844108.844          33.000  
G 9  17988837.060    94532001.146          37.000  
G26  18840234.836    99006102.270          30.000  
G23                                        25.000  
G 7  19839579.808   104257718.033          29.000  
> 2020  3 12  6 21 44.1870000  0  8                     
G27  16103078.634    84622240.644          35.000  
G16                                        26.000  
G 4  17893515.662    94031049.542          33.000  
G 8  16905886.248    88841110.434          33.000  
G 9  17988858.680    94532114.707          37.000  
G26  18840733.756    99008741.983          29.000  
G23                                        25.000  
G 7  19838767.828   104253456.879          29.000  
> 2020  3 12  6 21 44.9870000  0  8                     
G27  16103032.634    84621999.627          36.000  
G16                                        26.000  
G 4  17893815.402    94032625.908          32.000  
G 8  16905506.828    88839112.898          33.000  
G 9  17988873.340    94532191.914          37.000  
G26  18841070.656    99010502.874          29.000  
G23                                        25.000  
G 7  19838229.928   104250617.150          30.000  
> 2020  3 12  6 21 45.3870000  0  8                     
G27  16103009.854    84621879.707          36.000  
G16                                        25.000  
G 4  17893965.462    94033414.613          32.000  
G 8  16905317.648    88838114.691          33.000  
G 9  17988880.860    94532231.098          37.000  
G26  18841236.596    99011383.815          29.000  
G23                                        24.000  
G 7  19837960.828   104249197.747          30.000  
> 2020  3 12  6 21 46.5870000  0  8                     
G27  16102941.734    84621521.242          35.000  
G16                                        25.000  
G 4  17894416.042    94035781.909          32.000  
G 8  16904747.988    88835121.113          33.000  
G 9  17988903.620    94532349.875          37.000  
G26  18841741.136    99014027.145          29.000  
G23                                        25.000  
G 7  19837148.748   104244940.141          29.000  
> 2020  3 12  6 21 47.7870000  0  8                     
G27  16102873.774    84621163.240          36.000  
G16                                        25.000  
G 4  17894866.842    94038149.416          32.000  
G 8  16904177.008    88832127.892          33.000  
G 9  17988926.200    94532469.164          37.000  
G26  18842241.256    99016670.268          29.000  
G23                                        25.000  
G 7  19836343.648   104240682.172          29.000  
> 2020  3 12  6 21 50.1870000  0  8                     
G27  16102737.634    84620448.655          36.000  
G16                                        26.000  
G 4  17895767.662    94042885.028          32.000  
G 8  16903038.348    88826142.312          33.000  
G 9  17988971.920    94532709.096          37.000  
G26  18843241.976    99021955.370          29.000  
G23                                        25.000  
G 7  19834718.028   104232165.105          29.000  
> 2020  3 12  6 21 50.9870000  0  8                     
G27  16102692.234    84620211.304          35.000  
G16                                        26.000  
G 4  17896068.022    94044464.119          32.000  
G 8  16902659.188    88824147.784          33.000  
G 9  17988987.360    94532789.858          37.000  
G26  18843577.996    99023717.128          29.000  
G23                                        25.000  
G 7  19834180.828   104229326.080          29.000  
> 2020  3 12  6 21 52.9870000  0  8                     
G27  16102579.734    84619618.980          35.000  
G16                                        26.000  
G 4  17896818.882    94048412.461          33.000  
G 8  16901710.488    88819162.017          33.000  
G 9  17989025.980    94532992.829          37.000  
G26  18844418.336    99028121.103          29.000  
G23                                        25.000  
G 7  19832824.028   104222228.019          29.000  
> 2020  3 12  6 21 53.7870000  0  8                     
G27  16102534.994    84619383.181          35.000  
G16                                        26.000  
G 4  17897119.602    94049992.713          32.000  
G 8  16901331.208    88817168.711          33.000  
G 9  17989041.640    94533075.128          37.000  
G26                                        29.000  
G23                                        26.000  
G 7  19832285.748   104219389.265          30.000  
> 2020  3 12  6 21 54.5870000  0  8                     
G27  16102490.214    84619148.008          35.000  
G16                                        26.000  
G 4  17897420.442    94051573.449          33.000  
G 8  16900951.748    88815175.893          33.000  
G 9  17989057.660    94533158.055          37.000  
G26  18845094.756    99031629.5221         29.000  
G23                                        26.000  
G 7  19831748.908   104216550.731          30.000  
> 2020  3 12  6 21 54.9870000  0  8                     
G27  16102467.934    84619030.545          35.000  
G16                                        26.000  
G 4  17897570.682    94052363.851          33.000  
G 8  16900762.228    88814179.599          33.000  
G 9  17989065.660    94533199.630          37.000  
G26  18845260.836    99032510.6451         29.000  
G23                                        26.000  
G 7  19831477.688   104215131.438          29.000  
> 2020  3 12  6 21 56.1870000  0  8                     
G27  16102400.634    84618678.594          35.000  
G16                                        26.000  
G 4  17898021.702    94054735.488          32.000  
G 8  16900193.488    88811191.021          33.000  
G 9  17989089.160    94533324.766          37.000  
G26  18845762.656    99035154.004          29.000  
G23                                        26.000  
G 7  19830667.388   104210873.451          30.000  
> 2020  3 12  6 21 56.9870000  0  8                     
G27  16102355.634    84618444.280          35.000  
G16                                        27.000  
G 4  17898322.682    94056316.736          32.000  
G 8  16899814.268    88809198.813          33.000  
G 9  17989105.140    94533408.510          37.000  
G26  18846099.256    99036916.083          29.000  
G23                                        26.000  
G 7  19830124.388   104208034.570          30.000  
> 2020  3 12  6 21 57.3870000  0  8                     
G27  16102333.414    84618327.279          35.000  
G16  17130740.166    90022644.9101         27.000  
G 4  17898473.122    94057107.477          32.000  
G 8  16899624.988    88808202.853          33.000  
G 9  17989113.060    94533450.548          37.000  
G26  18846265.716    99037797.205          29.000  
G23                                        26.000  
G 7  19829858.888   104206615.156          30.000  
> 2020  3 12  6 21 58.1870000  0  8                     
G27  16102288.854    84618093.464          35.000  
G16  17130976.706    90023884.1551         27.000  
G 4  17898774.062    94058689.006          32.000  
G 8  16899245.848    88806211.042          33.000  
G 9  17989129.200    94533534.799          37.000  
G26  18846600.036    99039559.255          29.000  
G23                                        26.000  
G 7  19829318.928   104203776.244          30.000  
> 2020  3 12  6 21 58.5870000  0  8                     
G27  16102266.734    84617976.821          35.000  
G16  17131093.646    90024503.929          27.000  
G 4  17898924.622    94059480.046          32.000  
G 8  16899056.428    88805215.352          33.000  
G 9  17989137.300    94533577.168          37.000  
G26  18846768.796    99040440.399          29.000  
G23                                        26.000  
G 7  19829047.008   104202356.875          30.000  
> 2020  3 12  6 21 58.9870000  0  8                     
G27  16102244.634    84617860.254          35.000  
G16  17131211.786    90025123.732          26.000  
G 4  17899075.222    94060271.058          32.000  
G 8  16898866.988    88804219.702          33.000  
G 9  17989145.360    94533619.615          37.000  
G26  18846936.336    99041321.571          29.000  
G23                                        26.000  
G 7  19828776.788   104200937.574          30.000  
> 2020  3 12  6 22  0.5870000  0  8                     
G27  16102156.074    84617395.272          35.000  
G16  17131681.406    90027603.367          27.000  
G 4  17899677.322    94063436.174          32.000  
G 8  16898109.368    88800238.219          33.000  
G 9  17989177.640    94533790.646          37.000  
G26  18847607.436    99044846.475          29.000  
G23                                        26.000  
G 7  19827695.628   104195230.8921         30.000  
> 2020  3 12  6 22  1.9870000  0  8                     
G27  16102078.774    84616989.710          35.000  
G16  17132092.386    90029773.482          26.000  
G 4  17900204.542    94066206.581          32.000  
G 8  16897446.468    88796755.473          33.000  
G 9  17989206.200    94533941.599          37.000  
G26  18848194.556    99047930.884          29.000  
G23                                        26.000  
G 7  19826752.948   104190263.433          30.000  
> 2020  3 12  6 22  2.1870000  0  8                     
G27  16102067.654    84616931.904          35.000  
G16  17132151.906    90030083.523          26.000  
G 4  17900280.002    94066602.477          32.000  
G 8  16897351.868    88796258.102          33.000  
G 9  17989210.300    94533963.331          37.000  
G26  18848277.896    99048371.548          29.000  
G23                                        26.000  
G 7  19826617.628   104189553.890          30.000  
> 2020  3 12  6 22  2.7870000  0  8                     
G27  16102034.514    84616758.759          35.000  
G16  17132328.526    90031013.906          26.000  
G 4  17900505.922    94067790.296          32.000  
G 8  16897068.148    88794766.037          33.000  
G 9  17989222.660    94534028.644          37.000  
G26  18848530.376    99049693.704          29.000  
G23                                        26.000  
G 7  19826210.728   104187425.149          30.000  
> 2020  3 12  6 22  2.9870000  0  8                     
G27  16102023.594    84616701.095          35.000  
G16  17132387.806    90031324.077          26.000  
G 4  17900581.222    94068186.266          32.000  
G 8  16896973.648    88794268.737          33.000  
G 9  17989226.700    94534050.447          37.000  
G26  18848613.916    99050134.407          29.000  
G23                                        26.000  
G 7  19826077.648   104186715.630          30.000  
> 2020  3 12  6 22  3.3870000  0  8                     
G27  16102001.594    84616585.766          35.000  
G16  17132505.106    90031944.287          26.000  
G 4  17900731.902    94068978.194          32.000  
G 8  16896784.288    88793274.083          33.000  
G 9  17989235.000    94534094.124          37.000  
G26  18848783.076    99051015.747          29.000  
G23                                        26.000  
G 7  19825808.748   104185296.437          30.000  
> 2020  3 12  6 22  4.1870000  0  8                     
G27  16101957.714    84616355.238          35.000  
G16  17132740.026    90033184.672          27.000  
G 4  17901033.042    94070562.109          33.000  
G 8  16896406.028    88791284.941          33.000  
G 9  17989251.580    94534181.597          37.000  
G26  18849118.396    99052778.373          30.000  
G23                                        26.000  
G 7  19825265.588   104182457.945          30.000  
> 2020  3 12  6 22  4.5870000  0  8                     
G27  16101935.754    84616240.100          35.000  
G16  17132858.926    90033804.879          27.000  
G 4  17901183.922    94071354.180          33.000  
G 8  16896216.788    88790290.402          33.000  
G 9  17989259.920    94534225.429          37.000  
G26  18849287.176    99053659.716          30.000  
G23                                        26.000  
G 7  19824993.088   104181038.652          30.000  
> 2020  3 12  6 22  4.9870000  0  8                     
G27  16101913.814    84616125.099          35.000  
G16  17132977.046    90034425.084          27.000  
G 4  17901334.682    94072146.292          33.000  
G 8  16896027.608    88789296.045          33.000  
G 9  17989268.480    94534269.408          37.000  
G26  18849455.956    99054541.051          30.000  
G23                                        26.000  
G 7  19824725.008   104179619.393          30.000  
> 2020  3 12  6 22  5.3870000  0  8                     
G27  16101891.914    84616010.253          35.000  
G16  17133095.646    90035045.428          27.000  
G 4  17901485.462    94072938.599          33.000  
G 8  16895838.588    88788301.768          33.000  
G 9  17989276.940    94534313.529          37.000  
G26  18849621.696    99055422.447          29.000  
G23                                        26.000  
G 7  19824457.008   104178200.231          30.000  
> 2020  3 12  6 22  6.5870000  0  8                     
G27  16101826.654    84615666.534          35.000  
G16  17133450.506    90036906.4671         27.000  
G 4  17901937.502    94075315.980          32.000  
G 8  16895271.448    88785319.659          34.000  
G 9  17989302.320    94534446.684          37.000  
G26  18850123.636    99058066.831          30.000  
G23                                        26.000  
G 7  19823642.988   104173942.935          30.000  
> 2020  3 12  6 22  6.9870000  0  8                     
G27  16101804.694    84615552.195          35.000  
G16  17133568.646    90037527.0211         26.000  
G 4  17902088.342    94076108.652          32.000  
G 8  16895082.388    88784325.853          34.000  
G 9  17989310.880    94534491.347          37.000  
G26  18850291.336    99058948.434          30.000  
G23                                        26.000  
G 7  19823374.348   104172523.918          30.000  
> 2020  3 12  6 22  7.9870000  0  8                     
G27  16101750.414    84615266.704          35.000  
G16  17133864.366    90039078.504          26.000  
G 4  17902465.602    94078090.523          32.000  
G 8  16894609.868    88781841.496          34.000  
G 9  17989332.360    94534603.271          37.000  
G26  18850714.956    99061152.225          30.000  
G23                                        26.000  
G 7  19822700.068   104168976.157          31.000  
> 2020  3 12  6 22  8.1870000  0  8                     
G27  16101739.574    84615209.666          35.000  
G16  17133923.746    90039388.749          26.000  
G 4  17902541.002    94078486.918          32.000  
G 8  16894515.348    88781344.637          33.000  
G 9  17989336.680    94534625.671          37.000  
G26  18850798.576    99061592.970          30.000  
G23                                        26.000  
G 7  19822564.428   104168266.585          31.000  
> 2020  3 12  6 22  8.7870000  0  8                     
G27  16101707.054    84615038.365          35.000  
G16  17134100.626    90040319.463          26.000  
G 4  17902767.162    94079675.878          32.000  
G 8  16894231.588    88779853.952          33.000  
G 9  17989349.240    94534692.843          37.000  
G26  18851046.996    99062914.906          30.000  
G23                                        26.000  
G 7  19822160.668   104166137.570          30.000  
> 2020  3 12  6 22  9.1870000  0  8                     
G27  16101685.394    84614924.189          35.000  
G16  17134218.346    90040939.828          26.000  
G 4  17902918.182    94080468.532          33.000  
G 8  16894042.528    88778860.148          34.000  
G 9  17989357.620    94534737.600          37.000  
G26  18851217.276    99063796.094          29.000  
G23                                        26.000  
G 7  19821893.348   104164718.156          30.000  
> 2020  3 12  6 22  9.5870000  0  8                     
G27  16101663.734    84614810.157          35.000  
G16  17134336.246    90041560.232          26.000  
G 4  17903068.942    94081261.354          32.000  
G 8  16893853.688    88777866.474          34.000  
G 9  17989366.120    94534782.534          37.000  
G26  18851385.216    99064677.460          29.000  
G23                                        27.000  
G 7  19821620.148   104163298.806          30.000  
> 2020  3 12  6 22 10.1870000  0  8                     
G27  16101631.434    84614639.293          35.000  
G16  17134515.806    90042490.904          27.000  
G 4  17903295.142    94082450.571          32.000  
G 8  16893569.988    88776376.106          34.000  
G 9  17989379.080    94534850.090          37.000  
G26  18851636.476    99065999.280          30.000  
G23                                        27.000  
G 7  19821217.328   104161169.717          31.000  
> 2020  3 12  6 22 12.9870000  0  8                     
G27  16101479.534    84613842.792          35.000  
G16  17135345.206    90046832.756          27.000  
G 4  17904351.342    94088000.367          33.000  
G 8  16892246.628    88769421.127          34.000  
G 9  17989439.320    94535166.135          37.000  
G26  18852809.536    99072166.254          30.000  
G23  17905555.762    94094311.0781         26.000  
G 7  19819325.468   104151231.4711         30.000  
> 2020  3 12  6 22 13.7870000  0  8                     
G27  16101436.394    84613615.885          35.000  
G16  17135581.066    90048073.360          26.000  
G 4  17904653.402    94089586.510          32.000  
G 8  16891868.488    88767434.485          34.000  
G 9  17989456.720    94535257.058          37.000  
G26  18853142.936    99073928.104          30.000  
G23  17905784.322    94095519.7841         27.000  
G 7  19818784.368   104148391.9941         31.000  
> 2020  3 12  6 22 14.1870000  0  8                     
G27  16101414.834    84613502.568          35.000  
G16  17135699.566    90048693.614          26.000  
G 4  17904804.382    94090379.571          32.000  
G 8  16891679.608    88766441.244          34.000  
G 9  17989465.300    94535302.640          37.000  
G26  18853312.216    99074809.029          30.000  
G23  17905896.782    94096124.354          27.000  
G 7  19818516.948   104146972.212          31.000  
> 2020  3 12  6 22 14.5870000  0  8                     
G27  16101393.374    84613389.380          35.000  
G16  17135817.046    90049314.052          26.000  
G 4  17904955.122    94091172.792          33.000  
G 8  16891490.748    88765448.129          34.000  
G 9  17989473.940    94535348.377          37.000  
G26  18853478.016    99075689.952          30.000  
G23  17906012.442    94096728.841          27.000  
G 7  19818242.308   104145552.430          31.000  
> 2020  3 12  6 22 14.9870000  0  8                     
G27  16101371.734    84613276.297          35.000  
G16  17135933.726    90049934.362          26.000  
G 4  17905106.042    94091966.055          32.000  
G 8  16891301.908    88764455.079          34.000  
G 9  17989482.820    94535394.204          37.000  
G26  18853651.476    99076570.875          30.000  
G23  17906127.442    94097333.578          27.000  
G 7  19817970.768   104144132.727          30.000  
> 2020  3 12  6 22 15.7870000  0  8                     
G27  16101328.934    84613050.672          35.000  
G16  17136170.526    90051175.596          26.000  
G 4  17905408.122    94093553.087          33.000  
G 8  16890924.248    88762469.459          34.000  
G 9  17989500.400    94535486.401          37.000  
G26  18853986.396    99078333.098          30.000  
G23  17906358.602    94098543.376          27.000  
G 7  19817432.008   104141293.515          30.000  
> 2020  3 12  6 22 16.3870000  0  8                     
G27  16101296.914    84612881.838          35.000  
G16  17136347.526    90052106.604          26.000  
G 4  17905634.842    94094743.657          32.000  
G 8  16890640.908    88760980.589          34.000  
G 9  17989513.760    94535555.928          37.000  
G26  18854235.116    99079654.900          30.000  
G23  17906532.062    94099451.023          27.000  
G 7  19817027.588   104139164.206          31.000  
> 2020  3 12  6 22 16.5870000  0  8                     
G27  16101286.194    84612825.609          35.000  
G16  17136405.826    90052416.943          26.000  
G 4  17905710.262    94095140.543          32.000  
G 8  16890546.388    88760484.340          34.000  
G 9  17989518.140    94535579.139          37.000  
G26  18854317.136    99080095.540          30.000  
G23  17906588.562    94099753.608          27.000  
G 7  19816891.668   104138454.480          30.000  
> 2020  3 12  6 22 16.9870000  0  8                     
G27  16101264.874    84612713.277          35.000  
G16  17136522.686    90053037.781          26.000  
G 4  17905861.382    94095934.451          32.000  
G 8  16890357.588    88759491.959          34.000  
G 9  17989527.000    94535625.720          37.000  
G26  18854485.876    99080976.828          30.000  
G23  17906703.562    94100358.941          27.000  
G 7  19816624.028   104137034.982          31.000  
> 2020  3 12  6 22 17.3870000  0  8                     
G27  16101243.434    84612601.035          35.000  
G16  17136639.026    90053658.569          26.000  
G 4  17906012.482    94096728.408          32.000  
G 8  16890168.788    88758499.640          34.000  
G 9  17989535.800    94535672.377          37.000  
G26  18854654.856    99081858.063          30.000  
G23  17906817.282    94100964.255          27.000  
G 7  19816353.028   104135615.523          31.000  
> 2020  3 12  6 22 17.5870000  0  8                     
G27  16101232.834    84612544.948          35.000  
G16  17136698.186    90053969.000          26.000  
G 4  17906088.062    94097125.389          32.000  
G 8  16890074.488    88758003.509          34.000  
G 9  17989540.120    94535695.746          37.000  
G26  18854737.376    99082298.645          30.000  
G23  17906875.522    94101266.998          27.000  
G 7  19816217.868   104134905.770          31.000  
> 2020  3 12  6 22 17.7870000  0  8                     
G27  16101222.314    84612488.908          35.000  
G16  17136756.986    90054279.436          26.000  
G 4  17906163.722    94097522.436          32.000  
G 8  16889980.128    88757507.386          34.000  
G 9  17989544.560    94535719.146          37.000  
G26  18854821.956    99082739.346          30.000  
G23  17906932.842    94101569.675          27.000  
G 7  19816083.068   104134196.099          31.000  
> 2020  3 12  6 22 18.5870000  0  8                     
G27  16101179.634    84612264.852          35.000  
G16  17136994.066    90055521.148          25.000  
G 4  17906465.882    94099110.539          32.000  
G 8  16889602.248    88755523.017          34.000  
G 9  17989562.380    94535812.859          37.000  
G26  18855156.096    99084501.816          30.000  
G23  17907163.602    94102780.2091         27.000  
G 7  19815544.288   104131357.087          31.000  
> 2020  3 12  6 22 18.9870000  0  8                     
G27  16101158.354    84612152.817          35.000  
G16  17137111.866    90056141.862          25.000  
G 4  17906616.862    94099904.640          32.000  
G 8  16889413.628    88754530.858          34.000  
G 9  17989571.500    94535859.766          37.000  
G26  18855327.396    99085382.978          30.000  
G23  17907278.782    94103385.7361         27.000  
G 7  19815270.348   104129937.420          31.000  
> 2020  3 12  6 22 19.7870000  0  8                     
G27  16101115.694    84611929.116          35.000  
G16                                        25.000  
G 4  17906919.202    94101492.949          32.000  
G 8  16889035.908    88752546.759          34.000  
G 9  17989589.220    94535953.792          37.000  
G26  18855660.436    99087145.259          30.000  
G23  17907509.062    94104596.922          27.000  
G 7  19814734.188   104127098.151          31.000  
> 2020  3 12  6 22 20.1870000  0  8                     
G27  16101094.474    84611817.283          35.000  
G16                                        25.000  
G 4  17907070.222    94102287.066          32.000  
G 8  16888847.228    88751554.661          34.000  
G 9  17989598.260    94536000.869          37.000  
G26  18855827.576    99088026.321          30.000  
G23  17907625.422    94105202.536          28.000  
G 7  19814464.668   104125678.438          31.000  
> 2020  3 12  6 22 20.9870000  0  8                     
G27  16101051.634    84611593.582          35.000  
G16                                        25.000  
G 4  17907372.422    94103875.240          32.000  
G 8  16888469.828    88749570.412          34.000  
G 9  17989616.260    94536094.931          37.000  
G26  18856168.996    99089788.056          30.000  
G23  17907853.702    94106413.646          28.000  
G 7  19813925.828   104122838.651          31.000  
> 2020  3 12  6 22 21.1870000  0  8                     
G27  16101040.954    84611537.650          35.000  
G16                                        25.000  
G 4  17907447.902    94104272.269          32.000  
G 8  16888375.388    88749074.347          34.000  
G 9  17989620.820    94536118.445          37.000  
G26  18856251.516    99090228.473          30.000  
G23  17907910.862    94106716.351          28.000  
G 7  19813790.328   104122128.677          31.000  
> 2020  3 12  6 22 21.5870000  0  8                     
G27  16101019.534    84611425.846          35.000  
G16                                        25.000  
G 4  17907598.982    94105066.283          32.000  
G 8  16888186.628    88748082.212          34.000  
G 9  17989629.840    94536165.493          37.000  
G26  18856418.276    99091109.164          30.000  
G23  17908025.942    94107321.865          28.000  
G 7  19813518.628   104120708.590          31.000  
> 2020  3 12  6 22 21.7870000  0  8                     
G27  16101008.894    84611370.001          35.000  
G16                                        25.000  
G 4  17907674.502    94105463.364          32.000  
G 8  16888092.288    88747586.232          34.000  
G 9  17989634.360    94536189.065          37.000  
G26  18856501.936    99091549.554          30.000  
G23  17908083.502    94107624.666          28.000  
G 7  19813380.148   104119998.574          31.000  
> 2020  3 12  6 22 21.9870000  0  8                     
G27  16100998.194    84611314.172          35.000  
G16                                        25.000  
G 4  17907749.962    94105860.437          32.000  
G 8  16887997.968    88747090.211          34.000  
G 9  17989638.980    94536212.665          37.000  
G26  18856586.136    99091989.934          30.000  
G23  17908141.322    94107927.495          28.000  
G 7  19813244.528   104119288.588          31.000  
> 2020  3 12  6 22 22.3870000  0  8                     
G27  16100976.934    84611202.639          34.000  
G16                                        25.000  
G 4  17907900.922    94106654.718          32.000  
G 8  16887809.188    88746098.323          34.000  
G 9  17989648.040    94536260.034          37.000  
G26  18856753.656    99092870.815          30.000  
G23  17908257.722    94108533.267          28.000  
G 7  19812973.428   104117868.635          31.000  
> 2020  3 12  6 22 22.5870000  0  8                     
G27  16100966.434    84611146.904          34.000  
G16                                        25.000  
G 4  17907976.382    94107051.859          33.000  
G 8  16887714.828    88745602.403          34.000  
G 9  17989652.660    94536283.705          37.000  
G26  18856837.676    99093311.203          30.000  
G23  17908315.382    94108836.128          28.000  
G 7  19812838.448   104117158.590          31.000  
> 2020  3 12  6 22 24.9870000  0  8                     
G27  16100839.374    84610479.280          34.000  
G16                                        25.000  
G 4  17908883.662    94111818.258          32.000  
G 8  16886582.328    88739652.161          34.000  
G 9  17989706.820    94536569.201          37.000  
G26  18857842.596    99098595.524          30.000  
G23  17909008.222    94112471.666          28.000  
G 7  19811218.828   104108638.068          31.000  
> 2020  3 12  6 22 26.1870000  0  8                     
G27  16100775.874    84610147.139          34.000  
G16                                        25.000  
G 4  17909337.362    94114202.746          32.000  
G 8  16886016.448    88736678.412          34.000  
G 9  17989734.400    94536713.591          37.000  
G26  18858343.236    99101238.158          30.000  
G23  17909354.762    94114290.705          28.000  
G 7  19810408.188   104104378.152          31.000  
> 2020  3 12  6 22 26.9870000  0  8                     
G27  16100733.514    84609926.495          34.000  
G16                                        24.000  
G 4  17909640.162    94115793.027          32.000  
G 8  16885639.448    88734696.620          34.000  
G 9  17989752.720    94536810.628          37.000  
G26  18858676.416    99103000.166          30.000  
G23  17909584.902    94115504.134          28.000  
G 7  19809868.428   104101538.507          31.000  
> 2020  3 12  6 22 27.7870000  0  8                     
G27  16100691.214    84609705.978          34.000  
G16                                        24.000  
G 4  17909942.742    94117383.259          32.000  
G 8  16885262.468    88732714.820          34.000  
G 9  17989771.280    94536907.799          37.000  
G26  18859012.156    99104762.140          29.000  
G23  17909815.402    94116717.530          28.000  
G 7  19809328.628   104098698.591          31.000  
> 2020  3 12  6 22 28.1870000  0  8                     
G27  16100670.154    84609595.904          34.000  
G16                                        24.000  
G 4  17910094.002    94118178.530          32.000  
G 8  16885073.928    88731724.075          34.000  
G 9  17989780.680    94536956.555          37.000  
G26  18859182.376    99105643.026          30.000  
G23  17909931.282    94117324.363          28.000  
G 7  19809058.508   104097278.702          31.000  
> 2020  3 12  6 22 28.5870000  0  8                     
G27  16100649.234    84609485.924          34.000  
G16                                        24.000  
G 4  17910245.342    94118973.890          32.000  
G 8  16884885.208    88730733.399          34.000  
G 9  17989790.080    94537005.419          37.000  
G26  18859349.496    99106523.993          30.000  
G23  17910045.262    94117931.304          28.000  
G 7  19808787.988   104095858.794          31.000  
> 2020  3 12  6 22 28.9870000  0  8                     
G27  16100628.194    84609376.028          34.000  
G16                                        24.000  
G 4  17910396.562    94119769.316          32.000  
G 8  16884696.628    88729742.785          34.000  
G 9  17989799.420    94537054.335          37.000  
G26  18859515.096    99107405.013          29.000  
G23  17910159.282    94118538.292          28.000  
G 7  19808517.968   104094438.870          31.000  
> 2020  3 12  6 22 29.7870000  0  8                     
G27  16100586.254    84609156.370          34.000  
G16                                        24.000  
G 4  17910699.042    94121360.057          32.000  
G 8  16884319.868    88727761.634          34.000  
G 9  17989818.240    94537152.313          37.000  
G26  18859849.996    99109166.748          30.000  
G23  17910391.642    94119752.284          28.000  
G 7  19807977.448   104091598.876          31.000  
> 2020  3 12  6 22 30.9870000  0  8                     
G27  16100523.254    84608827.205          34.000  
G16                                        24.000  
G 4  17911153.082    94123746.432          33.000  
G 8  16883754.508    88724790.077          34.000  
G 9  17989846.180    94537299.585          37.000  
G26  18860354.336    99111809.054          29.000  
G23  17910737.202    94121573.451          28.000  
G 7  19807166.708   104087338.511          31.000  
> 2020  3 12  6 22 31.7870000  0  8                     
G27  16100481.354    84608608.264          34.000  
G16                                        24.000  
G 4  17911455.882    94125337.664          32.000  
G 8  16883377.768    88722809.428          34.000  
G 9  17989864.880    94537398.254          36.000  
G26  18860688.256    99113570.683          30.000  
G23  17910967.602    94122788.002          28.000  
G 7  19806626.168   104084498.269          31.000  
> 2020  3 12  6 22 32.1870000  0  8                     
G27  16100460.454    84608499.010          34.000  
G16                                        24.000  
G 4  17911607.422    94126133.421          33.000  
G 8  16883189.328    88721819.250          34.000  
G 9  17989874.300    94537447.817          36.000  
G26  18860857.716    99114451.577          30.000  
G23  17911082.222    94123395.387          28.000  
G 7  19806355.968   104083078.230          31.000  
> 2020  3 12  6 22 34.1870000  0  8                     
G27  16100357.134    84607953.810          34.000  
G16                                        24.000  
G 4  17912365.222    94130112.946          33.000  
G 8  16882247.588    88716869.217          35.000  
G 9  17989921.780    94537696.611          36.000  
G26  18861697.336    99118855.588          30.000  
G23  17911659.282    94126433.142          28.000  
G 7  19805004.948   104075977.615          31.000  
> 2020  3 12  6 22 34.5870000  0  8                     
G27  16100336.414    84607844.981          34.000  
G16                                        24.000  
G 4  17912516.882    94130908.966          33.000  
G 8  16882059.188    88715879.366          34.000  
G 9  17989931.440    94537746.534          36.000  
G26  18861862.496    99119736.353          29.000  
G23  17911775.802    94127040.903          28.000  
G 7  19804734.648   104074557.395          32.000  
> 2020  3 12  6 22 34.9870000  0  8                     
G27  16100315.794    84607736.344          34.000  
G16                                        24.000  
G 4  17912668.402    94131705.070          33.000  
G 8  16881870.908    88714889.661          35.000  
G 9  17989941.040    94537796.669          36.000  
G26  18862031.416    99120617.174          29.000  
G23  17911893.222    94127648.690          28.000  
G 7  19804464.508   104073137.274          31.000  
> 2020  3 12  6 22 35.7870000  0  8                     
G27  16100274.514    84607519.300          34.000  
G16                                        25.000  
G 4  17912971.502    94133297.616          33.000  
G 8  16881494.268    88712910.449          34.000  
G 9  17989960.280    94537897.222          36.000  
G26  18862364.496    99122378.851          29.000  
G23  17912125.562    94128864.537          28.000  
G 7  19803922.848   104070297.006          31.000  
> 2020  3 12  6 22 36.9870000  0  8                     
G27  16100212.274    84607194.176          34.000  
G16                                        24.000  
G 4  17913426.042    94135686.545          33.000  
G 8  16880929.628    88709941.861          34.000  
G 9  17989988.800    94538048.412          36.000  
G26  18862869.436    99125021.088          29.000  
G23  17912473.942    94130688.612          28.000  
G 7  19803112.988   104066036.349          32.000  
> 2020  3 12  6 22 37.7870000  0  8                     
G27  16100171.194    84606977.517          34.000  
G16                                        25.000  
G 4  17913729.202    94137279.186          33.000  
G 8  16880553.068    88707962.894          34.000  
G 9  17990007.900    94538149.327          36.000  
G26  18863208.376    99126782.242          29.000  
G23  17912706.062    94131904.635          27.000  
G 7  19802571.488   104063195.556          31.000  
> 2020  3 12  6 22 38.1870000  0  8                     
G27  16100150.714    84606869.402          34.000  
G16                                        25.000  
G 4  17913880.682    94138075.626          33.000  
G 8  16880364.808    88706973.512          34.000  
G 9  17990017.400    94538199.949          36.000  
G26  18863374.936    99127662.857          29.000  
G23  17912821.242    94132512.871          27.000  
G 7  19802301.228   104061775.186          31.000  
> 2020  3 12  6 22 38.9870000  0  8                     
G27  16100109.614    84606653.439          34.000  
G16                                        25.000  
G 4  17914183.842    94139668.650          33.000  
G 8  16879988.368    88704995.018          35.000  
G 9  17990036.760    94538301.513          36.000  
G26  18863708.216    99129424.166          29.000  
G23  17913053.002    94133729.388          27.000  
G 7  19801759.428   104058934.450          31.000  
> 2020  3 12  6 22 40.1870000  0  8                     
G27  16100048.174    84606330.593          34.000  
G16                                        25.000  
G 4  17914638.802    94142059.163          33.000  
G 8  16879423.968    88702028.203          35.000  
G 9  17990065.700    94538454.913          36.000  
G26  18864210.616    99132066.466          29.000  
G23  17913400.682    94135555.085          27.000  
G 7  19800951.448   104054673.757          31.000  
> 2020  3 12  6 22 40.5870000  0  8                     
G27  16100027.754    84606223.204          34.000  
G16                                        26.000  
G 4  17914790.462    94142856.189          33.000  
G 8  16879235.848    88701039.487          35.000  
G 9  17990075.460    94538506.307          36.000  
G26  18864375.936    99132947.273          29.000  
G23  17913518.302    94136163.912          27.000  
G 7  19800681.428   104053253.583          31.000  
> 2020  3 12  6 22 40.9870000  0  8                     
G27  16100007.594    84606116.003          34.000  
G16                                        26.000  
G 4  17914942.122    94143653.299          33.000  
G 8  16879047.868    88700050.881          35.000  
G 9  17990085.160    94538557.830          36.000  
G26  18864544.156    99133828.212          29.000  
G23  17913634.382    94136772.784          28.000  
G 7  19800409.108   104051833.392          31.000  
> 2020  3 12  6 22 41.7870000  0  8                     
G27  16099966.894    84605902.131          34.000  
G16                                        26.000  
G 4  17915245.862    94145248.035          33.000  
G 8  16878671.708    88698074.210          35.000  
G 9  17990104.940    94538661.454          36.000  
G26  18864882.536    99135590.304          29.000  
G23  17913863.902    94137991.088          27.000  
G 7  19799871.968   104048993.463          31.000  
> 2020  3 12  6 22 42.9870000  0  8                     
G27  16099906.434    84605582.746          34.000  
G16                                        25.000  
G 4  17915701.602    94147641.362          33.000  
G 8  16878107.448    88695110.438          35.000  
G 9  17990134.640    94538818.304          36.000  
G26  18865383.296    99138234.228          29.000  
G23  17914210.742    94139819.856          27.000  
G 7  19799057.528   104044734.243          32.000  
> 2020  3 12  6 22 43.7870000  0  8                     
G27  16099866.054    84605370.661          34.000  
G16                                        25.000  
G 4  17916005.342    94149237.539          33.000  
G 8  16877731.728    88693135.267          35.000  
G 9  17990154.540    94538923.580          36.000  
G26  18865717.176    99139997.140          29.000  
G23  17914442.262    94141039.623          28.000  
G 7  19798517.928   104041895.034          32.000  
> 2020  3 12  6 22 44.1870000  0  8                     
G27  16099846.114    84605264.675          34.000  
G16                                        25.000  
G 4  17916157.362    94150035.671          33.000  
G 8  16877543.848    88692147.780          35.000  
G 9  17990164.520    94538976.396          36.000  
G26  18865884.176    99140878.528          29.000  
G23  17914557.242    94141649.594          27.000  
G 7  19798244.688   104040475.426          32.000  
> 2020  3 12  6 22 44.9870000  0  8                     
G27  16099805.534    84605052.978          34.000  
G16                                        25.000  
G 4  17916461.262    94151632.080          33.000  
G 8  16877168.208    88690172.925          35.000  
G 9  17990184.400    94539082.130          37.000  
G26  18866219.476    99142641.316          29.000  
G23  17914789.502    94142869.658          27.000  
G 7  19797706.228   104037636.065          32.000  
> 2020  3 12  6 22 45.7870000  0  8                     
G27  16099765.414    84604841.421          34.000  
G16                                        25.000  
G 4  17916765.222    94153228.515          33.000  
G 8  16876792.368    88688198.135          35.000  
G 9  17990204.500    94539188.014          37.000  
G26  18866554.696    99144403.973          28.000  
G23  17915021.742    94144089.696          27.000  
G 7  19797163.188   104034796.538          32.000  
> 2020  3 12  6 22 46.1870000  0  8                     
G27  16099745.454    84604735.787          34.000  
G16                                        25.000  
G 4  17916917.222    94154026.784          33.000  
G 8  16876604.468    88687210.819          35.000  
G 9  17990214.580    94539241.082          37.000  
G26  18866720.336    99145285.248          28.000  
G23  17915137.042    94144699.821          27.000  
G 7  19796894.688   104033376.693          32.000  
> 2020  3 12  6 22 46.5870000  0  8                     
G27  16099725.434    84604630.168          34.000  
G16                                        25.000  
G 4  17917069.402    94154825.103          33.000  
G 8  16876416.648    88686223.569          35.000  
G 9  17990224.760    94539294.186          37.000  
G26  18866886.556    99146166.486          28.000  
G23  17915253.682    94145310.026          27.000  
G 7  19796625.068   104031956.895          32.000  
> 2020  3 12  6 22 46.9870000  0  8                     
G27  16099705.414    84604524.726          34.000  
G16                                        25.000  
G 4  17917221.342    94155623.521          33.000  
G 8  16876228.808    88685236.392          35.000  
G 9  17990234.700    94539347.438          36.000  
G26  18867054.296    99147047.745          28.000  
G23  17915368.822    94145920.277          27.000  
G 7  19796356.448   104030537.053          32.000  
> 2020  3 12  6 22 47.3870000  0  8                     
G27  16099685.334    84604419.384          34.000  
G16                                        25.000  
G 4  17917373.182    94156422.016          33.000  
G 8  16876040.948    88684249.320          35.000  
G 9  17990244.920    94539400.782          37.000  
G26  18867221.776    99147929.049          28.000  
G23  17915485.502    94146530.681          27.000  
G 7  19796085.848   104029117.292          31.000  
> 2020  3 12  6 22 47.7870000  0  8                     
G27  16099665.474    84604314.146          34.000  
G16                                        25.000  
G 4  17917525.122    94157220.632          33.000  
G 8  16875853.048    88683262.346          35.000  
G 9  17990254.920    94539454.294          37.000  
G26  18867389.896    99148810.463          28.000  
G23  17915601.562    94147141.156          27.000  
G 7  19795814.428   104027697.508          32.000  
> 2020  3 12  6 22 48.9870000  0  8                     
G27  16099605.454    84603998.897          34.000  
G16                                        24.000  
G 4  17917981.322    94159616.660          33.000  
G 8  16875289.788    88680301.745          35.000  
G 9  17990286.040    94539615.106          37.000  
G26  18867892.636    99151454.310          28.000  
G23  17915946.642    94148972.825          27.000  
G 7  19795005.068   104023438.118          32.000  
> 2020  3 12  6 22 49.5870000  0  8                     
G27  16099575.814    84603841.590          34.000  
G16                                        25.000  
G 4  17918209.322    94160814.874          33.000  
G 8  16875008.288    88678821.712          35.000  
G 9  17990301.580    94539695.881          37.000  
G26  18868143.676    99152776.251          28.000  
G23  17916120.542    94149888.882          27.000  
G 7  19794600.048   104021308.349          32.000  
> 2020  3 12  6 22 49.7870000  0  8                     
G27  16099566.034    84603789.237          34.000  
G16                                        25.000  
G 4  17918285.342    94161214.351          33.000  
G 8  16874914.548    88678328.438          35.000  
G 9  17990306.560    94539722.848          37.000  
G26  18868227.136    99153216.952          28.000  
G23  17916178.742    94150194.279          27.000  
G 7  19794465.108   104020598.522          32.000  
> 2020  3 12  6 22 50.1870000  0  8                     
G27  16099546.214    84603684.672          34.000  
G16                                        25.000  
G 4  17918437.382    94162013.350          33.000  
G 8  16874726.768    88677341.994          35.000  
G 9  17990316.960    94539776.959          37.000  
G26  18868394.976    99154098.413          28.000  
G23  17916295.842    94150805.269          27.000  
G 7  19794194.908   104019178.806          31.000  
> 2020  3 12  6 22 50.9870000  0  8                     
G27  16099506.394    84603475.792          34.000  
G16                                        25.000  
G 4  17918741.702    94163611.688          33.000  
G 8  16874351.408    88675369.324          35.000  
G 9  17990337.740    94539885.470          37.000  
G26  18868731.776    99155861.301          28.000  
G23  17916527.842    94152027.377          27.000  
G 7  19793654.488   104016339.419          32.000  
> 2020  3 12  6 22 51.7870000  0  8                     
G27  16099466.334    84603266.802          34.000  
G16                                        24.000  
G 4  17919046.142    94165209.726          33.000  
G 8  16873976.128    88673396.429          35.000  
G 9  17990358.720    94539993.850          37.000  
G26  18869066.816    99157623.767          28.000  
G23  17916759.422    94153249.281          27.000  
G 7  19793113.948   104013499.545          32.000  
> 2020  3 12  6 22 52.1870000  0  8                     
G27  16099446.474    84603162.174          34.000  
G16                                        24.000  
G 4  17919198.162    94166008.596          33.000  
G 8  16873788.388    88672409.796          35.000  
G 9  17990369.080    94540047.871          37.000  
G26  18869234.276    99158504.663          28.000  
G23  17916876.102    94153860.097          27.000  
G 7  19792843.808   104012079.353          32.000  
> 2020  3 12  6 22 52.5870000  0  8                     
G27  16099426.494    84603057.715          34.000  
G16                                        24.000  
G 4  17919350.242    94166807.598          33.000  
G 8  16873600.688    88671423.321          35.000  
G 9  17990379.380    94540102.085          37.000  
G26  18869402.056    99159385.696          28.000  
G23  17916992.442    94154471.171          27.000  
G 7  19792573.648   104010659.161          32.000  
> 2020  3 12  6 22 52.9870000  0  8                     
G27  16099406.634    84602953.457          34.000  
G16                                        24.000  
G 4  17919502.222    94167606.734          33.000  
G 8  16873412.848    88670437.016          35.000  
G 9  17990389.960    94540156.496          37.000  
G26  18869570.416    99160266.763          28.000  
G23                                        27.000  
G 7  19792303.388   104009239.130          32.000  
> 2020  3 12  6 22 53.3870000  0  8                     
G27  16099386.834    84602849.479          34.000  
G16                                        24.000  
G 4  17919654.262    94168406.122          33.000  
G 8  16873225.328    88669451.012          35.000  
G 9  17990400.440    94540211.201          37.000  
G26  18869737.456    99161148.109          28.000  
G23                                        27.000  
G 7  19792033.348   104007819.251          32.000  
> 2020  3 12  6 22 53.7870000  0  8                     
G27  16099367.114    84602745.721          34.000  
G16                                        24.000  
G 4  17919806.382    94169205.718          33.000  
G 8  16873037.868    88668465.138          35.000  
G 9  17990410.860    94540266.084          37.000  
G26  18869905.096    99162029.512          28.000  
G23  17917343.842    94156269.5471         27.000  
G 7  19791763.228   104006399.498          32.000  
> 2020  3 12  6 22 54.9870000  0  8                     
G27  16099307.974    84602434.980          34.000  
G16                                        24.000  
G 4  17920263.262    94171604.833          33.000  
G 8  16872475.008    88665508.074          35.000  
G 9  17990442.400    94540431.350          37.000  
G26  18870409.076    99164673.875          28.000  
G23  17917693.022    94158104.573          27.000  
G 7  19790952.788   104002140.289          32.000  
> 2020  3 12  6 22 55.7870000  0  8                     
G27  16099268.234    84602227.895          34.000  
G16                                        24.000  
G 4  17920567.462    94173204.143          33.000  
G 8  16872099.888    88663536.619          35.000  
G 9  17990463.620    94540541.558          37.000  
G26  18870746.876    99166436.348          28.000  
G23  17917926.562    94159327.898          27.000  
G 7  19790412.368   103999300.379          32.000  
> 2020  3 12  6 22 56.1870000  0  8                     
G27  16099248.574    84602124.478          34.000  
G16                                        24.000  
G 4  17920719.742    94174003.909          33.000  
G 8  16871912.128    88662550.992          35.000  
G 9  17990474.560    94540596.805          37.000  
G26  18870914.776    99167317.583          28.000  
G23  17918043.062    94159939.611          27.000  
G 7  19790142.168   103997880.429          32.000  
> 2020  3 12  6 22 56.9870000  0  8                     
G27  16099209.134    84601918.129          34.000  
G16                                        24.000  
G 4  17921024.322    94175603.778          33.000  
G 8  16871537.208    88660580.183          35.000  
G 9  17990495.700    94540707.749          37.000  
G26  18871250.996    99169080.269          28.000  
G23  17918275.722    94161163.551          27.000  
G 7  19789601.688   103995040.670          31.000  
> 2020  3 12  6 22 57.7870000  0  8                     
G27  16099169.874    84601712.342          34.000  
G16                                        24.000  
G 4  17921328.702    94177204.105          33.000  
G 8  16871162.208    88658609.860          35.000  
G 9  17990516.700    94540819.282          37.000  
G26  18871587.416    99170843.189          28.000  
G23  17918508.102    94162387.929          27.000  
G 7  19789061.468   103992201.112          32.000  
> 2020  3 12  6 22 58.1870000  0  8                     
G27  16099150.254    84601609.755          34.000  
G16                                        24.000  
G 4  17921480.882    94178004.523          33.000  
G 8  16870974.808    88657624.954          35.000  
G 9  17990527.360    94540875.303          37.000  
G26  18871755.076    99171724.719          28.000  
G23  17918625.002    94163000.396          27.000  
G 7  19788791.268   103990781.467          31.000  
> 2020  3 12  6 22 58.5870000  0  8                     
G27  16099130.674    84601507.222          34.000  
G16                                        25.000  
G 4  17921633.202    94178804.983          33.000  
G 8  16870787.368    88656640.131          35.000  
G 9  17990538.100    94540931.419          37.000  
G26  18871922.576    99172606.314          28.000  
G23  17918741.902    94163612.896          27.000  
G 7  19788521.028   103989361.877          32.000  
> 2020  3 12  6 22 58.9870000  0  8                     
G27  16099111.254    84601404.869          34.000  
G16                                        24.000  
G 4  17921785.482    94179605.538          33.000  
G 8  16870600.008    88655655.382          35.000  
G 9  17990548.900    94540987.677          37.000  
G26  18872092.336    99173487.967          28.000  
G23  17918859.382    94164225.473          27.000  
G 7  19788251.008   103987942.268          31.000  
> 2020  3 12  6 22 59.3870000  0  8                     
G27  16099091.754    84601302.659          34.000  
G16                                        25.000  
G 4  17921937.802    94180406.203          33.000  
G 8  16870412.368    88654670.835          35.000  
G 9  17990559.480    94541044.105          37.000  
G26  18872260.656    99174369.691          28.000  
G23  17918976.742    94164838.231          27.000  
G 7  19787980.988   103986522.731          31.000  
> 2020  3 12  6 22 59.7870000  0  8                     
G27  16099072.354    84601200.664          34.000  
G16                                        25.000  
G 4  17922090.242    94181207.128          33.000  
G 8  16870225.068    88653686.452          35.000  
G 9  17990570.480    94541100.731          37.000  
G26  18872428.596    99175251.560          28.000  
G23  17919091.782    94165451.158          27.000  
G 7  19787711.008   103985103.375          32.000  
> 2020  3 12  6 23  0.5870000  0  8                     
G27  16099033.674    84600997.281          34.000  
G16                                        25.000  
G 4  17922395.082    94182809.365          33.000  
G 8  16869850.488    88651718.210          35.000  
G 9  17990591.980    94541214.605          37.000  
G26  18872762.536    99177015.528          28.000  
G23  17919325.162    94166677.0891         27.000  
G 7  19787170.708   103982264.836          32.000  
> 2020  3 12  6 23  0.9870000  0  8                     
G27  16099014.234    84600895.793          34.000  
G16                                        25.000  
G 4  17922547.422    94183610.716          33.000  
G 8  16869663.168    88650734.265          35.000  
G 9  17990602.800    94541271.756          37.000  
G26  18872929.936    99177897.630          28.000  
G23  17919441.182    94167290.4281         27.000  
G 7  19786900.708   103980845.671          32.000  
> 2020  3 12  6 23  1.5870000  0  8                     
G27  16098985.414    84600743.807          34.000  
G16                                        25.000  
G 4  17922775.742    94184812.834          33.000  
G 8  16869382.448    88649258.580          35.000  
G 9  17990619.200    94541357.671          37.000  
G26  18873180.676    99179220.790          28.000  
G23  17919616.222    94168210.745          27.000  
G 7  19786495.568   103978716.956          32.000  
> 2020  3 12  6 23  1.7870000  0  8                     
G27  16098975.714    84600693.177          34.000  
G16                                        25.000  
G 4  17922852.022    94185213.530          33.000  
G 8  16869288.928    88648766.664          35.000  
G 9  17990624.640    94541386.347          37.000  
G26  18873264.376    99179661.817          28.000  
G23  17919674.162    94168517.510          27.000  
G 7  19786360.608   103978007.406          32.000  
> 2020  3 12  6 23  2.1870000  0  8                     
G27  16098956.534    84600592.021          34.000  
G16                                        25.000  
G 4  17923004.422    94186015.073          33.000  
G 8  16869101.748    88647782.971          35.000  
G 9  17990635.600    94541443.801          37.000  
G26  18873433.316    99180543.964          28.000  
G23  17919790.002    94169131.072          27.000  
G 7  19786090.510   103976588.234          32.000  
> 2020  3 12  6 23  2.9870000  0  8                     
G27  16098918.034    84600389.925          34.000  
G16                                        25.000  
G 4  17923309.602    94187618.253          33.000  
G 8  16868727.368    88645815.743          35.000  
G 9  17990657.600    94541558.941          37.000  
G26  18873770.416    99182308.155          28.000  
G23  17920022.962    94170358.520          27.000  
G 7  19785550.430   103973749.871          32.000  
> 2020  3 12  6 23  3.7870000  0  8                     
G27  16098879.794    84600187.984          34.000  
G16                                        25.000  
G 4  17923614.702    94189221.465          32.000  
G 8  16868353.168    88643848.602          35.000  
G 9  17990679.480    94541674.166          37.000  
G26  18874105.076    99184072.147          28.000  
G23  17920255.082    94171585.944          27.000  
G 7  19785010.050   103970911.269          32.000  
> 2020  3 12  6 23  4.1870000  0  8                     
G27  16098860.654    84600087.295          34.000  
G16                                        25.000  
G 4  17923767.222    94190023.322          33.000  
G 8  16868166.048    88642865.280          35.000  
G 9  17990690.480    94541732.116          37.000  
G26  18874273.656    99184954.268          28.000  
G23  17920371.902    94172199.911          27.000  
G 7  19784739.990   103969492.152          32.000  
> 2020  3 12  6 23  4.5870000  0  8                     
G27  16098841.754    84599986.830          34.000  
G16                                        25.000  
G 4  17923919.962    94190825.367          33.000  
G 8  16867978.808    88641882.136          35.000  
G 9  17990701.420    94541790.234          37.000  
G26  18874440.756    99185836.570          28.000  
G23  17920487.362    94172814.075          27.000  
G 7  19784469.950   103968073.108          32.000  
> 2020  3 12  6 23  4.9870000  0  8                     
G27  16098822.574    84599886.519          34.000  
G16                                        25.000  
G 4  17924072.662    94191627.530          33.000  
G 8  16867791.648    88640899.158          35.000  
G 9  17990712.440    94541848.525          37.000  
G26  18874609.116    99186718.896          28.000  
G23  17920605.082    94173428.430          27.000  
G 7  19784199.990   103966654.154          32.000  
> 2020  3 12  6 23  5.3870000  0  8                     
G27  16098803.674    84599786.350          34.000  
G16                                        25.000  
G 4  17924225.342    94192429.714          33.000  
G 8  16867604.468    88639916.259          35.000  
G 9  17990723.420    94541906.916          37.000  
G26  18874776.176    99187601.232          28.000  
G23  17920723.102    94174042.778          27.000  
G 7  19783929.990   103965235.194          32.000  
> 2020  3 12  6 23  5.7870000  0  8                     
G27  16098784.734    84599686.297          34.000  
G16                                        25.000  
G 4  17924377.842    94193232.115          33.000  
G 8  16867417.508    88638933.497          35.000  
G 9  17990734.520    94541965.460          37.000  
G26  18874945.096    99188483.660          28.000  
G23  17920840.862    94174657.176          27.000  
G 7  19783659.870   103963816.338          32.000  
> 2020  3 12  6 23  6.5870000  0  8                     
G27  16098746.814    84599486.408          34.000  
G16                                        25.000  
G 4  17924683.222    94194836.972          33.000  
G 8  16867043.568    88636968.087          35.000  
G 9  17990756.480    94542082.760          37.000  
G26  18875279.136    99190248.362          28.000  
G23  17921076.102    94175886.397          27.000  
G 7  19783119.690   103960978.469          32.000  
> 2020  3 12  6 23  6.9870000  0  8                     
G27  16098727.994    84599386.631          34.000  
G16                                        25.000  
G 4  17924835.962    94195639.452          33.000  
G 8  16866856.548    88635985.477          35.000  
G 9  17990767.400    94542141.541          37.000  
G26  18875447.076    99191130.795          28.000  
G23  17921192.602    94176501.068          27.000  
G 7  19782848.770   103959559.467          32.000  
> 2020  3 12  6 23  7.7870000  0  8                     
G27  16098690.234    84599187.279          34.000  
G16                                        25.000  
G 4  17925141.482    94197244.663          33.000  
G 8  16866482.388    88634020.525          35.000  
G 9  17990789.720    94542259.345          37.000  
G26  18875783.556    99192895.578          28.000  
G23  17921425.482    94177730.575          27.000  
G 7  19782309.410   103956721.601          32.000  
> 2020  3 12  6 23  8.1870000  0  8                     
G27  16098671.414    84599087.903          34.000  
G16                                        25.000  
G 4  17925294.062    94198047.431          33.000  
G 8  16866295.268    88633038.269          35.000  
G 9  17990800.980    94542318.557          37.000  
G26  18875950.956    99193778.090          28.000  
G23  17921543.002    94178345.646          27.000  
G 7  19782041.090   103955302.852          32.000  
> 2020  3 12  6 23  8.9870000  0  8                     
G27  16098633.554    84598889.326          34.000  
G16                                        25.000  
G 4  17925599.682    94199653.251          32.000  
G 8  16865921.568    88631073.911          35.000  
G 9  17990823.820    94542437.110          37.000  
G26  18876286.176    99195543.067          28.000  
G23  17921777.062    94179575.758          27.000  
G 7  19781501.250   103952465.117          32.000  
> 2020  3 12  6 23 10.1870000  0  8                     
G27  16098577.094    84598591.831          34.000  
G16                                        25.000  
G 4  17926057.782    94202062.041          32.000  
G 8  16865360.828    88628127.646          35.000  
G 9  17990857.860    94542615.345          37.000  
G26  18876787.316    99198190.260          28.000  
G23  17922130.282    94181421.155          27.000  
G 7  19780688.830   103948208.257          32.000  
> 2020  3 12  6 23 10.5870000  0  8                     
G27  16098558.154    84598492.805          34.000  
G16                                        26.000  
G 4  17926210.482    94202865.029          33.000  
G 8  16865174.168    88627145.606          35.000  
G 9  17990869.100    94542674.851          37.000  
G26  18876955.016    99199072.583          28.000  
G23  17922248.302    94182036.389          27.000  
G 7  19780417.230   103946789.211          32.000  
> 2020  3 12  6 23 10.9870000  0  8                     
G27  16098539.294    84598393.779          34.000  
G16                                        26.000  
G 4  17926363.082    94203667.996          33.000  
G 8  16864987.388    88626163.592          35.000  
G 9  17990880.320    94542734.430          37.000  
G26  18877122.996    99199954.869          28.000  
G23  17922365.602    94182651.574          27.000  
G 7  19780147.370   103945370.180          32.000  
> 2020  3 12  6 23 11.3870000  0  8                     
G27  16098520.514    84598294.824          34.000  
G16                                        26.000  
G 4  17926515.822    94204471.010          33.000  
G 8  16864800.508    88625181.613          35.000  
G 9  17990891.660    94542794.001          37.000  
G26  18877290.416    99200837.061          28.000  
G23  17922483.402    94183266.868          27.000  
G 7  19779879.330   103943951.003          32.000  
> 2020  3 12  6 23 11.7870000  0  8                     
G27  16098501.854    84598195.924          34.000  
G16                                        26.000  
G 4  17926668.462    94205274.090          33.000  
G 8  16864613.768    88624199.707          35.000  
G 9  17990902.880    94542853.643          37.000  
G26  18877459.636    99201719.271          28.000  
G23  17922600.902    94183882.088          27.000  
G 7  19779608.330   103942531.812          32.000  
> 2020  3 12  6 23 12.5870000  0  8                     
G27  16098464.154    84597998.195          34.000  
G16                                        26.000  
G 4  17926974.102    94206880.081          33.000  
G 8  16864240.188    88622235.774          35.000  
G 9  17990926.020    94542973.008          37.000  
G26  18877796.136    99203483.439          28.000  
G23  17922837.702    94185112.610          27.000  
G 7  19779069.210   103939693.202          32.000  
> 2020  3 12  6 23 12.9870000  0  8                     
G27  16098445.434    84597899.364          34.000  
G16                                        26.000  
G 4  17927126.862    94207683.016          33.000  
G 8  16864053.468    88621253.813          35.000  
G 9  17990937.520    94543032.666          37.000  
G26  18877964.376    99204365.397          28.000  
G23  17922955.322    94185727.906          28.000  
G 7  19778798.330   103938273.812          32.000  
> 2020  3 12  6 23 13.7870000  0  8                     
G27  16098407.714    84597701.893          34.000  
G16                                        26.000  
G 4  17927432.702    94209289.176          33.000  
G 8  16863679.808    88619290.072          35.000  
G 9  17990960.320    94543152.334          37.000  
G26  18878298.476    99206129.328          28.000  
G23  17923190.182    94186958.507          28.000  
G 7  19778257.590   103935434.963          32.000  
> 2020  3 12  6 23 14.1870000  0  8                     
G27  16098388.994    84597603.348          34.000  
G16                                        26.000  
G 4  17927585.582    94210092.416          33.000  
G 8  16863492.908    88618308.384          35.000  
G 9  17990971.680    94543212.325          37.000  
G26  18878465.476    99207011.357          28.000  
G23  17923308.082    94187574.000          28.000  
G 7  19777986.990   103934015.554          32.000  
> 2020  3 12  6 23 14.9870000  0  8                     
G27  16098351.554    84597406.823          34.000  
G16                                        26.000  
G 4  17927891.442    94211699.272          33.000  
G 8  16863119.028    88616345.433          35.000  
G 9  17990994.620    94543332.897          37.000  
G26  18878800.296    99208775.685          28.000  
G23  17923542.322    94188805.463          28.000  
G 7  19777447.010   103931177.092          32.000  
> 2020  3 12  6 23 15.7870000  0  8                     
G27  16098314.374    84597211.238          34.000  
G16                                        26.000  
G 4  17928197.382    94213306.992          33.000  
G 8  16862745.608    88614383.353          35.000  
G 9  17991017.680    94543454.327          37.000  
G26  18879136.996    99210540.529          27.000  
G23  17923778.082    94190037.737          28.000  
G 7  19776907.210   103928339.083          32.000  
> 2020  3 12  6 23 16.1870000  0  8                     
G27  16098295.794    84597113.710          34.000  
G16                                        26.000  
G 4  17928350.242    94214110.981          33.000  
G 8  16862559.008    88613402.524          35.000  
G 9  17991029.400    94543515.315          37.000  
G26  18879305.896    99211423.038          28.000  
G23  17923895.602    94190654.077          28.000  
G 7  19776637.110   103926920.224          32.000  
> 2020  3 12  6 23 17.3870000  0  8                     
G27  16098239.994    84596821.774          34.000  
G16                                        26.000  
G 4  17928809.362    94216523.594          33.000  
G 8  16861999.388    88610460.637          35.000  
G 9  17991064.120    94543698.918          37.000  
G26  18879809.856    99214070.840          28.000  
G23  17924245.402    94192503.599          28.000  
G 7  19775827.110   103922663.729          32.000  
> 2020  3 12  6 23 17.7870000  0  8                     
G27  16098221.514    84596724.688          34.000  
G16                                        26.000  
G 4  17928962.222    94217327.995          33.000  
G 8  16861812.888    88609480.210          35.000  
G 9  17991075.780    94543760.362          37.000  
G26  18879978.216    99214953.558          28.000  
G23  17924363.722    94193120.343          28.000  
G 7  19775557.190   103921244.961          32.000  
> 2020  3 12  6 23 17.9870000  0  8                     
G27  16098212.414    84596676.310          34.000  
G16                                        26.000  
G 4  17929038.922    94217730.334          33.000  
G 8  16861719.648    88608990.121          35.000  
G 9  17991081.640    94543791.251          37.000  
G26  18880061.116    99215394.946          28.000  
G23  17924421.862    94193428.785          28.000  
G 7  19775422.350   103920535.687          32.000  
> 2020  3 12  6 23 18.9870000  0  8                     
G27  16098166.634    84596435.466          35.000  
G16                                        26.000  
G 4  17929422.122    94219742.947          33.000  
G 8  16861253.348    88606540.756          35.000  
G 9  17991111.220    94543946.680          37.000  
G26  18880482.336    99217602.852          27.000  
G23  17924714.882    94194972.302          28.000  
G 7  19774747.610   103916990.025          32.000  
> 2020  3 12  6 23 19.1870000  0  8                     
G27  16098157.654    84596387.451          34.000  
G16                                        26.000  
G 4  17929498.742    94220145.556          33.000  
G 8  16861160.008    88606051.013          35.000  
G 9  17991117.280    94543977.892          37.000  
G26  18880567.056    99218044.593          28.000  
G23  17924772.982    94195281.096          28.000  
G 7  19774612.590   103916280.963          32.000  
> 2020  3 12  6 23 19.5870000  0  8                     
G27  16098139.354    84596291.523          34.000  
G16                                        26.000  
G 4  17929652.082    94220950.964          33.000  
G 8  16860973.628    88605071.596          35.000  
G 9  17991129.380    94544040.419          37.000  
G26  18880736.336    99218927.949          28.000  
G23  17924890.462    94195898.823          28.000  
G 7  19774342.770   103914862.873          32.000  
> 2020  3 12  6 23 19.7870000  0  8                     
G27  16098130.254    84596243.487          34.000  
G16                                        26.000  
G 4  17929728.802    94221353.600          33.000  
G 8  16860880.288    88604581.824          35.000  
G 9  17991135.120    94544071.673          37.000  
G26  18880820.036    99219369.585          28.000  
G23  17924950.062    94196207.666          28.000  
G 7  19774207.890   103914153.780          32.000  
> 2020  3 12  6 23 19.9870000  0  8                     
G27  16098121.054    84596195.482          34.000  
G16                                        26.000  
G 4  17929805.502    94221756.243          33.000  
G 8  16860787.068    88604092.083          35.000  
G 9  17991140.960    94544102.914          37.000  
G26  18880904.736    99219811.134          28.000  
G23  17925007.982    94196516.478          28.000  
G 7  19774073.090   103913444.657          32.000  
> 2020  3 12  6 23 20.1870000  0  8                     
G27  16098111.834    84596147.456          34.000  
G16                                        26.000  
G 4  17929882.202    94222158.863          33.000  
G 8  16860693.848    88603602.346          35.000  
G 9  17991146.960    94544134.158          37.000  
G26  18880988.176    99220252.746          27.000  
G23  17925066.722    94196825.217          28.000  
G 7  19773938.250   103912735.475          32.000  
> 2020  3 12  6 23 20.7870000  0  8                     
G27  16098084.494    84596003.371          34.000  
G16                                        26.000  
G 4  17930112.202    94223366.649          33.000  
G 8  16860414.468    88602132.956          35.000  
G 9  17991164.800    94544227.821          37.000  
G26  18881237.256    99221577.249          27.000  
G23  17925243.022    94197751.590          28.000  
G 7  19773533.470   103910607.805          32.000  
> 2020  3 12  6 23 20.9870000  0  8                     
G27  16098075.534    84595955.350          34.000  
G16                                        26.000  
G 4  17930188.762    94223769.203          33.000  
G 8  16860321.248    88601643.147          35.000  
G 9  17991170.640    94544259.018          37.000  
G26  18881320.076    99222018.698          27.000  
G23  17925301.562    94198060.308          28.000  
G 7  19773398.530   103909898.481          32.000  
> 2020  3 12  6 23 21.7870000  0  8                     
G27  16098039.094    84595763.363          35.000  
G16                                        26.000  
G 4  17930495.382    94225379.506          33.000  
G 8  16859948.308    88599684.005          35.000  
G 9  17991194.300    94544384.006          37.000  
G26  18881656.216    99223784.382          27.000  
G23  17925536.642    94199295.399          28.000  
G 7  19772858.590   103907061.261          33.000  
> 2020  3 12  6 23 21.9870000  0  8                     
G27  16098029.994    84595715.345          35.000  
G16                                        26.000  
G 4  17930571.922    94225782.060          33.000  
G 8  16859855.028    88599194.185          35.000  
G 9  17991200.280    94544415.229          37.000  
G26  18881740.896    99224225.768          28.000  
G23  17925595.182    94199604.159          28.000  
G 7  19772723.730   103906351.902          32.000  
> 2020  3 12  6 23 22.3870000  0  9                     
G27  16098011.834    84595619.370          35.000  
G16                                        26.000  
G 4  17930725.122    94226587.137          33.000  
G 8  16859668.648    88598214.576          35.000  
G 9  17991212.120    94544477.698          37.000  
G26  18881910.076    99225108.464          28.000  
G31                              1         19.000  
G23  17925712.662    94200221.636          29.000  
G 7  19772453.870   103904933.105          33.000  
> 2020  3 12  6 23 23.3870000  0  9                     
G27  16097966.334    84595379.467          35.000  
G16                                        27.000  
G 4  17931108.262    94228599.884          33.000  
G 8  16859202.948    88595765.598          34.000  
G 9  17991242.060    94544634.091          37.000  
G26  18882330.616    99227314.925          28.000  
G31                                        19.000  
G23  17926007.442    94201765.429          29.000  
G 7  19771779.050   103901385.838          32.000  
> 2020  3 12  6 23 23.7870000  0  9                     
G27  16097947.974    84595283.686          35.000  
G16                                        26.000  
G 4  17931261.462    94229405.092          33.000  
G 8  16859016.508    88594786.065          34.000  
G 9  17991253.880    94544696.699          37.000  
G26  18882499.136    99228197.427          28.000  
G31                                        19.000  
G23  17926125.202    94202382.998          29.000  
G 7  19771508.850   103899966.847          32.000  
> 2020  3 12  6 23 24.5870000  0  9                     
G27  16097911.554    84595092.271          35.000  
G16                                        26.000  
G 4  17931568.042    94231015.563          33.000  
G 8  16858643.748    88592827.266          34.000  
G 9  17991277.680    94544822.250          37.000  
G26  18882834.996    99229962.464          28.000  
G31                                        19.000  
G23  17926361.982    94203618.320          29.000  
G 7  19770968.890   103897128.860          32.000  
> 2020  3 12  6 23 25.9870000  0  9                     
G27  16097848.054    84594757.746          35.000  
G16                                        27.000  
G 4  17932104.402    94233833.965          33.000  
G 8  16857991.268    88589399.527          34.000  
G 9  17991319.760    94545042.375          37.000  
G26  18883423.236    99233050.841          28.000  
G31                                        19.000  
G23  17926773.342    94205780.347          29.000  
G 7  19770023.770   103892161.985          32.000  
> 2020  3 12  6 23 26.1870000  0  9                     
G27  16097839.094    84594709.896          35.000  
G16                                        26.000  
G 4  17932180.922    94234236.495          33.000  
G 8  16857897.928    88588909.739          34.000  
G 9  17991325.620    94545073.759          37.000  
G26  18883507.116    99233491.864          28.000  
G31                                        19.000  
G23  17926832.562    94206089.122          29.000  
G 7  19769888.770   103891452.226          32.000  
> 2020  3 12  6 23 26.9870000  0  9                     
G27  16097802.814    84594518.563          35.000  
G16                                        26.000  
G 4  17932487.462    94235846.685          33.000  
G 8  16857524.928    88586950.725          34.000  
G 9  17991349.680    94545199.335          37.000  
G26  18883841.036    99235255.927          28.000  
G31                                        19.000  
G23  17927067.302    94207324.202          29.000  
G 7  19769348.470   103888613.217          32.000  
> 2020  3 12  6 23 27.3870000  0  9                     
G27  16097784.634    84594423.305          35.000  
G16                                        27.000  
G 4  17932640.642    94236652.146          33.000  
G 8  16857338.588    88585971.594          35.000  
G 9  17991361.540    94545262.530          37.000  
G26  18884009.956    99236138.219          28.000  
G31                                        19.000  
G23  17927185.402    94207942.147          29.000  
G 7  19769078.310   103887193.945          32.000  
> 2020  3 12  6 23 27.9870000  0  9                     
G27  16097757.554    84594280.949          35.000  
G16                                        27.000  
G 4  17932870.482    94237860.738          33.000  
G 8  16857059.088    88584503.345          34.000  
G 9  17991379.700    94545357.827          37.000  
G26  18884259.616    99237461.965          28.000  
G31                                        20.000  
G23  17927361.382    94208869.448          29.000  
G 7  19768673.330   103885065.382          32.000  
> 2020  3 12  6 23 28.1870000  0  9                     
G27  16097748.534    84594233.651          35.000  
G16                                        27.000  
G 4  17932947.182    94238263.731          33.000  
G 8  16856965.848    88584014.080          34.000  
G 9  17991385.820    94545389.728          37.000  
G26  18884342.976    99237903.280          28.000  
G31                                        20.000  
G23  17927420.282    94209178.699          29.000  
G 7  19768538.230   103884355.937          32.000  
> 2020  3 12  6 23 28.5870000  0  9                     
G27  16097730.594    84594139.152          35.000  
G16                                        27.000  
G 4  17933100.582    94239069.885          33.000  
G 8  16856779.688    88583035.655          34.000  
G 9  17991397.800    94545453.716          37.000  
G26  18884511.396    99238786.095          28.000  
G31                                        20.000  
G23  17927538.922    94209797.317          29.000  
G 7  19768268.170   103882937.230          32.000  
> 2020  3 12  6 23 28.9870000  0  9                     
G27  16097712.554    84594044.903          35.000  
G16                                        27.000  
G 4  17933253.862    94239876.181          33.000  
G 8  16856593.548    88582057.433          34.000  
G 9  17991410.000    94545517.888          37.000  
G26  18884680.356    99239669.022          28.000  
G31                                        20.000  
G23  17927656.642    94210416.100          29.000  
G 7  19767998.350   103881518.588          32.000  
> 2020  3 12  6 23 29.3870000  0  9                     
G27  16097694.594    84593950.722          35.000  
G16                                        27.000  
G 4  17933407.282    94240682.553          33.000  
G 8  16856407.388    88581079.271          34.000  
G 9  17991422.240    94545582.165          37.000  
G26  18884847.776    99240551.931          28.000  
G31                                        20.000  
G23  17927773.602    94211034.954          29.000  
G 7  19767728.210   103880099.944          32.000  
> 2020  3 12  6 23 32.1870000  0  8                     
G27  16097569.734    84593294.158          35.000  
G16                                        26.000  
G 4  17934481.882    94246328.876          33.000  
G 8  16855104.808    88574234.244          34.000  
G 9  17991508.460    94546034.584          37.000  
G26  18886023.896    99246732.349          28.000  
G23  17928599.762    94215369.010          29.000  
G 7  19765838.790   103870169.404          32.000  
> 2020  3 12  6 23 32.9870000  0  8                     
G27  16097534.594    84593107.901          35.000  
G16                                        26.000  
G 4  17934789.162    94247943.186          33.000  
G 8  16854733.088    88572279.651          34.000  
G 9  17991533.500    94546165.148          37.000  
G26  18886361.276    99248498.709          28.000  
G23  17928831.862    94216608.345          30.000  
G 7  19765299.050   103867332.567          32.000  
> 2020  3 12  6 23 34.1870000  0  8                     
G27  16097481.794    84592829.421          35.000  
G16                                        26.000  
G 4  17935250.022    94250365.229          33.000  
G 8  16854175.248    88569348.511          34.000  
G 9  17991571.060    94546361.878          37.000  
G26  18886866.836    99251148.445          28.000  
G23  17929185.882    94218468.120          29.000  
G 7  19764489.650   103863077.447          32.000  
> 2020  3 12  6 23 34.9870000  0  8                     
G27  16097446.714    84592644.310          35.000  
G16                                        26.000  
G 4  17935557.582    94251980.330          33.000  
G 8  16853803.188    88567394.881          34.000  
G 9  17991596.340    94546493.564          37.000  
G26  18887203.394    99252915.006          28.000  
G23  17929421.482    94219708.366          29.000  
G 7  19763949.830   103860240.868          32.000  
> 2020  3 12  6 23 36.9870000  0  8                     
G27  16097358.854    84592183.767          35.000  
G16                                        26.000  
G 4  17936326.242    94256019.773          33.000  
G 8  16852874.428    88562512.687          34.000  
G 9  17991659.760    94546825.046          37.000  
G26  18888047.734    99257332.205          28.000  
G23  17930017.602    94222810.916          30.000  
G 7  19762600.250   103853149.899          33.000  
> 2020  3 12  6 23 37.7870000  0  8                     
G27  16097324.134    84592000.432          35.000  
G16                                        26.000  
G 4  17936633.742    94257636.238          33.000  
G 8  16852502.788    88560560.528          34.000  
G 9  17991685.160    94546958.448          37.000  
G26  18888383.534    99259099.253          28.000  
G23  17930248.822    94224052.573          29.000  
G 7  19762060.810   103850313.728          33.000  
> 2020  3 12  6 23 38.1870000  0  8                     
G27  16097306.954    84591909.028          35.000  
G16                                        26.000  
G 4  17936787.722    94258444.644          33.000  
G 8  16852317.248    88559584.666          34.000  
G 9  17991697.920    94547025.424          37.000  
G26  18888550.114    99259982.945          28.000  
G23  17930366.962    94224673.647          29.000  
G 7  19761790.970   103848895.738          33.000  
> 2020  3 12  6 23 38.9870000  0  8                     
G27  16097272.174    84591726.518          35.000  
G16                                        25.000  
G 4  17937095.542    94260061.789          33.000  
G 8  16851945.648    88557633.261          34.000  
G 9  17991723.500    94547159.708          37.000  
G26  18888887.414    99261750.358          28.000  
G23  17930604.902    94225916.056          29.000  
G 7  19761251.070   103846059.811          33.000  
> 2020  3 12  6 23 40.1870000  0  8                     
G27  16097220.254    84591453.897          35.000  
G16                                        25.000  
G 4  17937557.222    94262488.288          33.000  
G 8  16851388.888    88554707.097          34.000  
G 9  17991762.320    94547362.190          37.000  
G26  18889392.034    99264401.846          28.000  
G23  17930953.062    94227780.503          29.000  
G 7  19760441.750   103841806.395          33.000  
> 2020  3 12  6 23 40.9870000  0  8                     
G27  16097185.694    84591272.625          35.000  
G16                                        25.000  
G 4  17937865.002    94264106.222          33.000  
G 8  16851017.788    88552756.640          34.000  
G 9  17991787.820    94547497.636          37.000  
G26  18889727.774    99266169.530          28.000  
G23  17931191.122    94229023.752          29.000  
G 7  19759902.210   103838970.726          33.000  
> 2020  3 12  6 23 41.3870000  0  8                     
G27  16097168.514    84591182.139          35.000  
G16                                        25.000  
G 4  17938019.042    94264915.374          33.000  
G 8  16850832.188    88551781.563          34.000  
G 9  17991800.700    94547565.554          37.000  
G26  18889896.694    99267053.435          28.000  
G23  17931309.142    94229645.612          29.000  
G 7  19759632.350   103837552.936          33.000  
> 2020  3 12  6 23 41.7870000  0  8                     
G27  16097151.354    84591091.810          35.000  
G16                                        25.000  
G 4  17938173.002    94265724.605          33.000  
G 8  16850646.728    88550806.615          34.000  
G 9  17991813.580    94547633.555          37.000  
G26  18890064.454    99267937.311          28.000  
G23  17931429.082    94230267.509          29.000  
G 7  19759362.330   103836135.159          33.000  
> 2020  3 12  6 23 42.9870000  0  8                     
G27  16097100.014    84590821.333          35.000  
G16                                        25.000  
G 4  17938634.862    94268152.591          33.000  
G 8  16850089.868    88547882.056          34.000  
G 9  17991852.660    94547838.123          37.000  
G26  18890569.634    99270589.081          28.000  
G23  17931783.662    94232133.619          29.000  
G 7  19758553.130   103831881.841          33.000  
> 2020  3 12  6 23 43.3870000  0  8                     
G27  16097082.914    84590731.320          35.000  
G16                                        25.000  
G 4  17938789.022    94268962.003          33.000  
G 8  16849904.268    88546907.339          34.000  
G 9  17991865.540    94547906.472          37.000  
G26  18890738.394    99271472.983          28.000  
G23  17931900.582    94232755.776          29.000  
G 7  19758283.110   103830464.019          33.000  
> 2020  3 12  6 23 43.7870000  0  8                     
G27  16097065.794    84590641.380          35.000  
G16                                        25.000  
G 4  17938943.102    94269771.436          33.000  
G 8  16849718.708    88545932.667          34.000  
G 9  17991878.600    94547974.880          37.000  
G26  18890907.374    99272356.817          28.000  
G23  17932024.442    94233377.938          30.000  
G 7  19758013.490   103829046.200          33.000  
> 2020  3 12  6 23 44.1870000  0  8                     
G27  16097048.834    84590551.537          35.000  
G16                                        25.000  
G 4  17939097.222    94270580.951          33.000  
G 8  16849533.088    88544958.094          34.000  
G 9  17991891.720    94548043.387          37.000  
G26  18891074.634    99273240.737          28.000  
G23  17932140.822    94234000.116          29.000  
G 7  19757743.750   103827628.402          33.000  
> 2020  3 12  6 23 44.9870000  0  8                     
G27  16097014.754    84590372.180          35.000  
G16                                        25.000  
G 4  17939405.182    94272200.238          33.000  
G 8  16849162.188    88543009.149          34.000  
G 9  17991917.740    94548180.727          37.000  
G26  18891411.054    99275008.489          28.000  
G23  17932379.302    94235244.918          29.000  
G 7  19757204.310   103824792.756          33.000  
> 2020  3 12  6 23 45.7870000  0  8                     
G27  16096980.734    84590193.264          36.000  
G16                                        25.000  
G 4  17939713.422    94273819.840          33.000  
G 8  16848791.728    88541060.579          34.000  
G 9  17991944.000    94548318.496          37.000  
G26  18891747.474    99276776.359          28.000  
G23  17932613.522    94236489.959          29.000  
G 7  19756664.610   103821957.199          33.000  
> 2020  3 12  6 23 46.1870000  0  8                     
G27  16096963.834    84590104.071          36.000  
G16                                        25.000  
G 4  17939867.482    94274629.801          33.000  
G 8  16848606.348    88540086.471          34.000  
G 9  17991956.900    94548387.592          37.000  
G26  18891914.934    99277660.367          28.000  
G23  17932731.902    94237112.736          30.000  
G 7  19756394.910   103820539.506          33.000  
> 2020  3 12  6 23 46.5870000  0  8                     
G27  16096946.994    84590014.958          35.000  
G16                                        25.000  
G 4  17940021.882    94275439.904          33.000  
G 8  16848420.868    88539112.529          34.000  
G 9  17991969.960    94548456.835          37.000  
G26  18892083.834    99278544.508          28.000  
G23  17932852.542    94237735.529          30.000  
G 7  19756125.310   103819121.889          33.000  
> 2020  3 12  6 23 46.7870000  0  8                     
G27  16096938.574    84589970.509          36.000  
G16                                        25.000  
G 4  17940099.042    94275845.007          33.000  
G 8  16848328.308    88538625.608          34.000  
G 9  17991976.460    94548491.523          37.000  
G26  18892167.434    99278986.585          28.000  
G23  17932912.342    94238047.058          30.000  
G 7  19755990.390   103818413.095          33.000  
> 2020  3 12  6 23 46.9870000  0  8                     
G27  16096930.194    84589926.122          36.000  
G16                                        25.000  
G 4  17940176.202    94276250.212          33.000  
G 8  16848235.788    88538138.774          34.000  
G 9  17991983.160    94548526.306          37.000  
G26  18892251.294    99279428.691          28.000  
G23  17932970.642    94238358.626          29.000  
G 7  19755855.430   103817704.338          33.000  
> 2020  3 12  6 23 48.5870000  0  8                     
G27  16096863.034    84589573.181          36.000  
G16                                        25.000  
G 4  17940793.562    94279493.499          33.000  
G 8  16847495.308    88534245.993          34.000  
G 9  17992036.300    94548806.652          37.000  
G26  18892925.874    99282967.148          28.000  
G23  17933445.482    94240853.045          30.000  
G 7  19754776.690   103812035.852          33.000  
> 2020  3 12  6 23 48.9870000  0  8                     
G27  16096846.394    84589485.314          36.000  
G16                                        25.000  
G 4  17940947.882    94280304.593          33.000  
G 8  16847310.168    88533273.089          34.000  
G 9  17992049.660    94548877.056          37.000  
G26  18893094.194    99283851.886          28.000  
G23  17933562.662    94241476.978          30.000  
G 7  19754507.110   103810618.861          33.000  
> 2020  3 12  6 23 49.7870000  0  8                     
G27  16096812.954    84589309.748          36.000  
G16                                        25.000  
G 4  17941256.602    94281926.904          33.000  
G 8  16846939.728    88531327.436          34.000  
G 9  17992076.660    94549018.138          37.000  
G26  18893430.654    99285621.272          28.000  
G23  17933799.142    94242724.820          30.000  
G 7  19753967.730   103807784.718          33.000  
> 2020  3 12  6 23 50.1870000  0  8                     
G27  16096796.334    84589222.105          36.000  
G16                                        25.000  
G 4  17941411.082    94282738.168          33.000  
G 8  16846754.708    88530354.729          34.000  
G 9  17992090.100    94549088.800          37.000  
G26  18893598.874    99286505.994          28.000  
G23  17933920.542    94243348.981          30.000  
G 7  19753697.970   103806367.671          33.000  
> 2020  3 12  6 23 50.9870000  0  8                     
G27  16096762.974    84589046.918          36.000  
G16                                        25.000  
G 4  17941719.882    94284360.600          33.000  
G 8  16846384.708    88528409.283          34.000  
G 9  17992117.060    94549230.203          37.000  
G26  18893932.894    99288275.184          28.000  
G23  17934159.982    94244597.076          30.000  
G 7  19753158.630   103803533.363          33.000  
> 2020  3 12  6 23 51.7870000  0  8                     
G27  16096729.594    84588871.996          36.000  
G16                                        25.000  
G 4  17942028.502    94285983.226          33.000  
G 8  16846014.628    88526464.074          35.000  
G 9  17992143.940    94549371.870          37.000  
G26  18894270.354    99290044.339          28.000  
G23  17934393.942    94245845.347          30.000  
G 7  19752619.430   103800698.930          33.000  
> 2020  3 12  6 23 51.9870000  0  8                     
G27  16096721.354    84588828.293          36.000  
G16                                        25.000  
G 4  17942105.702    94286388.923          33.000  
G 8  16845922.168    88525977.791          35.000  
G 9  17992150.640    94549407.331          37.000  
G26  18894353.874    99290486.550          28.000  
G23  17934455.462    94246157.443          30.000  
G 7  19752484.490   103799990.339          33.000  
> 2020  3 12  6 23 52.1870000  0  8                     
G27  16096712.974    84588784.657          36.000  
G16                                        25.000  
G 4  17942182.802    94286794.625          33.000  
G 8  16845829.648    88525491.546          34.000  
G 9  17992157.340    94549442.855          37.000  
G26  18894437.994    99290928.848          28.000  
G23  17934516.762    94246469.590          30.000  
G 7  19752349.670   103799281.745          33.000  
> 2020  3 12  6 23 52.5870000  0  8                     
G27  16096696.514    84588697.529          36.000  
G16                                        25.000  
G 4  17942337.182    94287606.141          33.000  
G 8  16845644.528    88524519.196          34.000  
G 9  17992171.040    94549513.995          37.000  
G26  18894606.414    99291813.522          28.000  
G23  17934636.602    94247094.004          30.000  
G 7  19752080.130   103797864.582          33.000  
> 2020  3 12  6 23 52.9870000  0  8                     
G27  16096679.934    84588610.553          36.000  
G16                                        25.000  
G 4  17942491.602    94288417.887          33.000  
G 8  16845459.548    88523546.988          35.000  
G 9  17992184.440    94549585.293          37.000  
G26  18894775.474    99292698.318          28.000  
G23  17934753.502    94247718.557          30.000  
G 7  19751810.370   103796447.562          33.000  
> 2020  3 12  6 23 53.7870000  0  8                     
G27  16096646.934    84588437.026          36.000  
G16                                        25.000  
G 4  17942800.882    94290041.561          33.000  
G 8  16845089.688    88521602.980          35.000  
G 9  17992211.540    94549728.354          37.000  
G26  18895114.934    99294467.851          28.000  
G23  17934993.422    94248967.994          30.000  
G 7  19751271.350   103793613.590          33.000  
> 2020  3 12  6 23 54.5870000  0  8                     
G27  16096614.134    84588263.962          36.000  
G16                                        25.000  
G 4  17943109.942    94291665.604          33.000  
G 8  16844719.848    88519659.339          34.000  
G 9  17992238.580    94549871.858          37.000  
G26  18895451.994    99296237.647          28.000  
G23  17935228.442    94250217.781          30.000  
G 7  19750732.170   103790779.728          33.000  
> 2020  3 12  6 23 54.9870000  0  8                     
G27  16096597.794    84588177.680          36.000  
G16                                        25.000  
G 4  17943264.642    94292477.783          33.000  
G 8  16844535.068    88518687.725          35.000  
G 9  17992252.420    94549943.823          37.000  
G26  18895621.734    99297122.561          28.000  
G23  17935347.902    94250842.796          30.000  
G 7  19750462.590   103789362.839          33.000  
> 2020  3 12  6 23 55.7870000  0  8                     
G27  16096565.214    84588005.467          36.000  
G16                                        24.000  
G 4  17943573.982    94294102.487          33.000  
G 8  16844165.388    88516744.804          35.000  
G 9  17992279.740    94550088.142          36.000  
G26  18895957.674    99298892.528          28.000  
G23  17935585.922    94252093.303          30.000  
G 7  19749923.510   103786529.290          33.000  
> 2020  3 12  6 23 56.1870000  0  8                     
G27  16096548.574    84587919.366          36.000  
G16                                        25.000  
G 4  17943728.622    94294914.784          33.000  
G 8  16843980.588    88515773.314          35.000  
G 9  17992293.420    94550160.333          36.000  
G26  18896125.974    99299777.413          28.000  
G23  17935704.742    94252718.536          31.000  
G 7  19749654.010   103785112.314          33.000  
> 2020  3 12  6 23 56.9870000  0  8                     
G27  16096515.714    84587747.284          36.000  
G16                                        25.000  
G 4  17944037.882    94296539.431          33.000  
G 8  16843610.888    88513830.417          35.000  
G 9  17992320.920    94550304.784          36.000  
G26  18896462.694    99301547.007          28.000  
G23  17935944.382    94253968.982          31.000  
G 7  19749114.890   103782278.276          33.000  
> 2020  3 12  6 23 57.7870000  0  8                     
G27  16096482.954    84587575.823          36.000  
G16                                        25.000  
G 4  17944347.362    94298164.530          33.000  
G 8  16843241.148    88511888.009          35.000  
G 9  17992348.480    94550449.828          36.000  
G26  18896798.834    99303316.929          28.000  
G23  17936182.922    94255219.938          31.000  
G 7  19748575.570   103779444.453          33.000  
> 2020  3 12  6 23 58.1870000  0  8                     
G27  16096466.554    84587490.353          35.000  
G16                                        25.000  
G 4  17944502.162    94298977.323          33.000  
G 8  16843056.408    88510917.059          35.000  
G 9  17992362.300    94550522.597          36.000  
G26  18896965.714    99304201.922          28.000  
G23  17936300.222    94255845.645          31.000  
G 7  19748305.850   103778027.685          33.000  
> 2020  3 12  6 23 58.5870000  0  8                     
G27  16096450.394    84587405.124          35.000  
G16                                        24.000  
G 4  17944656.902    94299790.325          33.000  
G 8  16842871.608    88509946.349          35.000  
G 9  17992376.160    94550595.624          36.000  
G26  18897135.714    99305087.143          28.000  
G23  17936419.982    94256471.635          31.000  
G 7  19748036.330   103776611.075          33.000  
> 2020  3 12  6 23 58.9870000  0  8                     
G27  16096434.254    84587320.223          35.000  
G16                                        24.000  
G 4  17944811.442    94300603.570          33.000  
G 8  16842687.228    88508975.912          34.000  
G 9  17992389.980    94550668.971          36.000  
G26  18897304.914    99305972.559          28.000  
G23  17936538.302    94257097.857          31.000  
G 7  19747766.750   103775194.672          33.000  
> 2020  3 12  6 23 59.3870000  0  8                     
G27  16096418.134    84587235.468          35.000  
G16                                        24.000  
G 4  17944966.182    94301416.968          33.000  
G 8  16842502.608    88508005.607          34.000  
G 9  17992404.140    94550742.444          36.000  
G26  18897474.114    99306858.064          28.000  
G23  17936659.902    94257724.149          31.000  
G 7  19747497.110   103773778.293          33.000  
> 2020  3 12  6 23 59.7870000  0  8                     
G27  16096402.034    84587150.867          35.000  
G16                                        24.000  
G 4  17945120.982    94302230.453          33.000  
G 8  16842318.028    88507035.433          34.000  
G 9  17992418.040    94550816.086          36.000  
G26  18897642.174    99307743.579          28.000  
G23  17936777.902    94258350.639          31.000  
G 7  19747227.650   103772362.013          33.000  
> 2020  3 12  6 24  0.5870000  0  8                     
G27  16096369.834    84586982.033          35.000  
G16                                        23.000  
G 4  17945430.382    94303857.730          33.000  
G 8  16841949.008    88505095.400          35.000  
G 9  17992446.280    94550963.723          36.000  
G26  18897977.894    99309514.792          29.000  
G23  17937016.042    94259603.870          31.000  
G 7  19746688.590   103769529.486          33.000  
> 2020  3 12  6 24  0.9870000  0  8                     
G27  16096353.714    84586897.734          35.000  
G16                                        23.000  
G 4  17945585.302    94304671.456          33.000  
G 8  16841764.528    88504125.449          35.000  
G 9  17992460.440    94551037.664          36.000  
G26  18898147.314    99310400.444          29.000  
G23  17937137.262    94260230.578          31.000  
G 7  19746418.890   103768113.238          33.000  
> 2020  3 12  6 24  1.7870000  0  8                     
G27  16096321.514    84586729.347          35.000  
G16                                        23.000  
G 4  17945894.902    94306299.033          33.000  
G 8  16841395.548    88502185.729          35.000  
G 9  17992488.440    94551185.725          36.000  
G26  18898483.474    99312171.527          29.000  
G23  17937374.042    94261484.138          31.000  
G 7  19745879.710   103765280.572          33.000  
> 2020  3 12  6 24  2.1870000  0  8                     
G27  16096305.614    84586645.222          35.000  
G16                                        23.000  
G 4  17946046.802    94307112.833          33.000  
G 8  16841210.908    88501215.917          34.000  
G 9  17992502.700    94551259.844          36.000  
G26  18898652.914    99313056.969          29.000  
G23  17937494.942    94262110.887          31.000  
G 7  19745610.210   103763864.198          33.000  
> 2020  3 12  6 24  2.9870000  0  8                     
G27  16096273.434    84586477.266          35.000  
G16                                        23.000  
G 4  17946359.742    94308740.659          33.000  
G 8  16840841.768    88499276.544          34.000  
G 9  17992530.800    94551408.362          36.000  
G26  18898989.414    99314828.021          29.000  
G23  17937733.062    94263364.776          31.000  
G 7  19745070.950   103761031.492          33.000  
> 2020  3 12  6 24  3.7870000  0  8                     
G27  16096241.154    84586309.310          35.000  
G16                                        23.000  
G 4  17946667.022    94310368.254          33.000  
G 8  16840473.008    88497336.981          35.000  
G 9  17992559.120    94551556.812          36.000  
G26  18899327.434    99316598.619          29.000  
G23  17937970.302    94264618.409          31.000  
G 7  19744532.070   103758198.321          33.000  
> 2020  3 12  6 24  4.1870000  0  8                     
G27  16096225.194    84586225.363          35.000  
G16                                        24.000  
G 4  17946823.322    94311182.072          33.000  
G 8  16840288.508    88496367.240          35.000  
G 9  17992573.340    94551631.092          36.000  
G26  18899496.114    99317483.798          29.000  
G23  17938088.882    94265245.293          31.000  
G 7  19744262.630   103756781.661          33.000  
> 2020  3 12  6 24  4.5870000  0  8                     
G27  16096209.054    84586141.595          35.000  
G16                                        24.000  
G 4  17946974.202    94311996.072          33.000  
G 8  16840103.988    88495397.647          35.000  
G 9  17992587.600    94551705.534          36.000  
G26  18899664.114    99318369.114          29.000  
G23  17938206.402    94265872.305          32.000  
G 7  19743992.970   103755365.051          33.000  
> 2020  3 12  6 24  4.9870000  0  8                     
G27  16096193.134    84586058.059          35.000  
G16                                        24.000  
G 4  17947130.662    94312810.232          33.000  
G 8  16839919.728    88494428.285          34.000  
G 9  17992601.840    94551780.224          37.000  
G26  18899832.934    99319254.598          29.000  
G23  17938323.522    94266499.523          31.000  
G 7  19743723.250   103753948.621          33.000  
> 2020  3 12  6 24  5.3870000  0  8                     
G27  16096177.334    84585974.703          35.000  
G16                                        24.000  
G 4  17947288.742    94313624.489          33.000  
G 8  16839735.128    88493459.067          34.000  
G 9  17992615.920    94551855.040          36.000  
G26  18900001.134    99320140.105          29.000  
G23  17938442.902    94267126.874          31.000  
G 7  19743453.690   103752532.216          33.000  
> 2020  3 12  6 24  5.7870000  0  8                     
G27  16096161.454    84585891.456          35.000  
G16                                        24.000  
G 4  17947443.602    94314438.920          33.000  
G 8  16839550.728    88492489.928          35.000  
G 9  17992630.280    94551930.014          36.000  
G26  18900169.534    99321025.631          29.000  
G23  17938563.022    94267754.273          31.000  
G 7  19743184.210   103751115.876          33.000  
> 2020  3 12  6 24  6.5870000  0  8                     
G27  16096129.714    84585725.168          35.000  
G16                                        24.000  
G 4  17947753.262    94316067.792          33.000  
G 8  16839182.028    88490551.826          35.000  
G 9  17992658.880    94552080.121          37.000  
G26  18900505.374    99322796.634          29.000  
G23  17938804.702    94269009.301          31.000  
G 7  19742645.010   103748283.086          33.000  
> 2020  3 12  6 24  6.9870000  0  8                     
G27  16096113.954    84585642.170          35.000  
G16                                        24.000  
G 4  17947907.782    94316882.262          33.000  
G 8  16838997.688    88489582.861          35.000  
G 9  17992673.220    94552155.316          37.000  
G26  18900674.774    99323682.154          29.000  
G23  17938923.422    94269636.900          31.000  
G 7  19742375.430   103746866.652          33.000  
> 2020  3 12  6 24  7.7870000  0  8                     
G27  16096082.574    84585476.387          35.000  
G16                                        24.000  
G 4  17948216.542    94318511.533          33.000  
G 8  16838629.028    88487645.143          35.000  
G 9  17992701.980    94552305.943          36.000  
G26  18901010.794    99325453.177          29.000  
G23  17939162.882    94270892.275          31.000  
G 7  19741836.370   103744033.838          33.000  
> 2020  3 12  6 24  8.1870000  0  8                     
G27  16096066.794    84585393.720          35.000  
G16                                        25.000  
G 4  17948371.542    94319326.326          33.000  
G 8  16838444.768    88486676.464          35.000  
G 9  17992716.240    94552381.448          36.000  
G26  18901179.534    99326338.680          29.000  
G23  17939282.502    94271520.120          31.000  
G 7  19741566.790   103742617.459          32.000  
> 2020  3 12  6 24  8.9870000  0  8                     
G27  16096035.274    84585228.759          35.000  
G16                                        25.000  
G 4  17948682.302    94320956.107          33.000  
G 8  16838076.448    88484739.437          35.000  
G 9  17992744.800    94552532.848          36.000  
G26  18901513.174    99328109.958          29.000  
G23  17939521.202    94272776.129          31.000  
G 7  19741027.730   103739784.858          33.000  
> 2020  3 12  6 24  9.7870000  0  8                     
G27  16096004.174    84585064.182          35.000  
G16                                        25.000  
G 4  17948992.362    94322586.135          33.000  
G 8  16837707.828    88482802.662          35.000  
G 9  17992773.620    94552684.619          37.000  
G26  18901851.294    99329881.189          29.000  
G23  17939760.242    94274032.440          31.000  
G 7  19740488.530   103736952.260          32.000  
> 2020  3 12  6 24 10.1870000  0  8                     
G27  16095988.714    84584981.993          35.000  
G16                                        25.000  
G 4  17949147.322    94323401.225          32.000  
G 8  16837523.448    88481834.385          35.000  
G 9  17992788.240    94552760.627          36.000  
G26  18902019.414    99330766.809          29.000  
G23  17939879.782    94274660.669          31.000  
G 7  19740219.150   103735535.939          32.000  
> 2020  3 12  6 24 10.3870000  0  8                     
G27  16095980.994    84584940.888          35.000  
G16                                        26.000  
G 4  17949224.802    94323808.790          32.000  
G 8  16837431.168    88481350.207          35.000  
G 9  17992795.420    94552798.587          36.000  
G26  18902103.574    99331209.585          29.000  
G23  17939939.442    94274974.770          31.000  
G 7  19740084.430   103734827.702          33.000  
> 2020  3 12  6 24 10.5870000  0  8                     
G27  16095972.974    84584899.820          35.000  
G16                                        25.000  
G 4  17949302.382    94324216.384          32.000  
G 8  16837339.168    88480866.063          35.000  
G 9  17992802.680    94552836.623          36.000  
G26  18902187.454    99331652.367          29.000  
G23  17939999.322    94275288.866          31.000  
G 7  19739949.670   103734119.510          33.000  
> 2020  3 12  6 24 10.9870000  0  8                     
G27  16095957.294    84584817.671          35.000  
G16                                        25.000  
G 4  17949457.542    94325031.390          32.000  
G 8  16837154.848    88479897.760          35.000  
G 9  17992817.140    94552912.621          36.000  
G26  18902355.214    99332537.827          29.000  
G23  17940118.702    94275917.077          31.000  
G 7  19739679.890   103732703.017          33.000  
> 2020  3 12  6 24 11.3870000  0  8                     
G27  16095941.634    84584735.576          35.000  
G16                                        25.000  
G 4  17949612.502    94325846.491          32.000  
G 8  16836970.568    88478929.522          35.000  
G 9  17992831.420    94552988.735          36.000  
G26  18902527.614    99333423.227          29.000  
G23  17940238.162    94276545.316          31.000  
G 7  19739410.310   103731286.473          33.000  
> 2020  3 12  6 24 11.7870000  0  8                     
G27  16095925.894    84584653.595          35.000  
G16                                        26.000  
G 4  17949767.462    94326661.617          32.000  
G 8  16836786.448    88477961.308          35.000  
G 9  17992845.880    94553064.868          36.000  
G26  18902695.014    99334308.624          29.000  
G23  17940357.682    94277173.611          31.000  
G 7  19739140.910   103729869.994          32.000  
> 2020  3 12  6 24 12.5870000  0  8                     
G27  16095894.694    84584489.709          35.000  
G16                                        26.000  
G 4  17950077.542    94328291.958          32.000  
G 8  16836417.968    88476024.956          34.000  
G 9  17992875.000    94553217.332          36.000  
G26  18903029.454    99336079.329          28.000  
G23  17940596.822    94278430.211          31.000  
G 7  19738601.390   103727036.749          33.000  
> 2020  3 12  6 24 12.9870000  0  8                     
G27  16095879.114    84584407.864          35.000  
G16                                        26.000  
G 4  17950232.502    94329107.145          32.000  
G 8  16836233.688    88475056.895          34.000  
G 9  17992889.480    94553293.648          36.000  
G26  18903201.934    99336964.648          29.000  
G23  17940716.582    94279058.640          31.000  
G 7  19738331.710   103725620.107          33.000  
> 2020  3 12  6 24 13.5870000  0  8                     
G27  16095855.594    84584285.314          35.000  
G16                                        26.000  
G 4  17950465.302    94330330.113          32.000  
G 8  16835957.268    88473604.902          34.000  
G 9  17992911.120    94553408.318          36.000  
G26  18903452.614    99338292.651          28.000  
G23  17940898.202    94280001.304          31.000  
G 7  19737927.370   103723495.108          33.000  
> 2020  3 12  6 24 13.7870000  0  8                     
G27  16095847.834    84584244.548          35.000  
G16                                        26.000  
G 4  17950542.922    94330737.833          32.000  
G 8  16835865.088    88473120.974          34.000  
G 9  17992918.400    94553446.614          36.000  
G26  18903536.774    99338735.335          28.000  
G23  17940958.462    94280315.636          31.000  
G 7  19737792.650   103722786.850          33.000  
> 2020  3 12  6 24 13.9870000  0  8                     
G27  16095839.954    84584203.740          35.000  
G16                                        26.000  
G 4  17950620.482    94331145.521          32.000  
G 8  16835772.928    88472637.051          34.000  
G 9  17992925.680    94553484.910          36.000  
G26  18903621.814    99339178.006          29.000  
G23  17941018.582    94280629.924          31.000  
G 7  19737657.890   103722078.500          33.000  
> 2020  3 12  6 24 14.1870000  0  8                     
G27  16095832.174    84584162.972          35.000  
G16                                        26.000  
G 4  17950698.082    94331553.259          32.000  
G 8  16835680.808    88472153.085          34.000  
G 9  17992932.920    94553523.235          36.000  
G26  18903705.274    99339620.701          29.000  
G23  17941076.562    94280944.246          31.000  
G 7  19737523.110   103721370.197          33.000  
> 2020  3 12  6 24 14.7870000  0  8                     
G27  16095809.074    84584040.937          35.000  
G16                                        26.000  
G 4  17950930.942    94332776.527          32.000  
G 8  16835404.468    88470701.545          34.000  
G 9  17992954.980    94553638.373          36.000  
G26  18903959.554    99340948.758          29.000  
G23  17941256.302    94281887.315          31.000  
G 7  19737118.850   103719245.282          33.000  
> 2020  3 12  6 24 14.9870000  0  8                     
G27  16095801.434    84584000.344          36.000  
G16                                        26.000  
G 4  17951008.522    94333184.414          32.000  
G 8  16835312.368    88470217.764          34.000  
G 9  17992962.240    94553676.864          36.000  
G26  18904043.394    99341391.479          29.000  
G23  17941315.682    94282201.729          31.000  
G 7  19736984.010   103718537.097          33.000  
> 2020  3 12  6 24 15.3870000  0  8                     
G27  16095785.994    84583919.183          35.000  
G16                                        26.000  
G 4  17951163.662    94334000.122          32.000  
G 8  16835128.148    88469250.246          34.000  
G 9  17992977.060    94553753.845          36.000  
G26  18904212.854    99342277.003          29.000  
G23  17941434.522    94282830.691          31.000  
G 7  19736714.230   103717120.550          33.000  
> 2020  3 12  6 24 15.7870000  0  8                     
G27  16095770.394    84583838.156          35.000  
G16                                        26.000  
G 4  17951318.942    94334815.924          32.000  
G 8  16834944.028    88468282.796          34.000  
G 9  17992991.780    94553830.960          36.000  
G26  18904380.494    99343162.434          29.000  
G23  17941550.522    94283459.690          31.000  
G 7  19736444.590   103715703.995          33.000  
> 2020  3 12  6 24 16.1870000  0  8                     
G27  16095755.014    84583757.212          35.000  
G16                                        26.000  
G 4  17951474.282    94335631.755          32.000  
G 8  16834760.048    88467315.434          34.000  
G 9  17993006.340    94553908.154          36.000  
G26  18904544.894    99344047.929          29.000  
G23  17941670.762    94284088.754          31.000  
G 7  19736175.210   103714287.471          33.000  
> 2020  3 12  6 24 16.5870000  0  8                     
G27  16095739.734    84583676.303          35.000  
G16  17172098.586    90239968.0791         27.000  
G 4  17951629.542    94336447.639          32.000  
G 8  16834575.968    88466348.105          34.000  
G 9  17993021.080    94553985.403          36.000  
G26  18904719.154    99344933.365          29.000  
G23  17941792.582    94284717.861          31.000  
G 7  19735905.770   103712870.921          33.000  
> 2020  3 12  6 24 16.9870000  0  8                     
G27  16095724.294    84583595.444          35.000  
G16  17172218.206    90240599.0011         26.000  
G 4  17951784.802    94337263.497          32.000  
G 8  16834391.928    88465380.771          34.000  
G 9  17993035.900    94554062.649          36.000  
G26  18904886.954    99345818.744          29.000  
G23  17941913.022    94285346.952          31.000  
G 7  19735636.190   103711454.297          33.000  
> 2020  3 12  6 24 17.7870000  0  8                     
G27  16095693.774    84583434.141          35.000  
G16  17172460.446    90241860.951          27.000  
G 4  17952095.482    94338895.521          32.000  
G 8  16834023.828    88463446.464          34.000  
G 9  17993065.520    94554217.586          36.000  
G26  18905222.174    99347589.612          29.000  
G23  17942149.142    94286605.501          31.000  
G 7  19735096.850   103708621.168          33.000  
> 2020  3 12  6 24 18.5870000  0  8                     
G27  16095663.374    84583273.279          35.000  
G16  17172698.826    90243123.121          27.000  
G 4  17952406.142    94340527.943          32.000  
G 8  16833655.608    88461512.574          34.000  
G 9  17993095.100    94554372.985          36.000  
G26  18905560.954    99349360.609          29.000  
G23  17942392.042    94287864.379          32.000  
G 7  19734557.870   103705788.176          33.000  
> 2020  3 12  6 24 18.9870000  0  8                     
G27  16095648.434    84583193.187          36.000  
G16  17172818.886    90243754.382          27.000  
G 4  17952561.442    94341344.386          32.000  
G 8  16833471.708    88460545.918          34.000  
G 9  17993109.940    94554451.020          36.000  
G26  18905729.134    99350246.303          29.000  
G23  17942511.642    94288494.129          32.000  
G 7  19734288.370   103704371.842          33.000  
> 2020  3 12  6 24 19.7870000  0  8                     
G27  16095617.934    84583033.323          36.000  
G16  17173059.986    90245017.180          27.000  
G 4  17952872.102    94342977.580          32.000  
G 8  16833104.128    88458612.859          34.000  
G 9  17993139.740    94554607.397          36.000  
G26  18906066.654    99352017.763          29.000  
G23  17942752.882    94289753.861          32.000  
G 7  19733749.350   103701539.244          33.000  
> 2020  3 12  6 24 19.9870000  0  8                     
G27  16095610.394    84582993.388          36.000  
G16  17173119.966    90245332.774          27.000  
G 4  17952949.762    94343385.868          32.000  
G 8  16833012.088    88458129.608          34.000  
G 9  17993147.200    94554646.505          36.000  
G26  18906151.094    99352460.594          29.000  
G23  17942812.462    94290068.803          32.000  
G 7  19733614.670   103700831.088          33.000  
> 2020  3 12  6 24 20.1870000  0  8                     
G27  16095602.834    84582953.510          35.000  
G16  17173180.686    90245648.447          27.000  
G 4  17953027.362    94343794.226          32.000  
G 8  16832920.228    88457646.452          34.000  
G 9  17993154.540    94554685.694          36.000  
G26  18906235.334    99352903.428          29.000  
G23  17942872.942    94290383.769          32.000  
G 7  19733479.970   103700122.925          33.000  
> 2020  3 12  6 24 20.9870000  0  8                     
G27  16095572.634    84582794.308          35.000  
G16  17173420.746    90246911.455          27.000  
G 4  17953338.062    94345427.885          32.000  
G 8  16832552.348    88455713.913          34.000  
G 9  17993184.460    94554842.733          36.000  
G26  18906571.154    99354675.034          29.000  
G23  17943111.782    94291644.003          31.000  
G 7  19732940.550   103697290.421          33.000  
> 2020  3 12  6 24 21.5870000  0  8                     
G27  16095549.774    84582675.061          35.000  
G16  17173600.126    90247858.520          27.000  
G 4  17953571.202    94346653.186          32.000  
G 8  16832276.548    88454264.603          34.000  
G 9  17993206.880    94554960.616          36.000  
G26  18906821.994    99356003.581          29.000  
G23  17943292.322    94292589.218          32.000  
G 7  19732536.350   103695165.894          33.000  
> 2020  3 12  6 24 21.7870000  0  8                     
G27  16095542.134    84582635.267          35.000  
G16  17173660.366    90248174.248          27.000  
G 4  17953648.962    94347061.560          32.000  
G 8  16832184.568    88453781.450          34.000  
G 9  17993214.400    94554999.853          36.000  
G26  18906906.174    99356446.355          29.000  
G23  17943352.282    94292904.250          32.000  
G 7  19732401.670   103694457.673          33.000  
> 2020  3 12  6 24 22.1870000  0  8                     
G27  16095527.014    84582555.772          35.000  
G16  17173779.066    90248805.520          27.000  
G 4  17953804.442    94347878.390          32.000  
G 8  16832000.608    88452815.256          34.000  
G 9  17993229.480    94555078.489          36.000  
G26  18907074.654    99357331.946          29.000  
G23  17943472.582    94293534.428          31.000  
G 7  19732132.030   103693041.207          33.000  
> 2020  3 12  6 24 22.5870000  0  8                     
G27  16095511.854    84582476.392          35.000  
G16  17173899.346    90249436.902          27.000  
G 4  17953959.802    94348695.214          31.000  
G 8  16831816.828    88451849.068          34.000  
G 9  17993244.320    94555157.186          36.000  
G26  18907243.714    99358217.504          29.000  
G23  17943591.402    94294164.589          32.000  
G 7  19731862.450   103691624.726          33.000  
> 2020  3 12  6 24 22.9870000  0  8                     
G27  16095496.674    84582397.009          35.000  
G16  17174018.966    90250068.221          27.000  
G 4  17954115.182    94349512.101          31.000  
G 8  16831632.948    88450882.898          34.000  
G 9  17993259.240    94555235.891          36.000  
G26  18907411.734    99359102.951          29.000  
G23  17943711.502    94294794.767          32.000  
G 7  19731592.930   103690208.136          33.000  
> 2020  3 12  6 24 23.7870000  0  8                     
G27  16095466.474    84582238.528          35.000  
G16  17174259.526    90251330.780          27.000  
G 4  17954426.142    94351146.018          32.000  
G 8  16831265.068    88448950.780          34.000  
G 9  17993289.080    94555393.571          36.000  
G26  18907746.854    99360873.924          29.000  
G23  17943951.522    94296055.311          32.000  
G 7  19731053.710   103687375.034          33.000  
> 2020  3 12  6 24 24.5870000  0  8                     
G27  16095436.594    84582080.543          36.000  
G16  17174498.646    90252593.717          27.000  
G 4  17954737.062    94352780.297          32.000  
G 8  16830897.348    88447019.136          34.000  
G 9  17993319.200    94555551.782          36.000  
G26  18908084.394    99362645.105          29.000  
G23  17944191.342    94297316.304          32.000  
G 7  19730514.530   103684542.060          33.000  
> 2020  3 12  6 24 24.9870000  0  8                     
G27  16095421.694    84582002.001          35.000  
G16  17174618.726    90253225.435          27.000  
G 4  17954892.682    94353597.834          32.000  
G 8  16830713.428    88446053.692          34.000  
G 9  17993334.400    94555631.277          36.000  
G26  18908254.274    99363530.978          29.000  
G23  17944311.622    94297947.200          32.000  
G 7  19730245.130   103683125.873          33.000  
> 2020  3 12  6 24 25.3870000  0  8                     
G27  16095406.774    84581923.615          35.000  
G16  17174738.026    90253857.369          26.000  
G 4  17955048.362    94354415.504          32.000  
G 8  16830529.728    88445088.381          34.000  
G 9  17993349.380    94555710.991          36.000  
G26  18908422.414    99364416.901          29.000  
G23  17944431.622    94298578.251          32.000  
G 7  19729975.590   103681709.727          33.000  
> 2020  3 12  6 24 25.7870000  0  8                     
G27  16095391.814    84581845.346          35.000  
G16  17174857.406    90254489.264          26.000  
G 4  17955203.762    94355233.287          32.000  
G 8  16830345.928    88444123.220          34.000  
G 9  17993364.500    94555790.802          36.000  
G26  18908591.914    99365302.837          29.000  
G23  17944551.662    94299209.367          31.000  
G 7  19729706.110   103680293.616          33.000  
> 2020  3 12  6 24 25.9870000  0  8                     
G27  16095384.394    84581806.212          36.000  
G16  17174918.126    90254805.204          26.000  
G 4  17955281.522    94355642.124          32.000  
G 8  16830254.088    88443640.613          34.000  
G 9  17993372.200    94555830.690          36.000  
G26  18908675.254    99365745.833          29.000  
G23  17944611.662    94299524.867          31.000  
G 7  19729571.410   103679585.542          33.000  
> 2020  3 12  6 24 26.1870000  0  8                     
G27  16095376.914    84581767.146          36.000  
G16  17174977.966    90255121.105          26.000  
G 4  17955359.302    94356051.044          32.000  
G 8  16830162.268    88443158.049          34.000  
G 9  17993379.800    94555870.641          36.000  
G26  18908758.374    99366188.773          29.000  
G23  17944671.762    94299840.484          32.000  
G 7  19729436.650   103678877.463          33.000  
> 2020  3 12  6 24 26.9870000  0  8                     
G27  16095347.014    84581610.738          36.000  
G16  17175219.426    90256384.757          27.000  
G 4  17955670.522    94357686.498          32.000  
G 8  16829794.848    88441227.719          34.000  
G 9  17993410.380    94556030.389          36.000  
G26  18909095.874    99367960.403          29.000  
G23  17944911.782    94301102.738          32.000  
G 7  19728897.510   103676044.954          33.000  
> 2020  3 12  6 24 27.7870000  0  8                     
G27  16095317.154    84581454.361          35.000  
G16  17175459.866    90257648.057          27.000  
G 4  17955981.702    94359321.918          32.000  
G 8  16829427.448    88439297.329          34.000  
G 9  17993440.580    94556190.148          36.000  
G26  18909433.654    99369731.694          29.000  
G23  17945151.982    94302364.919          32.000  
G 7  19728358.110   103673212.033          33.000  
> 2020  3 12  6 24 28.1870000  0  8                     
G27  16095302.074    84581376.145          35.000  
G16  17175580.326    90258279.584          27.000  
G 4  17956137.302    94360139.504          32.000  
G 8  16829243.668    88438332.098          34.000  
G 9  17993455.800    94556269.982          36.000  
G26  18909603.094    99370617.130          29.000  
G23  17945272.262    94302995.909          31.000  
G 7  19728088.650   103671795.430          33.000  
> 2020  3 12  6 24 28.5870000  0  8                     
G27  16095287.194    84581297.887          35.000  
G16  17175699.486    90258910.984          27.000  
G 4  17956292.982    94360957.022          32.000  
G 8  16829059.808    88437366.763          34.000  
G 9  17993470.860    94556349.790          36.000  
G26  18909771.154    99371502.528          29.000  
G23  17945392.402    94303626.895          31.000  
G 7  19727818.910   103670378.680          33.000  
> 2020  3 12  6 24 28.9870000  0  8                     
G27  16095272.274    84581219.590          35.000  
G16  17175818.686    90259542.361          27.000  
G 4  17956448.662    94361774.527          32.000  
G 8  16828876.068    88436401.424          34.000  
G 9  17993486.000    94556429.541          36.000  
G26  18909939.194    99372387.754          29.000  
G23  17945512.542    94304257.728          31.000  
G 7  19727549.330   103668961.799          33.000  
> 2020  3 12  6 24 29.3870000  0  8                     
G27  16095257.174    84581141.526          35.000  
G16  17175940.146    90260173.764          26.000  
G 4  17956604.182    94362592.147          32.000  
G 8  16828692.248    88435436.266          34.000  
G 9  17993501.180    94556509.570          36.000  
G26  18910107.034    99373273.096          29.000  
G23  17945632.622    94304888.863          32.000  
G 7  19727279.550   103667545.086          33.000  
> 2020  3 12  6 24 30.5870000  0  8                     
G27  16095212.714    84580908.226          35.000  
G16  17176298.646    90262068.627          26.000  
G 4  17957071.062    94365045.876          32.000  
G 8  16828141.488    88432541.553          34.000  
G 9  17993546.880    94556750.374          36.000  
G26  18910611.814    99375929.506          29.000  
G23  17945993.482    94306782.859          32.000  
G 7  19726471.050   103663295.155          33.000  
> 2020  3 12  6 24 30.9870000  0  8                     
G27  16095198.134    84580830.838          35.000  
G16  17176419.346    90262700.522          26.000  
G 4  17957226.802    94365864.101          32.000  
G 8  16827957.808    88431576.973          34.000  
G 9  17993562.120    94556831.010          36.000  
G26  18910780.454    99376815.187          29.000  
G23  17946113.682    94307414.535          32.000  
G 7  19726201.430   103661878.708          33.000  
> 2020  3 12  6 24 31.3870000  0  8                     
G27  16095183.334    84580753.607          35.000  
G16  17176539.786    90263332.464          26.000  
G 4  17957382.482    94366682.391          32.000  
G 8  16827774.228    88430612.540          34.000  
G 9  17993577.520    94556911.840          36.000  
G26  18910948.834    99377700.913          29.000  
G23  17946233.862    94308046.311          32.000  
G 7  19725931.730   103660462.334          33.000  
> 2020  3 12  6 24 31.7870000  0  8                     
G27  16095168.614    84580676.571          35.000  
G16  17176660.726    90263964.497          26.000  
G 4  17957538.422    94367500.868          32.000  
G 8  16827590.628    88429648.254          34.000  
G 9  17993593.020    94556992.838          36.000  
G26  18911118.074    99378586.736          29.000  
G23  17946354.102    94308678.245          32.000  
G 7  19725662.050   103659045.973          33.000  
> 2020  3 12  6 24 32.1870000  0  8                     
G27  16095153.874    84580599.750          35.000  
G16  17176782.126    90264596.772          26.000  
G 4  17957693.942    94368319.555          32.000  
G 8  16827407.048    88428684.189          34.000  
G 9  17993608.520    94557074.024          36.000  
G26  18911287.034    99379472.664          28.000  
G23  17946474.422    94309310.397          32.000  
G 7  19725392.510   103657629.883          33.000  
> 2020  3 12  6 24 32.5870000  0  8                     
G27  16095139.134    84580523.095          35.000  
G16  17176902.066    90265229.103          26.000  
G 4  17957849.842    94369138.366          32.000  
G 8  16827223.608    88427720.255          34.000  
G 9  17993623.940    94557155.403          36.000  
G26  18911454.034    99380358.681          28.000  
G23  17946594.742    94309942.675          32.000  
G 7  19725123.010   103656213.769          33.000  
> 2020  3 12  6 24 32.9870000  0  8                     
G27  16095124.414    84580446.524          35.000  
G16  17177023.366    90265861.405          26.000  
G 4  17958005.642    94369957.232          32.000  
G 8  16827040.248    88426756.455          34.000  
G 9  17993639.360    94557236.882          35.000  
G26  18911623.094    99381244.749          28.000  
G23  17946715.162    94310574.990          32.000  
G 7  19724853.550   103654797.676          33.000  
> 2020  3 12  6 24 33.3870000  0  8                     
G27  16095109.714    84580369.932          35.000  
G16  17177144.506    90266493.622          27.000  
G 4  17958161.422    94370776.030          32.000  
G 8  16826856.768    88425792.574          34.000  
G 9  17993654.640    94557318.317          35.000  
G26  18911793.274    99382130.666          28.000  
G23  17946835.542    94311207.328          32.000  
G 7  19724584.030   103653381.463          33.000  
> 2020  3 12  6 24 33.7870000  0  8                     
G27  16095095.254    84580293.287          35.000  
G16  17177266.086    90267125.724          26.000  
G 4  17958317.302    94371594.819          32.000  
G 8  16826673.328    88424828.603          34.000  
G 9  17993670.100    94557399.704          35.000  
G26  18911962.334    99383016.463          28.000  
G23  17946955.822    94311839.543          32.000  
G 7  19724314.510   103651965.107          33.000  
> 2020  3 12  6 24 34.1870000  0  8                     
G27  16095080.634    84580216.685          35.000  
G16  17177385.946    90267757.800          26.000  
G 4  17958473.162    94372413.562          32.000  
G 8  16826490.108    88423864.691          34.000  
G 9  17993685.600    94557481.160          35.000  
G26  18912130.774    99383902.168          28.000  
G23  17947076.242    94312471.824          32.000  
G 7  19724044.970   103650548.731          33.000  
> 2020  3 12  6 24 34.5870000  0  8                     
G27  16095065.954    84580140.190          35.000  
G16  17177506.526    90268389.907          27.000  
G 4  17958628.962    94373232.351          32.000  
G 8  16826306.788    88422900.833          34.000  
G 9  17993701.080    94557562.676          35.000  
G26  18912298.514    99384787.941          28.000  
G23  17947196.602    94313104.133          32.000  
G 7  19723775.570   103649132.333          33.000  
> 2020  3 12  6 24 34.9870000  0  8                     
G27  16095051.294    84580063.816          35.000  
G16  17177627.326    90269022.085          26.000  
G 4  17958784.782    94374051.246          32.000  
G 8  16826123.288    88421937.041          34.000  
G 9  17993716.540    94557644.318          35.000  
G26  18912466.814    99385673.729          28.000  
G23  17947317.162    94313736.500          32.000  
G 7  19723506.050   103647715.943          33.000  
> 2020  3 12  6 24 35.3870000  0  8                     
G27  16095036.754    84579987.513          35.000  
G16  17177746.646    90269654.237          26.000  
G 4  17958940.882    94374870.178          32.000  
G 8  16825939.788    88420973.344          34.000  
G 9  17993732.080    94557726.005          35.000  
G26  18912635.714    99386559.397          28.000  
G23  17947437.342    94314368.962          32.000  
G 7  19723236.570   103646299.517          33.000  
> 2020  3 12  6 24 36.9870000  0  8                     
G27  16094979.254    84579684.189          35.000  
G16  17178227.966    90272184.051          26.000  
G 4  17959564.802    94378147.462          32.000  
G 8  16825206.068    88417120.239          34.000  
G 9  17993794.400    94558054.697          35.000  
G26  18913306.554    99390103.359          28.000  
G23  17947918.682    94316900.418          32.000  
G 7  19722158.550   103640634.851          33.000  
> 2020  3 12  6 24 37.3870000  0  8                     
G27  16094964.934    84579608.672          35.000  
G16  17178349.266    90272816.623          26.000  
G 4  17959720.682    94378967.064          32.000  
G 8  16825022.708    88416157.191          34.000  
G 9  17993809.820    94558137.191          35.000  
G26  18913475.574    99390989.437          28.000  
G23  17948039.122    94317533.516          32.000  
G 7  19721889.050   103639218.790          33.000  
> 2020  3 12  6 24 37.7870000  0  8                     
G27  16094950.674    84579533.244          35.000  
G16  17178471.706    90273449.211          26.000  
G 4  17959876.822    94379786.689          32.000  
G 8  16824839.428    88415194.239          34.000  
G 9  17993825.440    94558219.774          35.000  
G26  18913642.674    99391875.572          28.000  
G23  17948159.862    94318166.753          32.000  
G 7  19721619.470   103637802.700          33.000  
> 2020  3 12  6 24 38.1870000  0  8                     
G27  16094936.154    84579457.876          35.000  
G16  17178591.846    90274081.846          26.000  
G 4  17960032.862    94380606.325          32.000  
G 8  16824656.128    88414231.286          34.000  
G 9  17993841.060    94558302.401          35.000  
G26  18913812.514    99392761.571          28.000  
G23  17948280.322    94318799.924          32.000  
G 7  19721349.890   103636386.589          33.000  
> 2020  3 12  6 24 38.9870000  0  8                     
G27  16094907.534    84579307.146          35.000  
G16  17178831.386    90275346.844          26.000  
G 4  17960345.002    94382245.502          32.000  
G 8  16824289.508    88412305.405          34.000  
G 9  17993872.480    94558467.622          35.000  
G26  18914149.594    99394533.372          28.000  
G23  17948521.162    94320066.243          32.000  
G 7  19720810.770   103633554.072          33.000  
> 2020  3 12  6 24 39.3870000  0  8                     
G27  16094893.114    84579231.760          35.000  
G16  17178951.946    90275979.245          26.000  
G 4  17960500.962    94383065.056          32.000  
G 8  16824106.348    88411342.411          34.000  
G 9  17993888.360    94558550.260          35.000  
G26  18914318.434    99395419.177          28.000  
G23  17948641.702    94320699.357          32.000  
G 7  19720541.170   103632137.614          33.000  
> 2020  3 12  6 24 39.7870000  0  8                     
G27  16094878.654    84579156.473          35.000  
G16  17179070.726    90276611.547          26.000  
G 4  17960656.962    94383884.624          32.000  
G 8  16823923.108    88410379.468          34.000  
G 9  17993904.260    94558632.956          35.000  
G26  18914487.114    99396304.950          28.000  
G23  17948762.102    94321332.546          32.000  
G 7  19720271.650   103630721.232          33.000  
> 2020  3 12  6 24 40.1870000  0  8                     
G27  16094864.274    84579081.347          35.000  
G16  17179189.146    90277244.048          26.000  
G 4  17960812.762    94384704.338          32.000  
G 8  16823739.928    88409416.706          34.000  
G 9  17993920.060    94558715.804          35.000  
G26  18914655.594    99397190.757          28.000  
G23  17948882.702    94321965.868          32.000  
G 7  19720002.010   103629304.863          33.000  
> 2020  3 12  6 24 40.5870000  0  8                     
G27  16094849.994    84579006.361          35.000  
G16  17179310.866    90277876.597          26.000  
G 4  17960968.662    94385524.166          32.000  
G 8  16823556.768    88408454.055          34.000  
G 9  17993935.680    94558798.768          35.000  
G26  18914825.914    99398076.627          28.000  
G23  17949003.142    94322599.278          32.000  
G 7  19719732.570   103627888.553          33.000  
> 2020  3 12  6 24 40.9870000  0  8                     
G27  16094835.814    84578931.490          35.000  
G16  17179430.906    90278509.203          26.000  
G 4  17961124.662    94386344.114          32.000  
G 8  16823373.668    88407491.464          34.000  
G 9  17993951.580    94558881.884          35.000  
G26  18914994.294    99398962.568          28.000  
G23  17949123.962    94323232.854          31.000  
G 7  19719463.290   103626472.276          33.000  
> 2020  3 12  6 24 41.3870000  0  8                     
G27  16094821.574    84578856.844          35.000  
G16  17179551.406    90279141.930          26.000  
G 4  17961280.582    94387164.273          32.000  
G 8  16823190.348    88406529.096          34.000  
G 9  17993967.280    94558965.203          35.000  
G26  18915163.254    99399848.599          28.000  
G23  17949244.722    94323866.522          31.000  
G 7  19719193.870   103625056.094          34.000  
> 2020  3 12  6 24 41.7870000  0  8                     
G27  16094807.514    84578782.391          35.000  
G16  17179672.726    90279774.828          26.000  
G 4  17961436.782    94387984.460          32.000  
G 8  16823007.268    88405566.959          34.000  
G 9  17993983.380    94559048.753          35.000  
G26  18915332.814    99400734.813          28.000  
G23  17949366.622    94324500.437          31.000  
G 7  19718924.430   103623640.114          34.000  
> 2020  3 12  6 24 42.5870000  0  8                     
G27  16094778.834    84578633.886          35.000  
G16  17179914.746    90281040.748          27.000  
G 4  17961749.022    94389625.290          32.000  
G 8  16822641.348    88403642.886          35.000  
G 9  17994015.260    94559216.163          35.000  
G26  18915667.054    99402507.142          28.000  
G23  17949601.282    94325768.477          31.000  
G 7  19718385.670   103620808.044          34.000  
> 2020  3 12  6 24 42.9870000  0  8                     
G27  16094764.554    84578559.554          35.000  
G16  17180036.186    90281673.473          27.000  
G 4  17961905.062    94390445.625          32.000  
G 8  16822458.408    88402680.797          35.000  
G 9  17994031.240    94559299.796          35.000  
G26  18915835.194    99403393.168          28.000  
G23  17949725.562    94326402.486          31.000  
G 7  19718116.390   103619391.877          34.000  
> 2020  3 12  6 24 43.3870000  0  8                     
G27  16094750.394    84578485.311          35.000  
G16  17180157.346    90282306.253          27.000  
G 4  17962061.182    94391265.894          32.000  
G 8  16822275.408    88401718.668          35.000  
G 9  17994047.200    94559383.488          35.000  
G26  18916004.394    99404279.083          28.000  
G23  17949848.322    94327036.349          31.000  
G 7  19717846.890   103617975.548          33.000  
> 2020  3 12  6 24 43.7870000  0  8                     
G27  16094736.314    84578410.970          35.000  
G16  17180278.266    90282938.872          27.000  
G 4  17962217.102    94392086.147          32.000  
G 8  16822092.328    88400756.529          35.000  
G 9  17994063.180    94559467.138          35.000  
G26  18916171.814    99405164.927          28.000  
G23  17949967.102    94327670.340          31.000  
G 7  19717577.390   103616559.195          34.000  
> 2020  3 12  6 24 44.1870000  0  8                     
G27  16094722.154    84578336.701          35.000  
G16  17180399.746    90283571.502          27.000  
G 4  17962373.142    94392906.416          32.000  
G 8  16821909.308    88399794.413          35.000  
G 9  17994079.280    94559550.806          35.000  
G26  18916340.614    99406050.728          28.000  
G23  17950090.162    94328304.263          31.000  
G 7  19717307.790   103615142.756          34.000  
> 2020  3 12  6 24 44.5870000  0  8                     
G27  16094707.934    84578262.389          35.000  
G16  17180521.206    90284204.067          27.000  
G 4  17962529.222    94393726.622          32.000  
G 8  16821726.208    88398832.208          35.000  
G 9  17994095.300    94559634.453          35.000  
G26  18916508.154    99406936.360          28.000  
G23  17950210.382    94328938.112          31.000  
G 7  19717038.290   103613726.190          34.000  
> 2020  3 12  6 24 44.9870000  0  8                     
G27  16094693.974    84578188.089          35.000  
G16  17180641.126    90284836.500          27.000  
G 4  17962685.282    94394546.781          32.000  
G 8  16821543.168    88397870.011          35.000  
G 9  17994111.120    94559718.131          35.000  
G26  18916676.154    99407821.936          28.000  
G23  17950330.242    94329571.924          31.000  
G 7  19716768.790   103612309.543          34.000  
> 2020  3 12  6 24 45.3870000  0  8                     
G27  16094680.014    84578113.987          35.000  
G16  17180761.086    90285469.035          27.000  
G 4  17962841.242    94395367.113          32.000  
G 8  16821359.968    88396907.977          35.000  
G 9  17994126.900    94559801.939          35.000  
G26  18916844.874    99408707.577          28.000  
G23  17950450.702    94330205.923          31.000  
G 7  19716499.050   103610892.959          34.000  
> 2020  3 12  6 24 45.7870000  0  8                     
G27  16094665.974    84578040.054          35.000  
G16  17180881.846    90286101.754          27.000  
G 4  17962997.082    94396187.526          32.000  
G 8  16821177.068    88395946.145          35.000  
G 9  17994142.760    94559885.969          35.000  
G26  18917013.374    99409593.361          28.000  
G23  17950569.482    94330840.043          31.000  
G 7  19716229.630   103609476.495          34.000  
> 2020  3 12  6 24 46.1870000  0  8                     
G27  16094651.874    84577966.326          35.000  
G16  17181001.706    90286734.513          27.000  
G 4  17963154.362    94397008.168          32.000  
G 8  16820994.088    88394984.450          34.000  
G 9  17994158.800    94559970.184          35.000  
G26  18917182.214    99410479.265          28.000  
G23  17950691.722    94331474.389          32.000  
G 7  19715960.130   103608060.121          34.000  
> 2020  3 12  6 24 46.5870000  0  8                     
G27  16094637.994    84577892.779          35.000  
G16  17181121.606    90287367.451          27.000  
G 4  17963311.242    94397828.976          32.000  
G 8  16820811.028    88394022.939          35.000  
G 9  17994174.920    94560054.590          35.000  
G26  18917352.194    99411365.177          28.000  
G23  17950812.442    94332108.866          32.000  
G 7  19715690.730   103606643.873          34.000  
> 2020  3 12  6 24 46.9870000  0  8                     
G27  16094624.094    84577819.385          35.000  
G16  17181243.066    90288000.462          27.000  
G 4  17963466.342    94398649.907          32.000  
G 8  16820628.088    88393061.543          35.000  
G 9  17994191.160    94560139.131          35.000  
G26  18917519.974    99412251.247          28.000  
G23  17950930.862    94332743.438          32.000  
G 7  19715421.150   103605227.647          34.000  
> 2020  3 12  6 24 47.3870000  0  8                     
G27  16094610.054    84577746.066          35.000  
G16  17181362.806    90288633.454          27.000  
G 4  17963619.522    94399470.835          32.000  
G 8  16820444.868    88392100.164          35.000  
G 9  17994207.240    94560223.745          35.000  
G26  18917687.894    99413137.204          28.000  
G23  17951048.022    94333378.102          31.000  
G 7  19715151.490   103603811.365          34.000  
> 2020  3 12  6 24 47.7870000  0  8                     
G27  16094596.134    84577672.785          35.000  
G16  17181483.906    90289266.413          27.000  
G 4  17963774.822    94400291.759          32.000  
G 8  16820262.188    88391138.871          35.000  
G 9  17994223.200    94560308.424          35.000  
G26  18917855.754    99414023.187          28.000  
G23  17951170.862    94334012.803          31.000  
G 7  19714881.990   103602395.133          34.000  
> 2020  3 12  6 24 48.5870000  0  8                     
G27  16094568.154    84577526.485          35.000  
G16  17181723.826    90290532.422          27.000  
G 4  17964089.842    94401933.860          32.000  
G 8  16819896.308    88389216.416          35.000  
G 9  17994255.320    94560477.983          35.000  
G26  18918193.714    99415795.078          28.000  
G23  17951407.422    94335282.325          31.000  
G 7  19714343.110   103599562.521          34.000  
> 2020  3 12  6 24 48.9870000  0  8                     
G27  16094554.314    84577453.408          35.000  
G16  17181844.226    90291165.391          27.000  
G 4  17964246.442    94402754.928          32.000  
G 8  16819713.388    88388255.241          35.000  
G 9  17994271.480    94560562.797          35.000  
G26  18918362.954    99416680.961          28.000  
G23  17951530.302    94335917.112          31.000  
G 7  19714073.530   103598146.124          34.000  
> 2020  3 12  6 24 49.3870000  0  8                     
G27  16094540.414    84577380.489          35.000  
G16  17181964.266    90291798.418          27.000  
G 4  17964400.342    94403576.046          32.000  
G 8  16819530.468    88387294.174          35.000  
G 9  17994287.740    94560647.781          35.000  
G26  18918532.474    99417566.902          28.000  
G23  17951654.782    94336552.002          31.000  
G 7  19713803.850   103596729.779          34.000  
> 2020  3 12  6 24 49.7870000  0  8                     
G27  16094526.494    84577307.715          35.000  
G16  17182083.646    90292431.542          27.000  
G 4  17964558.502    94404397.355          32.000  
G 8  16819347.708    88386333.264          35.000  
G 9  17994303.920    94560732.939          35.000  
G26  18918701.994    99418452.880          28.000  
G23  17951774.882    94337187.036          31.000  
G 7  19713534.250   103595313.552          34.000  
> 2020  3 12  6 24 50.1870000  0  8                     
G27  16094512.714    84577235.156          35.000  
G16  17182204.426    90293064.803          27.000  
G 4  17964716.042    94405218.896          32.000  
G 8  16819164.808    88385372.573          35.000  
G 9  17994320.120    94560818.323          35.000  
G26  18918870.074    99419339.055          28.000  
G23  17951893.162    94337822.270          31.000  
G 7  19713265.010   103593897.428          34.000  
> 2020  3 12  6 24 50.5870000  0  8                     
G27  16094498.814    84577162.823          36.000  
G16  17182324.346    90293698.181          27.000  
G 4  17964872.022    94406040.549          32.000  
G 8  16818982.028    88384412.052          35.000  
G 9  17994336.360    94560903.906          35.000  
G26  18919038.214    99420225.351          28.000  
G23  17952016.022    94338457.727          30.000  
G 7  19712995.430   103592481.432          34.000  
> 2020  3 12  6 24 50.9870000  0  8                     
G27  16094485.114    84577090.614          35.000  
G16  17182444.366    90294331.723          27.000  
G 4  17965030.022    94406862.313          32.000  
G 8  16818799.228    88383451.636          35.000  
G 9  17994352.680    94560989.595          35.000  
G26  18919206.994    99421111.600          28.000  
G23  17952138.962    94339093.268          30.000  
G 7  19712725.870   103591065.447          34.000  
> 2020  3 12  6 24 51.3870000  0  8                     
G27  16094471.354    84577018.538          35.000  
G16  17182563.866    90294965.176          27.000  
G 4  17965185.522    94407684.193          32.000  
G 8  16818616.608    88382491.355          35.000  
G 9  17994368.940    94561075.449          35.000  
G26  18919375.334    99421997.948          28.000  
G23  17952257.262    94339728.881          31.000  
G 7  19712456.590   103589649.512          34.000  
> 2020  3 12  6 24 51.7870000  0  8                     
G27  16094457.894    84576946.558          35.000  
G16  17182684.046    90295598.812          27.000  
G 4  17965343.602    94408506.075          32.000  
G 8  16818433.868    88381531.118          35.000  
G 9  17994385.240    94561161.353          35.000  
G26  18919546.314    99422884.273          28.000  
G23  17952381.062    94340364.603          31.000  
G 7  19712186.990   103588233.590          34.000  
> 2020  3 12  6 24 52.1870000  0  8                     
G27  16094444.334    84576874.514          35.000  
G16  17182805.486    90296232.188          27.000  
G 4  17965499.622    94409327.913          32.000  
G 8  16818251.168    88380570.842          35.000  
G 9  17994401.520    94561247.239          35.000  
G26  18919715.294    99423770.472          28.000  
G23  17952500.502    94341000.189          31.000  
G 7  19711917.390   103586817.492          34.000  
> 2020  3 12  6 24 52.5870000  0  8                     
G27  16094430.534    84576802.475          35.000  
G16  17182925.726    90296865.586          27.000  
G 4  17965655.902    94410149.685          32.000  
G 8  16818068.268    88379610.489          35.000  
G 9  17994417.840    94561333.083          35.000  
G26  18919882.694    99424656.528          28.000  
G23  17952620.782    94341635.775          30.000  
G 7  19711647.810   103585401.310          34.000  
> 2020  3 12  6 24 52.9870000  0  8                     
G27  16094417.014    84576730.452          35.000  
G16  17183046.026    90297498.883          27.000  
G 4  17965812.282    94410971.523          32.000  
G 8  16817885.628    88378650.182          35.000  
G 9  17994434.240    94561418.953          35.000  
G26  18920049.934    99425542.596          28.000  
G23  17952741.182    94342271.432          30.000  
G 7  19711378.430   103583985.078          34.000  
> 2020  3 12  6 24 53.3870000  0  8                     
G27  16094403.514    84576658.676          35.000  
G16  17183165.826    90298132.336          27.000  
G 4  17965968.202    94411793.518          32.000  
G 8  16817703.068    88377690.118          35.000  
G 9  17994450.640    94561505.114          35.000  
G26  18920217.894    99426428.747          28.000  
G23  17952860.642    94342907.179          30.000  
G 7  19711109.070   103582568.974          34.000  
> 2020  3 12  6 24 53.7870000  0  8                     
G27  16094390.114    84576587.184          35.000  
G16  17183286.046    90298765.983          27.000  
G 4  17966124.362    94412615.734          32.000  
G 8  16817520.468    88376730.233          35.000  
G 9  17994467.020    94561591.470          35.000  
G26  18920387.854    99427315.138          28.000  
G23  17952980.342    94343543.243          30.000  
G 7  19710839.610   103581153.008          34.000  
> 2020  3 12  6 24 54.5870000  0  8                     
G27  16094362.994    84576444.959          35.000  
G16  17183527.266    90300033.933          27.000  
G 4  17966437.462    94414260.946          32.000  
G 8  16817155.468    88374811.284          35.000  
G 9  17994499.960    94561765.041          35.000  
G26  18920723.974    99429088.423          28.000  
G23  17953225.342    94344816.091          30.000  
G 7  19710300.870   103578321.705          34.000  
> 2020  3 12  6 24 54.9870000  0  8                     
G27  16094349.414    84576374.218          35.000  
G16  17183646.566    90300668.190          27.000  
G 4  17966594.122    94415083.830          32.000  
G 8  16816972.948    88373852.148          35.000  
G 9  17994516.460    94561852.191          35.000  
G26  18920892.574    99429975.236          28.000  
G23  17953350.102    94345452.768          30.000  
G 7  19710031.590   103576906.272          34.000  
> 2020  3 12  6 24 55.3870000  0  8                     
G27  16094335.934    84576303.688          35.000  
G16  17183767.606    90301302.488          27.000  
G 4  17966750.602    94415906.915          32.000  
G 8  16816790.308    88372893.190          35.000  
G 9  17994533.180    94561939.540          35.000  
G26  18921061.174    99430862.195          27.000  
G23  17953467.702    94346089.689          30.000  
G 7  19709762.250   103575490.917          35.000  
> 2020  3 12  6 24 55.7870000  0  8                     
G27  16094322.574    84576233.339          35.000  
G16  17183888.026    90301936.995          27.000  
G 4  17966907.362    94416730.124          32.000  
G 8  16816607.768    88371934.393          35.000  
G 9  17994549.960    94562027.060          35.000  
G26  18921231.554    99431749.284          28.000  
G23  17953588.722    94346726.762          30.000  
G 7  19709493.030   103574075.670          35.000  
> 2020  3 12  6 24 56.1870000  0  8                     
G27  16094309.214    84576163.205          35.000  
G16  17184007.166    90302571.658          27.000  
G 4  17967064.082    94417553.591          32.000  
G 8  16816425.308    88370975.838          35.000  
G 9  17994566.760    94562114.858          35.000  
G26  18921401.154    99432636.484          28.000  
G23  17953708.862    94347363.993          30.000  
G 7  19709223.830   103572660.608          35.000  
> 2020  3 12  6 24 56.5870000  0  8                     
G27  16094295.854    84576093.240          35.000  
G16  17184127.066    90303206.401          27.000  
G 4  17967220.882    94418377.092          32.000  
G 8  16816242.928    88370017.391          35.000  
G 9  17994583.380    94562202.762          35.000  
G26  18921571.074    99433523.715          28.000  
G23  17953834.102    94348001.386          30.000  
G 7  19708954.670   103571245.524          35.000  
> 2020  3 12  6 24 56.9870000  0  8                     
G27  16094282.614    84576023.440          35.000  
G16  17184247.306    90303841.159          27.000  
G 4  17967377.602    94419200.821          32.000  
G 8  16816060.368    88369059.074          35.000  
G 9  17994600.060    94562290.779          35.000  
G26  18921739.074    99434411.025          27.000  
G23  17953953.502    94348638.896          30.000  
G 7  19708685.430   103569830.524          35.000  
> 2020  3 12  6 24 57.3870000  0  8                     
G27  16094269.274    84575953.776          35.000  
G16  17184369.286    90304475.949          27.000  
G 4  17967534.502    94420024.577          32.000  
G 8  16815878.108    88368100.892          35.000  
G 9  17994616.940    94562379.008          35.000  
G26  18921907.014    99435298.403          27.000  
G23  17954073.622    94349276.563          30.000  
G 7  19708416.230   103568415.616          34.000  
> 2020  3 12  6 24 57.7870000  0  8                     
G27  16094256.014    84575884.189          35.000  
G16  17184491.226    90305110.910          27.000  
G 4  17967691.222    94420848.433          32.000  
G 8  16815695.928    88367142.757          35.000  
G 9  17994633.840    94562467.308          35.000  
G26  18922076.454    99436185.821          28.000  
G23  17954191.802    94349914.290          30.000  
G 7  19708147.030   103567000.679          34.000  
> 2020  3 12  6 24 58.1870000  0  8                     
G27  16094242.734    84575814.686          35.000  
G16  17184612.086    90305745.794          26.000  
G 4  17967848.002    94421672.294          32.000  
G 8  16815513.768    88366184.691          35.000  
G 9  17994650.380    94562555.653          35.000  
G26  18922245.334    99437073.218          28.000  
G23  17954313.302    94350552.012          30.000  
G 7  19707877.810   103565585.711          35.000  
> 2020  3 12  6 24 58.5870000  0  8                     
G27  16094229.494    84575745.222          35.000  
G16  17184733.226    90306380.695          27.000  
G 4  17968004.782    94422496.175          32.000  
G 8  16815331.668    88365226.658          35.000  
G 9  17994667.340    94562644.072          35.000  
G26  18922413.674    99437960.549          28.000  
G23  17954434.902    94351189.845          30.000  
G 7  19707608.630   103564170.709          35.000  
> 2020  3 12  6 24 58.9870000  0  8                     
G27  16094216.174    84575675.730          35.000  
G16  17184854.266    90307015.406          27.000  
G 4  17968161.562    94423319.949          32.000  
G 8  16815149.368    88364268.574          35.000  
G 9  17994684.000    94562732.412          35.000  
G26  18922583.374    99438847.670          27.000  
G23  17954556.042    94351827.478          30.000  
G 7  19707339.370   103562755.546          35.000  
> 2020  3 12  6 24 59.3870000  0  8                     
G27  16094202.794    84575606.158          35.000  
G16  17184974.666    90307650.038          27.000  
G 4  17968318.282    94424143.674          32.000  
G 8  16814966.888    88363310.355          35.000  
G 9  17994700.720    94562820.689          35.000  
G26  18922753.134    99439734.655          27.000  
G23  17954677.022    94352465.061          30.000  
G 7  19707069.770   103561340.244          35.000  
> 2020  3 12  6 24 59.7870000  0  8                     
G27  16094189.574    84575536.582          35.000  
G16  17185095.106    90308284.547          27.000  
G 4  17968475.022    94424967.369          32.000  
G 8  16814784.728    88362352.159          35.000  
G 9  17994717.420    94562908.950          35.000  
G26  18922922.854    99440621.668          28.000  
G23  17954799.362    94353102.694          30.000  
G 7  19706800.490   103559924.829          35.000  
> 2020  3 12  6 25  0.9870000  0  8                     
G27  16094149.854    84575328.046          35.000  
G16  17185459.066    90310187.926          27.000  
G 4  17968945.342    94427438.460          32.000  
G 8  16814237.728    88359477.576          35.000  
G 9  17994767.920    94563173.990          35.000  
G26  18923426.694    99443282.098          28.000  
G23  17955164.102    94355015.503          30.000  
G 7  19705992.290   103555678.264          35.000  
> 2020  3 12  6 25  3.3870000  0  8                     
G27  16094070.434    84574912.796          35.000  
G16  17186182.846    90313994.571          28.000  
G 4  17969885.982    94432381.404          32.000  
G 8  16813144.228    88353729.655          35.000  
G 9  17994869.040    94563705.792          35.000  
G26  18924435.814    99448602.311          27.000  
G23  17955890.962    94358842.133          30.000  
G 7  19704376.330   103547184.330          35.000  
> 2020  3 12  6 25  3.7870000  0  8                     
G27  16094057.534    84574843.752          35.000  
G16  17186305.186    90314628.943          28.000  
G 4  17970042.782    94433205.202          31.000  
G 8  16812962.168    88352771.791          35.000  
G 9  17994886.080    94563794.607          35.000  
G26  18924603.654    99449488.860          27.000  
G23  17956014.022    94359479.963          30.000  
G 7  19704106.970   103545768.584          35.000  
> 2020  3 12  6 25  4.1870000  0  8                     
G27  16094044.434    84574774.893          35.000  
G16  17186425.346    90315263.365          28.000  
G 4  17970200.802    94434029.323          31.000  
G 8  16812780.108    88351814.032          36.000  
G 9  17994903.000    94563883.530          35.000  
G26  18924773.194    99450375.479          28.000  
G23  17956133.662    94360117.966          30.000  
G 7  19703837.530   103544352.827          35.000  
> 2020  3 12  6 25  4.5870000  0  8                     
G27  16094031.394    84574706.065          35.000  
G16  17186545.586    90315897.800          28.000  
G 4  17970355.922    94434853.386          31.000  
G 8  16812597.608    88350856.349          36.000  
G 9  17994919.880    94563972.540          35.000  
G26  18924941.274    99451262.082          27.000  
G23  17956254.902    94360755.972          30.000  
G 7  19703568.170   103542937.036          35.000  
> 2020  3 12  6 25  4.9870000  0  8                     
G27  16094018.394    84574637.264          35.000  
G16  17186666.726    90316532.233          28.000  
G 4  17970511.802    94435677.436          32.000  
G 8  16812415.468    88349898.676          36.000  
G 9  17994936.660    94564061.610          35.000  
G26  18925108.614    99452148.596          27.000  
G23  17956377.422    94361394.026          30.000  
G 7  19703298.630   103541521.209          35.000  
> 2020  3 12  6 25  5.3870000  0  8                     
G27  16094005.454    84574568.578          35.000  
G16  17186787.086    90317166.668          28.000  
G 4  17970667.922    94436501.578          31.000  
G 8  16812233.288    88348941.049          36.000  
G 9  17994953.480    94564150.720          35.000  
G26  18925278.394    99453035.183          27.000  
G23  17956501.542    94362032.129          30.000  
G 7  19703029.170   103540105.382          35.000  
> 2020  3 12  6 25  5.7870000  0  8                     
G27  16093992.334    84574500.021          35.000  
G16  17186907.806    90317801.106          28.000  
G 4  17970825.942    94437325.681          31.000  
G 8  16812050.928    88347983.508          36.000  
G 9  17994970.520    94564239.961          35.000  
G26  18925446.654    99453921.771          27.000  
G23  17956618.162    94362670.303          30.000  
G 7  19702759.770   103538689.575          34.000  
> 2020  3 12  6 25  6.5870000  0  8                     
G27  16093966.234    84574362.914          35.000  
G16  17187147.346    90319069.874          28.000  
G 4  17971137.302    94438974.049          32.000  
G 8  16811686.668    88346068.478          36.000  
G 9  17995004.540    94564418.479          35.000  
G26  18925784.374    99455694.689          27.000  
G23  17956861.042    94363946.601          30.000  
G 7  19702220.830   103535857.742          35.000  
> 2020  3 12  6 25  6.9870000  0  8                     
G27  16093952.954    84574294.451          35.000  
G16  17187268.986    90319704.209          28.000  
G 4  17971295.182    94439798.219          31.000  
G 8  16811504.408    88345111.000          36.000  
G 9  17995021.620    94564507.791          35.000  
G26  18925952.614    99456581.029          28.000  
G23  17956983.722    94364584.857          30.000  
G 7  19701951.530   103534441.717          35.000  
> 2020  3 12  6 25  7.3870000  0  8                     
G27  16093939.814    84574225.968          35.000  
G16  17187388.786    90320338.531          28.000  
G 4  17971451.982    94440622.361          31.000  
G 8  16811322.128    88344153.514          36.000  
G 9  17995038.700    94564597.182          35.000  
G26  18926121.714    99457467.320          27.000  
G23  17957105.802    94365222.997          30.000  
G 7  19701681.870   103533025.680          35.000  
> 2020  3 12  6 25  7.7870000  0  8                     
G27  16093926.794    84574157.645          35.000  
G16  17187508.366    90320972.885          28.000  
G 4  17971610.762    94441446.653          31.000  
G 8  16811139.988    88343196.141          36.000  
G 9  17995055.860    94564686.652          35.000  
G26  18926292.054    99458353.694          27.000  
G23  17957226.322    94365861.271          30.000  
G 7  19701412.350   103531609.603          35.000  
> 2020  3 12  6 25  8.1870000  0  8                     
G27  16093913.954    84574089.358          35.000  
G16  17187628.866    90321607.194          28.000  
G 4  17971769.382    94442270.926          31.000  
G 8  16810957.828    88342238.784          36.000  
G 9  17995072.820    94564776.116          35.000  
G26  18926460.654    99459240.040          27.000  
G23  17957347.562    94366499.666          30.000  
G 7  19701142.910   103530193.515          35.000  
> 2020  3 12  6 25  8.5870000  0  8                     
G27  16093900.914    84574021.111          35.000  
G16  17187749.986    90322241.424          28.000  
G 4  17971925.082    94443095.215          31.000  
G 8  16810775.648    88341281.488          36.000  
G 9  17995089.820    94564865.712          35.000  
G26  18926629.974    99460126.257          27.000  
G23  17957468.442    94367137.976          30.000  
G 7  19700873.390   103528777.385          35.000  
> 2020  3 12  6 25  8.9870000  0  8                     
G27  16093887.994    84573952.990          35.000  
G16  17187870.626    90322875.804          28.000  
G 4  17972081.702    94443919.549          31.000  
G 8  16810593.568    88340324.225          36.000  
G 9  17995106.780    94564955.347          35.000  
G26  18926799.474    99461012.519          27.000  
G23  17957589.862    94367776.306          29.000  
G 7  19700603.910   103527361.266          35.000  
> 2020  3 12  6 25  9.3870000  0  8                     
G27  16093874.914    84573884.845          35.000  
G16  17187991.766    90323510.013          28.000  
G 4  17972238.902    94444743.886          31.000  
G 8  16810411.308    88339366.947          36.000  
G 9  17995123.820    94565045.006          35.000  
G26  18926967.974    99461898.686          27.000  
G23  17957715.562    94368414.753          29.000  
G 7  19700334.490   103525945.047          35.000  
> 2020  3 12  6 25  9.7870000  0  8                     
G27  16093861.914    84573816.695          35.000  
G16  17188112.646    90324144.278          28.000  
G 4  17972396.002    94445568.225          31.000  
G 8  16810229.128    88338409.674          36.000  
G 9  17995140.980    94565134.657          35.000  
G26  18927136.194    99462784.796          27.000  
G23  17957835.042    94369053.051          29.000  
G 7  19700064.910   103524528.752          35.000  
> 2020  3 12  6 25 10.1870000  0  8                     
G27  16093848.954    84573748.606          35.000  
G16  17188232.986    90324778.440          28.000  
G 4  17972555.142    94446392.540          31.000  
G 8  16810046.948    88337452.430          36.000  
G 9  17995157.920    94565224.339          35.000  
G26  18927306.514    99463670.842          27.000  
G23  17957958.102    94369691.466          29.000  
G 7  19699795.390   103523112.399          35.000  
> 2020  3 12  6 25 10.5870000  0  8                     
G27  16093836.054    84573680.634          35.000  
G16  17188354.726    90325412.641          28.000  
G 4  17972710.302    94447216.900          31.000  
G 8  16809864.768    88336495.257          36.000  
G 9  17995175.060    94565314.150          35.000  
G26  18927475.734    99464556.998          27.000  
G23  17958076.922    94370329.903          29.000  
G 7  19699526.030   103521696.062          35.000  
> 2020  3 12  6 25 10.9870000  0  8                     
G27  16093823.154    84573612.926          35.000  
G16  17188475.886    90326047.018          28.000  
G 4  17972866.162    94448041.533          31.000  
G 8  16809682.848    88335538.338          36.000  
G 9  17995192.340    94565404.258          35.000  
G26  18927644.854    99465443.218          27.000  
G23  17958197.902    94370968.579          29.000  
G 7  19699256.450   103520279.896          35.000  
> 2020  3 12  6 25 11.3870000  0  8                     
G27  16093810.154    84573545.422          35.000  
G16  17188596.626    90326681.485          28.000  
G 4  17973022.802    94448866.340          31.000  
G 8  16809500.888    88334581.641          36.000  
G 9  17995209.380    94565494.487          35.000  
G26  18927814.534    99466329.538          28.000  
G23  17958321.822    94371607.497          30.000  
G 7  19698987.110   103518863.848          35.000  
> 2020  3 12  6 25 11.7870000  0  8                     
G27  16093797.394    84573478.239          35.000  
G16  17188717.766    90327316.317          28.000  
G 4  17973180.122    94449691.431          31.000  
G 8  16809318.888    88333625.232          36.000  
G 9  17995226.700    94565585.082          35.000  
G26  18927984.194    99467216.162          28.000  
G23  17958443.162    94372246.670          30.000  
G 7  19698717.870   103517448.031          35.000  
> 2020  3 12  6 25 12.5870000  0  8                     
G27  16093771.994    84573344.785          35.000  
G16  17188961.106    90328586.593          28.000  
G 4  17973491.962    94451342.384          31.000  
G 8  16808954.948    88331713.229          36.000  
G 9  17995261.440    94565767.195          35.000  
G26  18928321.794    99468989.949          28.000  
G23  17958687.922    94373525.832          30.000  
G 7  19698178.990   103514617.017          35.000  
> 2020  3 12  6 25 12.9870000  0  8                     
G27  16093759.374    84573278.396          36.000  
G16  17189081.546    90329221.961          28.000  
G 4  17973648.222    94452168.158          31.000  
G 8  16808773.148    88330757.551          36.000  
G 9  17995278.900    94565858.588          35.000  
G26  18928491.474    99469877.133          28.000  
G23  17958808.862    94374165.717          29.000  
G 7  19697909.670   103513201.720          35.000  
> 2020  3 12  6 25 13.3870000  0  8                     
G27  16093746.814    84573212.229          35.000  
G16  17189202.066    90329857.489          28.000  
G 4  17973802.042    94452994.147          31.000  
G 8  16808591.268    88329802.047          36.000  
G 9  17995296.520    94565950.162          35.000  
G26  18928659.754    99470764.370          28.000  
G23  17958929.822    94374805.748          30.000  
G 7  19697640.430   103511786.513          35.000  
> 2020  3 12  6 25 13.7870000  0  8                     
G27  16093734.454    84573146.221          36.000  
G16  17189324.046    90330493.104          28.000  
G 4  17973959.882    94453820.265          31.000  
G 8  16808409.588    88328846.742          36.000  
G 9  17995313.860    94566041.957          35.000  
G26  18928827.354    99471651.727          28.000  
G23  17959054.022    94375446.077          30.000  
G 7  19697371.190   103510371.424          35.000  
> 2020  3 12  6 25 14.1870000  0  8                     
G27  16093721.914    84573080.420          35.000  
G16  17189445.486    90331128.814          28.000  
G 4  17974118.802    94454646.535          31.000  
G 8  16808227.868    88327891.568          36.000  
G 9  17995331.540    94566133.883          35.000  
G26  18928996.354    99472539.116          28.000  
G23  17959175.442    94376086.440          30.000  
G 7  19697101.890   103508956.430          35.000  
> 2020  3 12  6 25 14.5870000  0  8                     
G27  16093709.454    84573014.819          35.000  
G16  17189566.666    90331764.639          28.000  
G 4  17974278.482    94455472.950          31.000  
G 8  16808046.308    88326936.555          36.000  
G 9  17995349.340    94566226.041          35.000  
G26  18929165.174    99473426.597          28.000  
G23  17959300.662    94376726.995          30.000  
G 7  19696832.650   103507541.474          35.000  
> 2020  3 12  6 25 14.9870000  0  8                     
G27  16093696.994    84572949.212          36.000  
G16  17189686.666    90332400.477          29.000  
G 4  17974435.942    94456299.391          31.000  
G 8  16807864.728    88325981.573          36.000  
G 9  17995366.800    94566318.227          35.000  
G26  18929334.414    99474314.075          28.000  
G23  17959422.242    94377367.547          30.000  
G 7  19696563.450   103506126.530          35.000  
> 2020  3 12  6 25 15.3870000  0  8                     
G27  16093684.694    84572883.761          35.000  
G16  17189810.146    90333036.381          30.000  
G 4  17974591.022    94457125.869          31.000  
G 8  16807683.208    88325026.725          36.000  
G 9  17995384.280    94566410.516          35.000  
G26  18929503.114    99475201.498          28.000  
G23  17959543.622    94378008.235          30.000  
G 7  19696294.290   103504711.630          35.000  
> 2020  3 12  6 25 15.7870000  0  8                     
G27  16093672.274    84572818.509          35.000  
G16  17189931.826    90333672.335          31.000  
G 4  17974751.102    94457952.525          31.000  
G 8  16807501.608    88324071.974          36.000  
G 9  17995401.920    94566502.992          35.000  
G26  18929672.494    99476089.132          28.000  
G23  17959663.442    94378649.055          30.000  
G 7  19696025.050   103503296.756          36.000  
> 2020  3 12  6 25 16.1870000  0  8                     
G27  16093659.894    84572753.263          36.000  
G16  17190054.146    90334308.289          32.000  
G 4  17974909.562    94458779.245          31.000  
G 8  16807320.068    88323117.305          36.000  
G 9  17995419.460    94566595.546          35.000  
G26  18929841.534    99476976.691          28.000  
G23  17959785.982    94379289.889          30.000  
G 7  19695755.850   103501881.880          36.000  
> 2020  3 12  6 25 16.5870000  0  8                     
G27  16093647.734    84572688.295          36.000  
G16  17190173.866    90334944.419          32.000  
G 4  17975070.122    94459606.119          31.000  
G 8  16807138.568    88322162.820          36.000  
G 9  17995437.020    94566688.255          35.000  
G26  18930010.694    99477864.404          28.000  
G23  17959906.542    94379930.969          30.000  
G 7  19695486.590   103500467.112          36.000  
> 2020  3 12  6 25 16.9870000  0  8                     
G27  16093635.414    84572623.366          36.000  
G16  17190295.166    90335580.567          32.000  
G 4  17975225.982    94460433.065          31.000  
G 8  16806956.888    88321208.379          36.000  
G 9  17995454.600    94566781.091          35.000  
G26  18930180.354    99478752.040          28.000  
G23  17960029.222    94380572.054          30.000  
G 7  19695217.330   103499052.327          36.000  
> 2020  3 12  6 25 17.3870000  0  8                     
G27  16093623.214    84572558.511          36.000  
G16  17190415.026    90336216.668          32.000  
G 4  17975381.022    94461259.971          31.000  
G 8  16806775.168    88320253.957          36.000  
G 9  17995472.400    94566873.982          35.000  
G26  18930349.254    99479639.691          28.000  
G23  17960151.242    94381213.171          30.000  
G 7  19694947.970   103497637.543          35.000  
> 2020  3 12  6 25 17.7870000  0  8                     
G27  16093610.974    84572493.582          36.000  
G16  17190536.166    90336852.627          32.000  
G 4  17975534.802    94462086.840          31.000  
G 8  16806593.308    88319299.511          36.000  
G 9  17995490.120    94566966.804          35.000  
G26  18930518.054    99480527.201          28.000  
G23  17960274.482    94381854.241          30.000  
G 7  19694678.910   103496222.583          35.000  
> 2020  3 12  6 25 18.5870000  0  8                     
G27  16093586.194    84572363.807          36.000  
G16  17190782.366    90338124.448          32.000  
G 4  17975851.302    94463740.529          31.000  
G 8  16806230.108    88317390.593          36.000  
G 9  17995525.340    94567152.485          35.000  
G26  18930857.294    99482301.995          28.000  
G23  17960518.802    94383136.293          30.000  
G 7  19694140.270   103493392.433          35.000  
> 2020  3 12  6 25 18.7870000  0  8                     
G27  16093580.014    84572331.415          36.000  
G16  17190843.846    90338442.352          32.000  
G 4  17975930.502    94464153.911          31.000  
G 8  16806139.308    88316913.386          36.000  
G 9  17995534.260    94567198.963          35.000  
G26  18930942.434    99482745.643          28.000  
G23  17960580.402    94383456.843          30.000  
G 7  19694005.670   103492684.898          36.000  
> 2020  3 12  6 25 22.7870000  0  8                     
G27  16093457.754    84571687.250          36.000  
G16  17192049.406    90344801.457          32.000  
G 4  17977502.222    94472424.940          31.000  
G 8  16804324.168    88307372.192          36.000  
G 9  17995712.020    94568131.958          35.000  
G26  18932634.574    99491618.350          28.000  
G23  17961801.802    94389870.162          30.000  
G 7  19691312.450   103478532.838          36.000  
> 2020  3 12  6 25 24.7870000  0  8                     
G27  16093397.774    84571370.111          36.000  
G16  17192654.746    90347983.313          32.000  
G 4  17978290.182    94476564.126          30.000  
G 8  16803417.128    88302605.824          36.000  
G 9  17995801.900    94568603.358          35.000  
G26  18933477.054    99496056.251          28.000  
G23  17962408.182    94393080.762          30.000  
G 7  19689966.350   103471458.294          35.000  
> 2020  3 12  6 25 25.5870000  0  8                     
G27  16093373.874    84571243.315          36.000  
G16  17192896.986    90349255.599          32.000  
G 4  17978604.182    94478219.691          30.000  
G 8  16803054.468    88300699.200          36.000  
G 9  17995837.760    94568791.941          35.000  
G26  18933814.454    99497830.877          28.000  
G23  17962652.862    94394364.922          30.000  
G 7  19689427.770   103468627.879          36.000  
> 2020  3 12  6 25 27.5870000  0  9                     
G27  16093314.474    84570929.135          36.000  
G16  17193502.706    90352437.801          32.000  
G 4  17979389.842    94482360.620          30.000  
G 8  16802148.088    88295935.032          36.000  
G 9  17995927.920    94569266.126          35.000  
G26  18934658.414    99502268.431          28.000  
G23  17963267.742    94397577.478          29.000  
G31                                        15.000  
G 7  19688081.350   103461552.930          35.000  
> 2020  3 12  6 25 27.9870000  0  9                     
G27  16093302.774    84570866.747          36.000  
G16  17193623.826    90353074.522          32.000  
G 4  17979548.502    94483189.197          30.000  
G 8  16801966.848    88294982.647          36.000  
G 9  17995946.040    94569361.429          35.000  
G26  18934827.034    99503156.177          28.000  
G23  17963392.402    94398220.423          29.000  
G31                                        14.000  
G 7  19687812.110   103460138.169          35.000  
> 2020  3 12  6 25 28.7870000  0  9                     
G27  16093279.214    84570742.741          36.000  
G16  17193866.106    90354348.424          32.000  
G 4  17979866.882    94484846.974          30.000  
G 8  16801604.388    88293078.482          36.000  
G 9  17995982.340    94569552.765          35.000  
G26  18935165.054    99504932.088          28.000  
G23  17963632.802    94399506.885          30.000  
G31                                        13.000  
G 7  19687273.930   103457309.016          36.000  
> 2020  3 12  6 25 29.5870000  0  9                     
G27  16093255.914    84570619.524          36.000  
G16  17194108.506    90355622.870          32.000  
G 4  17980179.822    94486505.363          30.000  
G 8  16801242.188    88291175.035          36.000  
G 9  17996018.520    94569744.870          35.000  
G26  18935501.554    99506708.474          28.000  
G23  17963875.522    94400793.996          29.000  
G31                                        14.000  
G 7  19686735.550   103454480.280          36.000  
> 2020  3 12  6 25 30.7870000  0  9                     
G27  16093220.954    84570436.336          36.000  
G16  17194472.406    90357535.667          32.000  
G 4  17980652.382    94488994.382          30.000  
G 8  16800699.128    88288321.400          36.000  
G 9  17996073.900    94570034.654          35.000  
G26  18936009.014    99509373.893          28.000  
G23  17964245.882    94402726.217          29.000  
G31                                        15.000  
G 7  19685928.290   103450238.208          36.000  
> 2020  3 12  6 25 31.1870000  0  9                     
G27  16093209.334    84570375.653          36.000  
G16  17194593.766    90358173.441          32.000  
G 4  17980811.302    94489824.439          31.000  
G 8  16800518.028    88287370.483          36.000  
G 9  17996092.520    94570131.649          35.000  
G26  18936176.554    99510262.570          28.000  
G23  17964367.202    94403370.613          29.000  
G31                                        15.000  
G 7  19685659.170   103448824.354          36.000  
> 2020  3 12  6 25 31.5870000  0  9                     
G27  16093197.734    84570315.094          36.000  
G16  17194715.186    90358811.337          32.000  
G 4  17980970.902    94490654.469          31.000  
G 8  16800337.128    88286419.740          36.000  
G 9  17996111.120    94570228.728          35.000  
G26  18936345.494    99511151.333          28.000  
G23  17964491.502    94404015.056          29.000  
G31                                        15.000  
G 7  19685390.050   103447410.513          35.000  
> 2020  3 12  6 25 33.5870000  0  9                     
G27  16093140.054    84570012.924          36.000  
G16  17195321.586    90362000.219          32.000  
G 4  17981761.162    94494805.046          31.000  
G 8  16799432.968    88281666.150          36.000  
G 9  17996203.720    94570714.750          35.000  
G26  18937191.074    99515594.166          28.000  
G23  17965105.762    94407237.691          29.000  
G31                                        16.000  
G 7  19684044.730   103440340.664          36.000  
> 2020  3 12  6 25 33.9870000  0  9                     
G27  16093128.554    84569952.565          36.000  
G16  17195442.906    90362637.909          32.000  
G 4  17981919.382    94495635.134          31.000  
G 8  16799251.988    88280715.464          36.000  
G 9  17996222.220    94570812.045          35.000  
G26  18937359.954    99516482.582          28.000  
G23  17965229.142    94407882.206          29.000  
G31                                        16.000  
G 7  19683775.530   103438926.484          36.000  
> 2020  3 12  6 25 34.7870000  0  9                     
G27  16093105.694    84569832.130          36.000  
G16  17195685.446    90363913.272          32.000  
G 4  17982236.422    94497295.399          31.000  
G 8  16798890.228    88278814.266          36.000  
G 9  17996259.180    94571006.830          35.000  
G26  18937698.674    99518259.288          28.000  
G23  17965470.702    94409171.423          29.000  
G31                                        16.000  
G 7  19683237.590   103436098.103          36.000  
> 2020  3 12  6 25 36.7870000  0  9                     
G27  16093048.594    84569532.669          36.000  
G16  17196292.166    90367102.059          32.000  
G 4  17983026.762    94501447.405          31.000  
G 8  16797986.148    88274062.632          36.000  
G 9  17996352.200    94571495.543          35.000  
G26  18938544.274    99522701.288          28.000  
G23  17966084.262    94412395.769          29.000  
G31                                        16.000  
G 7  19681892.110   103429027.272          36.000  
> 2020  3 12  6 25 38.7870000  0  9                     
G27  16092992.374    84569237.759          36.000  
G16  17196899.586    90370293.592          32.000  
G 4  17983818.562    94505603.056          31.000  
G 8  16797082.668    88269314.967          36.000  
G 9  17996446.200    94571988.634          35.000  
G26  18939389.154    99527145.456          28.000  
G23  17966696.542    94415623.853          29.000  
G31                                        16.000  
G 7  19680547.050   103421958.576          36.000  
> 2020  3 12  6 25 39.5870000  0  9                     
G27  16092970.234    84569120.643          36.000  
G16  17197142.486    90371570.600          32.000  
G 4  17984137.802    94507265.862          31.000  
G 8  16796721.488    88267416.654          36.000  
G 9  17996484.100    94572186.741          35.000  
G26  18939726.634    99528923.332          28.000  
G23  17966942.822    94416915.840          29.000  
G31                                        15.000  
G 7  19680009.270   103419131.354          36.000  
> 2020  3 12  6 25 39.9870000  0  9                     
G27  16092959.094    84569062.294          36.000  
G16  17197264.086    90372209.205          32.000  
G 4  17984296.222    94508097.542          31.000  
G 8  16796540.748    88266467.676          36.000  
G 9  17996502.940    94572285.977          35.000  
G26  18939896.874    99529812.405          28.000  
G23  17967066.162    94417561.981          29.000  
G31                                        14.000  
G 7  19679740.130   103417717.779          36.000  
> 2020  3 12  6 25 40.7870000  0  9                     
G27  16092936.994    84568946.276          36.000  
G16  17197507.146    90373486.785          32.000  
G 4  17984612.982    94509761.336          31.000  
G 8  16796179.588    88264570.332          36.000  
G 9  17996540.720    94572485.130          35.000  
G26  18940234.874    99531590.883          28.000  
G23  17967312.442    94418854.780          29.000  
G31                                        15.000  
G 7  19679201.990   103414891.058          36.000  
> 2020  3 12  6 25 42.7870000  0  9                     
G27  16092882.474    84568659.096          36.000  
G16  17198115.826    90376682.483          32.000  
G 4  17985405.102    94513922.999          31.000  
G 8  16795277.568    88259829.428          36.000  
G 9  17996636.000    94572985.848          35.000  
G26  18941080.154    99536038.216          29.000  
G23  17967927.102    94422089.323          29.000  
G31                                        16.000  
G 7  19677857.130   103407825.442          36.000  
> 2020  3 12  6 25 44.7870000  0  8                     
G27  16092828.534    84568374.982          36.000  
G16  17198724.126    90379879.491          33.000  
G 4  17986196.982    94518086.952          32.000  
G 8  16794376.128    88255091.184          36.000  
G 9  17996731.560    94573489.624          34.000  
G26  18941925.974    99540486.433          29.000  
G23  17968543.662    94425326.272          29.000  
G 7  19676512.730   103400760.633          36.000  
> 2020  3 12  6 25 45.9870000  0  8                     
G27  16092796.394    84568205.938          36.000  
G16  17199089.466    90381798.236          33.000  
G 4  17986672.622    94520586.315          32.000  
G 8  16793835.188    88252249.360          36.000  
G 9  17996788.860    94573793.176          35.000  
G26  18942435.914    99543155.686          28.000  
G23  17968912.982    94427269.453          29.000  
G 7  19675706.210   103396521.979          36.000  
> 2020  3 12  6 25 46.7870000  0  8                     
G27  16092774.874    84568093.862          36.000  
G16  17199332.986    90383077.653          33.000  
G 4  17986989.942    94522253.034          32.000  
G 8  16793474.868    88250355.414          36.000  
G 9  17996827.700    94573996.273          34.000  
G26  18942774.214    99544935.344          29.000  
G23  17969158.162    94428565.484          29.000  
G 7  19675168.450   103393696.415          36.000  
> 2020  3 12  6 25 47.5870000  0  8                     
G27  16092753.814    84567982.255          36.000  
G16  17199576.566    90384357.315          32.000  
G 4  17987307.062    94523920.152          32.000  
G 8  16793114.548    88248461.804          36.000  
G 9  17996866.060    94574199.743          34.000  
G26  18943116.554    99546715.103          29.000  
G23  17969405.482    94429861.872          29.000  
G 7  19674630.950   103390870.953          36.000  
> 2020  3 12  6 25 48.5870000  0  8                     
G27  16092727.194    84567842.900          36.000  
G16  17199881.306    90385956.541          33.000  
G 4  17987703.220    94526003.949          32.000  
G 8  16792664.048    88246094.868          36.000  
G 9  17996914.600    94574454.210          35.000  
G26  18943537.734    99548939.457          29.000  
G23  17969713.682    94431482.333          29.000  
G 7  19673958.650   103387338.744          36.000  
> 2020  3 12  6 25 48.9870000  0  8                     
G27  16092716.634    84567787.262          36.000  
G16  17200003.006    90386596.268          33.000  
G 4  17987861.800    94526837.493          31.000  
G 8  16792483.888    88245148.157          36.000  
G 9  17996933.940    94574556.147          35.000  
G26  18943707.654    99549829.195          29.000  
G23  17969836.942    94432130.560          29.000  
G 7  19673689.730   103385925.789          36.000  
> 2020  3 12  6 25 50.1870000  0  8                     
G27  16092685.214    84567620.998          36.000  
G16  17200368.386    90388515.567          33.000  
G 4  17988337.640    94529338.585          32.000  
G 8  16791943.308    88242308.604          36.000  
G 9  17996992.080    94574862.458          35.000  
G26  18944215.754    99552498.367          29.000  
G23  17970208.602    94434075.772          29.000  
G 7  19672883.130   103381687.067          36.000  
> 2020  3 12  6 25 50.9870000  0  8                     
G27  16092663.974    84567510.303          36.000  
G16  17200611.946    90389794.908          33.000  
G 4  17988654.720    94531006.015          32.000  
G 8  16791582.628    88240415.585          36.000  
G 9  17997031.000    94575066.829          35.000  
G26  18944553.634    99554277.525          29.000  
G23  17970454.142    94435372.620          29.000  
G 7  19672345.190   103378860.945          36.000  
> 2020  3 12  6 25 51.7870000  0  8                     
G27  16092642.914    84567399.924          36.000  
G16  17200855.306    90391074.244          33.000  
G 4  17988971.980    94532673.564          32.000  
G 8  16791222.328    88238522.821          36.000  
G 9  17997069.620    94575271.486          35.000  
G26  18944892.334    99556056.565          29.000  
G23  17970700.122    94436669.602          29.000  
G 7  19671807.190   103376034.724          36.000  
> 2020  3 12  6 25 52.1870000  0  8                     
G27  16092632.434    84567344.827          36.000  
G16  17200977.046    90391713.879          33.000  
G 4  17989130.920    94533507.452          31.000  
G 8  16791042.248    88237576.487          36.000  
G 9  17997089.360    94575373.902          35.000  
G26  18945061.614    99556946.079          29.000  
G23  17970823.122    94437318.145          29.000  
G 7  19671538.190   103374621.569          36.000  
> 2020  3 12  6 25 52.9870000  0  8                     
G27  16092611.354    84567234.627          36.000  
G16  17201220.606    90392992.978          33.000  
G 4  17989448.020    94535175.019          31.000  
G 8  16790681.728    88235683.775          36.000  
G 9  17997128.220    94575578.711          35.000  
G26  18945398.734    99558724.798          29.000  
G23  17971069.722    94438615.203          29.000  
G 7  19671000.130   103371794.980          36.000  
> 2020  3 12  6 25 53.7870000  0  8                     
G27  16092590.374    84567124.891          36.000  
G16  17201464.006    90394272.258          33.000  
G 4  17989765.120    94536842.925          31.000  
G 8  16790321.608    88233791.435          36.000  
G 9  17997167.340    94575783.997          35.000  
G26  18945738.474    99560503.646          29.000  
G23  17971315.942    94439912.611          29.000  
G 7  19670462.350   103368968.483          36.000  
> 2020  3 12  6 25 54.5870000  0  8                     
G27  16092569.394    84567015.836          36.000  
G16  17201707.266    90395551.889          33.000  
G 4  17990082.480    94538511.362          31.000  
G 8  16789961.508    88231899.703          36.000  
G 9  17997206.620    94575989.944          35.000  
G26  18946075.214    99562282.807          29.000  
G23  17971564.802    94441210.592          29.000  
G 7  19669924.330   103366142.335          36.000  
> 2020  3 12  6 25 54.9870000  0  8                     
G27  16092559.274    84566961.651          36.000  
G16  17201829.106    90396192.018          33.000  
G 4  17990241.100    94539345.870          31.000  
G 8  16789781.528    88230954.128          36.000  
G 9  17997226.500    94576093.255          35.000  
G26  18946243.714    99563172.576          29.000  
G23  17971690.062    94441859.849          29.000  
G 7  19669655.510   103364729.443          36.000  
> 2020  3 12  6 25 56.5870000  0  8                     
G27  16092518.094    84566745.601          36.000  
G16  17202316.466    90398752.258          33.000  
G 4  17990876.100    94542684.281          31.000  
G 8  16789062.308    88227172.428          36.000  
G 9  17997305.000    94576507.166          35.000  
G26  18946922.854    99566731.507          29.000  
G23  17972184.162    94444457.376          29.000  
G 7  19668579.950   103359077.668          36.000  
> 2020  3 12  6 25 56.9870000  0  8                     
G27  16092507.914    84566691.739          36.000  
G16  17202438.286    90399392.324          33.000  
G 4  17991035.000    94543518.938          31.000  
G 8  16788882.328    88226227.108          36.000  
G 9  17997324.880    94576610.800          35.000  
G26  18947092.474    99567621.148          29.000  
G23  17972306.862    94445106.906          29.000  
G 7  19668311.090   103357664.621          36.000  
> 2020  3 12  6 25 57.7870000  0  8                     
G27  16092487.414    84566584.429          36.000  
G16  17202681.926    90400672.558          33.000  
G 4  17991352.720    94545188.620          31.000  
G 8  16788522.728    88224336.822          36.000  
G 9  17997364.160    94576818.435          35.000  
G26  18947432.874    99569400.566          29.000  
G23  17972558.702    94446406.156          29.000  
G 7  19667773.370   103354838.712          36.000  
> 2020  3 12  6 25 58.1870000  0  8                     
G27  16092477.034    84566530.922          36.000  
G16  17202803.946    90401312.761          33.000  
G 4  17991511.480    94546023.512          31.000  
G 8  16788342.730    88223391.788          36.000  
G 9  17997384.000    94576922.408          35.000  
G26  18947601.194    99570290.304          29.000  
G23  17972683.822    94447055.912          29.000  
G 7  19667504.630   103353425.778          36.000  
> 2020  3 12  6 25 58.9870000  0  8                     
G27  16092456.654    84566424.061          36.000  
G16  17203047.506    90402593.047          33.000  
G 4  17991829.240    94547693.438          31.000  
G 8  16787983.070    88221501.806          36.000  
G 9  17997423.660    94577130.510          35.000  
G26  18947939.714    99572069.680          29.000  
G23  17972927.422    94448355.506          30.000  
G 7  19666967.170   103350599.748          36.000  
> 2020  3 12  6 26  0.5870000  0  8                     
G27  16092416.434    84566211.216          36.000  
G16  17203535.206    90405153.637          33.000  
G 4  17992464.660    94551033.691          31.000  
G 8  16787263.710    88217722.508          36.000  
G 9  17997503.040    94577547.531          35.000  
G26  18948618.514    99575628.127          29.000  
G23  17973423.782    94450955.162          30.000  
G 7  19665891.850   103344947.445          36.000  
> 2020  3 12  6 26  0.9870000  0  8                     
G27  16092406.274    84566158.070          36.000  
G16  17203656.986    90405793.695          33.000  
G 4  17992623.640    94551868.843          31.000  
G 8  16787084.030    88216777.774          36.000  
G 9  17997522.940    94577651.867          35.000  
G26  18948787.834    99576517.602          29.000  
G23  17973547.722    94451605.131          30.000  
G 7  19665623.050   103343534.264          36.000  
> 2020  3 12  6 26  1.3870000  0  8                     
G27  16092396.134    84566104.999          36.000  
G16  17203778.746    90406433.706          33.000  
G 4  17992782.500    94552703.902          31.000  
G 8  16786904.250    88215833.005          36.000  
G 9  17997542.840    94577756.219          35.000  
G26  18948957.674    99577407.022          29.000  
G23  17973668.782    94452255.076          30.000  
G 7  19665354.270   103342121.003          36.000  
> 2020  3 12  6 26  2.9870000  0  8                     
G27  16092356.034    84565894.498          36.000  
G16  17204266.326    90408994.968          33.000  
G 4  17993418.320    94556045.697          31.000  
G 8  16786185.510    88212055.607          36.000  
G 9  17997622.940    94578175.529          35.000  
G26  18949632.814    99580965.653          29.000  
G23  17974165.542    94454856.481          30.000  
G 7  19664278.390   103336468.826          36.000  
> 2020  3 12  6 26  3.7870000  0  8                     
G27  16092336.174    84565790.002          36.000  
G16  17204509.786    90410275.959          33.000  
G 4  17993736.500    94557717.240          31.000  
G 8  16785826.070    88210167.583          36.000  
G 9  17997663.180    94578385.896          35.000  
G26  18949971.914    99582745.240          29.000  
G23  17974411.142    94456157.775          30.000  
G 7  19663740.530   103333642.947          36.000  
> 2020  3 12  6 26  4.9870000  0  8                     
G27  16092306.314    84565634.077          36.000  
G16  17204875.686    90412197.623          33.000  
G 4  17994207.620    94560224.985          31.000  
G 8  16785287.110    88207336.164          36.000  
G 9  17997723.540    94578702.281          35.000  
G26  18950480.274    99585414.603          29.000  
G23  17974786.062    94458110.334          30.000  
G 7  19662933.690   103329404.230          36.000  
> 2020  3 12  6 26  5.7870000  0  8                     
G27  16092286.774    84565530.390          36.000  
G16  17205119.426    90413478.656          33.000  
G 4  17994530.120    94561896.927          31.000  
G 8  16784928.050    88205448.748          36.000  
G 9  17997763.880    94578913.428          35.000  
G26  18950819.854    99587194.050          29.000  
G23  17975030.542    94459412.143          30.000  
G 7  19662395.730   103326578.243          36.000  
> 2020  3 12  6 26  6.5870000  0  8                     
G27  16092267.174    84565426.658          36.000  
G16  17205363.126    90414759.424          34.000  
G 4  17994846.820    94563568.656          31.000  
G 8  16784568.790    88203561.236          36.000  
G 9  17997804.220    94579124.565          35.000  
G26  18951158.354    99588973.056          29.000  
G23  17975283.282    94460713.894          30.000  
G 7  19661857.830   103323751.867          36.000  
> 2020  3 12  6 26  6.9870000  0  8                     
G27  16092257.394    84565375.043          36.000  
G16  17205485.006    90415399.895          33.000  
G 4  17995003.440    94564404.803          31.000  
G 8  16784389.370    88202617.692          36.000  
G 9  17997824.380    94579230.393          35.000  
G26  18951326.934    99589862.733          29.000  
G23  17975407.702    94461364.932          30.000  
G 7  19661588.790   103322338.767          36.000  
> 2020  3 12  6 26  7.7870000  0  8                     
G27  16092237.874    84565272.570          36.000  
G16  17205728.626    90416681.445          33.000  
G 4  17995320.260    94566077.597          31.000  
G 8  16784030.270    88200731.276          36.000  
G 9  17997864.620    94579442.741          34.000  
G26  18951664.554    99591642.488          29.000  
G23  17975654.702    94462667.698          31.000  
G 7  19661051.230   103319513.047          36.000  
> 2020  3 12  6 26  8.1870000  0  8                     
G27  16092228.314    84565221.719          36.000  
G16  17205850.466    90417322.491          33.000  
G 4  17995482.600    94566914.327          31.000  
G 8  16783850.910    88199788.441          36.000  
G 9  17997885.020    94579549.290          35.000  
G26  18951833.814    99592532.586          29.000  
G23  17975777.162    94463319.443          31.000  
G 7  19660782.270   103318100.441          36.000  
> 2020  3 12  6 26  8.5870000  0  8                     
G27  16092218.434    84565170.987          36.000  
G16  17205972.406    90417963.645          33.000  
G 4  17995643.360    94567751.199          31.000  
G 8  16783671.610    88198845.717          36.000  
G 9  17997905.300    94579655.951          34.000  
G26  18952004.174    99593422.749          28.000  
G23  17975901.062    94463971.262          30.000  
G 7  19660513.410   103316687.869          36.000  
> 2020  3 12  6 26  8.9870000  0  8                     
G27  16092208.794    84565120.423          36.000  
G16  17206094.446    90418604.788          33.000  
G 4  17995802.480    94568588.132          31.000  
G 8  16783492.190    88197903.110          36.000  
G 9  17997925.760    94579762.792          35.000  
G26  18952173.894    99594312.992          29.000  
G23  17976027.562    94464623.170          30.000  
G 7  19660244.670   103315275.350          36.000  
> 2020  3 12  6 26  9.7870000  0  8                     
G27  16092189.394    84565019.364          36.000  
G16  17206338.486    90419887.014          33.000  
G 4  17996120.840    94570262.013          31.000  
G 8  16783133.510    88196017.927          36.000  
G 9  17997966.320    94579976.556          34.000  
G26  18952516.114    99596093.229          29.000  
G23  17976274.302    94465927.131          30.000  
G 7  19659706.950   103312450.130          36.000  
> 2020  3 12  6 26 10.9870000  0  8                     
G27  16092160.434    84564868.145          36.000  
G16  17206704.666    90421810.229          33.000  
G 4  17996600.180    94572773.032          31.000  
G 8  16782595.730    88193190.379          36.000  
G 9  17998027.580    94580297.515          34.000  
G26  18953024.274    99598763.258          28.000  
G23  17976644.842    94467883.213          30.000  
G 7  19658900.450   103308211.996          36.000  
> 2020  3 12  6 26 11.7870000  0  8                     
G27  16092141.314    84564768.244          36.000  
G16  17206948.766    90423092.925          33.000  
G 4  17996919.400    94574447.736          31.000  
G 8  16782237.250    88191306.199          36.000  
G 9  17998068.620    94580512.422          34.000  
G26  18953361.694    99600543.706          28.000  
G23  17976892.262    94469188.001          30.000  
G 7  19658362.530   103305387.015          36.000  
> 2020  3 12  6 26 12.5870000  0  8                     
G27  16092122.354    84564668.821          36.000  
G16  17207192.906    90424375.803          33.000  
G 4  17997237.960    94576122.860          31.000  
G 8  16781878.730    88189422.345          36.000  
G 9  17998109.580    94580727.742          34.000  
G26  18953699.214    99602324.348          28.000  
G23  17977141.662    94470493.181          30.000  
G 7  19657825.150   103302562.129          36.000  
> 2020  3 12  6 26 13.3870000  0  8                     
G27  16092103.174    84564569.467          36.000  
G16  17207437.066    90425658.465          34.000  
G 4  17997556.700    94577797.837          31.000  
G 8  16781520.570    88187538.541          36.000  
G 9  17998150.380    94580943.130          34.000  
G26  18954036.734    99604104.681          28.000  
G23  17977386.522    94471798.316          30.000  
G 7  19657287.550   103299736.943          36.000  
> 2020  3 12  6 26 13.7870000  0  8                     
G27  16092093.614    84564519.936          36.000  
G16  17207559.226    90426299.845          34.000  
G 4  17997716.080    94578635.468          31.000  
G 8  16781341.250    88186596.741          36.000  
G 9  17998171.120    94581051.003          34.000  
G26  18954205.414    99604994.839          28.000  
G23  17977513.502    94472451.008          30.000  
G 7  19657018.710   103298324.358          36.000  
> 2020  3 12  6 26 14.1870000  0  8                     
G27  16092084.134    84564470.636          36.000  
G16  17207681.366    90426941.390          34.000  
G 4  17997875.500    94579473.260          31.000  
G 8  16781162.270    88185655.170          36.000  
G 9  17998191.520    94581159.086          34.000  
G26  18954375.634    99605885.181          28.000  
G23  17977634.482    94473103.885          30.000  
G 7  19656749.950   103296911.938          36.000  
> 2020  3 12  6 26 14.9870000  0  8                     
G27  16092065.754    84564372.595          36.000  
G16  17207925.606    90428224.798          33.000  
G 4  17998194.180    94581149.317          31.000  
G 8  16780803.790    88183772.504          36.000  
G 9  17998232.840    94581375.780          34.000  
G26  18954715.014    99607666.076          28.000  
G23  17977884.242    94474410.151          30.000  
G 7  19656212.510   103294087.339          36.000  
> 2020  3 12  6 26 15.7870000  0  8                     
G27  16092047.234    84564275.235          36.000  
G16  17208169.746    90429508.567          33.000  
G 4  17998513.220    94582825.915          31.000  
G 8  16780445.430    88181890.408          36.000  
G 9  17998273.980    94581593.136          34.000  
G26  18955054.114    99609447.318          28.000  
G23  17978136.962    94475716.899          30.000  
G 7  19655675.090   103291263.043          36.000  
> 2020  3 12  6 26 16.1870000  0  8                     
G27  16092037.794    84564226.484          36.000  
G16  17208291.926    90430150.283          33.000  
G 4  17998672.640    94583664.069          31.000  
G 8  16780266.530    88180949.273          36.000  
G 9  17998294.580    94581701.742          34.000  
G26  18955222.694    99610337.699          28.000  
G23  17978258.922    94476370.255          30.000  
G 7  19655406.250   103289850.668          36.000  
> 2020  3 12  6 26 16.5870000  0  8                     
G27  16092028.514    84564177.686          36.000  
G16  17208413.886    90430791.923          33.000  
G 4  17998832.080    94584502.213          31.000  
G 8  16780087.350    88180008.099          36.000  
G 9  17998315.140    94581810.319          34.000  
G26  18955391.314    99611228.002          28.000  
G23  17978380.822    94477023.443          30.000  
G 7  19655137.510   103288438.204          36.000  
> 2020  3 12  6 26 16.9870000  0  8                     
G27  16092019.314    84564129.045          36.000  
G16  17208536.006    90431433.607          33.000  
G 4  17998992.560    94585340.415          31.000  
G 8  16779908.310    88179067.024          36.000  
G 9  17998335.720    94581919.001          34.000  
G26  18955560.834    99612118.289          28.000  
G23  17978507.442    94477676.812          30.000  
G 7  19654868.750   103287025.764          36.000  
> 2020  3 12  6 26 17.7870000  0  8                     
G27  16092000.634    84564032.121          36.000  
G16  17208780.246    90432717.089          34.000  
G 4  17999307.020    94587017.089          31.000  
G 8  16779550.510    88177185.149          36.000  
G 9  17998377.040    94582136.801          34.000  
G26  18955900.334    99613899.047          28.000  
G23  17978756.802    94478983.779          30.000  
G 7  19654331.210   103284200.948          36.000  
> 2020  3 12  6 26 18.5870000  0  8                     
G27  16091982.214    84563935.707          36.000  
G16  17209024.666    90434000.881          33.000  
G 4  17999625.640    94588694.221          31.000  
G 8  16779192.290    88175303.759          36.000  
G 9  17998418.360    94582355.074          34.000  
G26  18956237.414    99615679.979          28.000  
G23  17979003.942    94480291.147          30.000  
G 7  19653793.730   103281376.330          36.000  
> 2020  3 12  6 26 18.9870000  0  8                     
G27  16091972.994    84563887.666          36.000  
G16  17209146.866    90434642.805          33.000  
G 4  17999787.600    94589532.833          31.000  
G 8  16779013.190    88174363.213          36.000  
G 9  17998439.060    94582464.371          34.000  
G26  18956406.534    99616570.421          28.000  
G23  17979127.322    94480945.003          30.000  
G 7  19653525.010   103279964.052          36.000  
> 2020  3 12  6 26 19.3870000  0  8                     
G27  16091963.854    84563839.692          36.000  
G16  17209269.146    90435284.726          33.000  
G 4  17999947.540    94590371.507          31.000  
G 8  16778834.110    88173422.683          36.000  
G 9  17998459.680    94582573.731          34.000  
G26  18956576.714    99617460.884          28.000  
G23  17979253.442    94481598.824          30.000  
G 7  19653256.210   103278551.706          36.000  
> 2020  3 12  6 26 19.7870000  0  8                     
G27  16091954.574    84563791.761          36.000  
G16  17209391.406    90435926.605          33.000  
G 4  18000106.380    94591210.195          31.000  
G 8  16778655.030    88172482.168          36.000  
G 9  17998480.500    94582683.154          34.000  
G26  18956746.654    99618351.279          28.000  
G23  17979376.982    94482252.687          30.000  
G 7  19652987.390   103277139.353          36.000  
> 2020  3 12  6 26 20.1870000  0  8                     
G27  16091945.394    84563743.951          36.000  
G16  17209513.546    90436568.581          33.000  
G 4  18000265.840    94592049.009          31.000  
G 8  16778476.090    88171541.793          36.000  
G 9  17998501.440    94582792.664          34.000  
G26  18956916.494    99619241.695          28.000  
G23  17979502.042    94482906.613          30.000  
G 7  19652718.590   103275727.028          36.000  
> 2020  3 12  6 26 20.5870000  0  8                     
G27  16091936.394    84563696.330          36.000  
G16  17209635.946    90437210.657          33.000  
G 4  18000426.600    94592887.857          31.000  
G 8  16778297.110    88170601.554          36.000  
G 9  17998522.200    94582902.347          33.000  
G26  18957087.094    99620132.234          27.000  
G23  17979627.602    94483560.720          30.000  
G 7  19652449.730   103274314.750          36.000  
