     3.01           OBSERVATION DATA    M: Mixed            RINEX VERSION / TYPE
RTKCONV demo5 b34c                      20210805 004152 UTC PGM / RUN BY / DATE 
format: u-blox UBX                                          COMMENT             
log: C:\Users\YX\Desktop\SAVE2021_8_5_8-38-49.DAT           COMMENT             
                                                            MARKER NAME         
                                                            MARKER NUMBER       
                                                            MARKER TYPE         
                                                            OBSERVER / AGENCY   
                                                            REC # / TYPE / VERS 
                                                            ANT # / TYPE        
 -2175472.4851  4387265.5221  4072919.0020                  APPROX POSITION XYZ 
        0.0000        0.0000        0.0000                  ANTENNA: DELTA H/E/N
G    4 C1C L1C D1C S1C                                      SYS / # / OBS TYPES 
C    4 C2I L2I D2I S2I                                      SYS / # / OBS TYPES 
  2021    08    05    00    38   50.1890000     GPS         TIME OF FIRST OBS   
  2021    08    05    00    39   10.3890000     GPS         TIME OF LAST OBS    
G L1C                                                       SYS / PHASE SHIFT   
C L2I                                                       SYS / PHASE SHIFT   
                                                            END OF HEADER       
> 2021 08 05 00 38 50.1890000  0 26                     
C25  21662844.351 2 112804059.40411     -2849.406          37.000  
G30  20683501.436 2 108692563.17011     -2795.654          37.000  
C08  33398090.792 2 173912597.81811      1015.751          39.000  
G17  17600713.967 1  92492382.87011      1278.436          41.000  
C14  21892937.268 4 114002247.60312      3351.185          33.000  
G01  18028269.115 1  94739222.66811     -2411.656          40.000  
C21  21869648.382 2 113880944.53311       616.207          38.000  
C28  20767011.056 1 108139191.22111      2430.338          40.000  
C23  19779052.512 1 102994634.20611      -907.502          40.000  
C03  34194208.604 1 178058185.07011       440.583          38.000  
C01  34773305.283 2 181073693.93811       392.030          38.000  
C02  34820217.087 4 181317976.77232       407.410          34.000  
C07  32558391.096 1 169540092.91911        97.137          37.000  
C04  35597611.182 4 185366069.74532       397.522          34.000  
C11  18886468.762 1  98346744.77611      -860.595          40.000  
G19  18577437.345 1  97625097.65811      2668.410          40.000  
G06  20121639.116 1 105739977.89411      3527.777          38.000  
C05  36646044.066 9 190825537.08636       421.158          31.000  
C10  32446295.539 1 168956355.87611       496.912          38.000  
C13  34428896.495 2 179280234.83411      1382.515          37.000  
G22  18940581.070 1  99533457.56911      -508.058          42.000  
C12  22393828.021 4 116610512.92413     -2083.482          28.000  
G21  20758311.549 1 109085645.81111     -2612.077          38.000  
G14  16830723.231 1  88446090.42911        83.967          42.000  
G28  17367541.418 1  91267061.79111      1443.455          39.000  
G03  18324312.827 1  96294919.90711      1350.110          42.000  
> 2021 08 05 00 38 50.3890000  0 26                     
C25  21662953.833 2 112804629.278 1     -2849.575          37.000  
G30  20683607.813 2 108693122.288 1     -2795.434          37.000  
C08  33398051.756 2 173912394.611 1      1016.050          39.000  
G17  17600665.472 1  92492127.159 1      1278.351          41.000  
C14  21892808.520 4 114001577.448 2      3350.582          33.000  
G01  18028360.869 1  94739705.034 1     -2412.129          40.000  
C21  21869624.772 2 113880821.297 1       615.619          38.000  
C28  20766917.697 1 108138705.159 1      2430.218          40.000  
C23  19779087.395 1 102994815.724 1      -908.017          40.000  
C03  34194191.660 2 178058096.901 1       440.660          38.000  
C01  34773290.206 1 181073615.588 1       391.426          38.000  
C02  34820201.504 4 181317895.51422       405.713          34.000  
C07  32558387.361 2 169540073.472 1        97.144          37.000  
C04  35597595.931 4 185365990.20922       397.668          34.000  
C11  18886501.760 1  98346916.865 1      -860.734          40.000  
G19  18577335.749 1  97624564.015 1      2668.216          40.000  
G06  20121504.784 1 105739272.339 1      3527.389          38.000  
C05  36646028.012 9 190825452.85025       420.569          31.000  
C10  32446276.466 1 168956256.466 1       496.967          38.000  
C13  34428843.325 2 179279958.270 1      1382.898          37.000  
G22  18940600.405 1  99533559.282 1      -508.857          42.000  
C12  22393908.135 4 116610929.577 3     -2083.246          28.000  
G21  20758411.015 2 109086168.225 1     -2612.393          38.000  
G14  16830720.090 1  88446073.736 1        83.319          42.000  
G28  17367486.484 1  91266773.085 1      1443.166          39.000  
G03  18324261.471 1  96294649.872 1      1350.115          42.000  
> 2021 08 05 00 38 50.5890000  0 26                     
C25  21663063.351 1 112805199.188 1     -2849.565          37.000  
G30  20683714.119 2 108693681.435 1     -2795.288          37.000  
C08  33398012.789 2 173912191.434 1      1016.647          39.000  
G17  17600616.943 1  92491871.478 1      1278.656          41.000  
C14  21892679.773 4 114000907.317 2      3351.044          33.000  
G01  18028452.622 1  94740187.407 1     -2411.665          40.000  
C21  21869601.057 2 113880698.080 1       616.248          38.000  
C28  20766824.391 1 108138219.138 1      2430.396          40.000  
C23  19779122.331 1 102994997.260 1      -907.438          40.000  
C03  34194174.838 2 178058008.791 1       440.930          38.000  
C01  34773275.147 2 181073537.217 1       391.801          38.000  
C02  34820185.974 4 181317814.21222       406.630          34.000  
C07  32558383.679 2 169540054.064 1        97.339          37.000  
C04  35597580.697 4 185365910.67922       397.748          34.000  
C11  18886534.933 1  98347088.997 1      -860.436          40.000  
G19  18577234.207 1  97624030.420 1      2668.196          40.000  
G06  20121370.522 1 105738566.811 1      3527.821          38.000  
C05  36646011.888 9 190825368.66725       421.284          31.000  
C10  32446257.445 2 168956157.075 1       496.851          38.000  
C13  34428790.276 2 179279681.730 1      1382.725          37.000  
G22  18940619.687 1  99533661.014 1      -508.421          43.000  
C12  22393987.656 4 116611346.313 3     -2083.544          28.000  
G21  20758510.342 1 109086690.635 1     -2612.376          38.000  
G14  16830716.862 1  88446057.080 1        83.488          42.000  
G28  17367431.551 1  91266484.410 1      1443.699          39.000  
G03  18324210.063 1  96294379.913 1      1350.140          42.000  
> 2021 08 05 00 38 50.7890000  0 26                     
C25  21663172.746 2 112805769.020 1     -2849.309          37.000  
G30  20683820.426 2 108694240.520 1     -2795.239          37.000  
C08  33397973.806 1 173911988.231 1      1016.120          39.000  
G17  17600568.170 1  92491615.757 1      1278.510          42.000  
C14  21892551.042 4 114000237.159 2      3350.375          33.000  
G01  18028544.445 1  94740669.740 1     -2411.415          40.000  
C21  21869577.359 2 113880574.848 1       616.342          38.000  
C28  20766731.067 1 108137733.049 1      2430.374          40.000  
C23  19779157.161 1 102995178.790 1      -907.558          40.000  
C03  34194157.981 2 178057920.624 1       440.718          38.000  
C01  34773260.104 1 181073458.805 1       392.188          38.000  
C02  34820170.321 4 181317732.84922       407.189          34.000  
C07  32558379.980 2 169540034.626 1        96.851          37.000  
C04  35597565.306 4 185365831.10722       397.827          34.000  
C11  18886568.036 1  98347261.064 1      -860.428          41.000  
G19  18577132.559 1  97623496.759 1      2668.192          40.000  
G06  20121236.295 2 105737861.253 1      3527.844          38.000  
C05  36645995.642 8 190825284.38634       422.240          31.000  
C10  32446238.250 2 168956057.624 1       497.168          38.000  
C13  34428737.157 2 179279405.129 1      1382.840          37.000  
G22  18940639.039 1  99533762.729 1      -508.528          42.000  
C12  22394068.084 4 116611762.979 3     -2083.203          29.000  
G21  20758609.599 2 109087212.976 1     -2611.459          38.000  
G14  16830713.599 1  88446040.395 1        83.217          42.000  
G28  17367376.530 1  91266195.709 1      1443.741          39.000  
G03  18324158.655 1  96294109.924 1      1349.766          42.000  
> 2021 08 05 00 38 50.9890000  0 26                     
C25  21663282.107 1 112806338.863 1     -2849.165          37.000  
G30  20683926.715 2 108694799.597 1     -2795.343          37.000  
C08  33397934.717 1 173911784.983 1      1016.486          39.000  
G17  17600519.536 1  92491360.009 1      1279.022          42.000  
C14  21892422.225 4 113999566.923 2      3351.389          33.000  
G01  18028636.216 1  94741152.081 1     -2411.709          40.000  
C21  21869553.627 2 113880451.604 1       616.351          38.000  
C28  20766637.708 1 108137246.925 1      2430.789          40.000  
C23  19779192.044 1 102995360.289 1      -907.304          40.000  
C03  34194141.142 2 178057832.392 1       441.614          38.000  
C01  34773245.027 2 181073380.356 1       392.352          38.000  
C02  34820154.703 4 181317651.49822       406.682          33.000  
C07  32558376.141 2 169540015.118 1        97.534          37.000  
C04  35597549.985 4 185365751.48622       397.888          34.000  
C11  18886601.017 1  98347433.122 1      -860.086          40.000  
G19  18577030.999 1  97622963.073 1      2668.628          40.000  
G06  20121102.120 2 105737155.676 1      3527.781          38.000  
C05  36645979.570 8 190825200.17924       421.252          31.000  
C10  32446219.264 1 168955958.165 1       497.198          38.000  
C13  34428684.039 2 179279128.490 1      1383.402          37.000  
G22  18940658.374 1  99533864.430 1      -508.276          42.000  
C12  22394147.709 4 116612179.550 3     -2082.542          28.000  
G21  20758708.908 2 109087735.322 1     -2611.676          38.000  
G14  16830710.440 1  88446023.697 1        83.635          42.000  
G28  17367321.440 2  91265907.001 1      1443.623          39.000  
G03  18324107.299 1  96293839.907 1      1350.217          42.000  
> 2021 08 05 00 38 51.1890000  0 26                     
C25  21663391.467 1 112806908.666 1     -2848.820          37.000  
G30  20684033.214 2 108695358.636 1     -2794.708          37.000  
C08  33397895.629 1 173911581.723 1      1017.018          39.000  
G17  17600470.955 1  92491104.265 1      1278.674          42.000  
C14  21892293.582 4 113998896.719 2      3350.542          33.000  
G01  18028727.934 1  94741634.398 1     -2411.527          40.000  
C21  21869530.087 2 113880328.377 1       616.422          38.000  
C28  20766544.367 1 108136760.821 1      2430.808          40.000  
C23  19779226.910 1 102995541.811 1      -907.427          40.000  
C03  34194124.267 2 178057744.192 1       441.349          38.000  
C01  34773229.985 2 181073301.905 1       392.191          38.000  
C02  34820139.120 4 181317570.10522       406.389          34.000  
C07  32558372.337 2 169539995.628 1        97.699          37.000  
C04  35597534.663 4 185365671.87222       398.181          34.000  
C11  18886634.085 1  98347605.174 1      -860.162          40.000  
G19  18576929.578 1  97622429.388 1      2668.404          40.000  
G06  20120967.928 1 105736450.081 1      3527.990          38.000  
C05  36645963.446 8 190825115.89523       421.230          31.000  
C10  32446200.191 2 168955858.688 1       497.400          38.000  
C13  34428630.886 2 179278851.873 1      1383.494          37.000  
G22  18940677.674 1  99533966.160 1      -508.334          42.000  
C12  22394228.539 4 116612596.197 3     -2082.839          28.000  
G21  20758808.339 2 109088257.657 1     -2611.874          38.000  
G14  16830707.229 1  88446007.014 1        83.573          42.000  
G28  17367266.402 1  91265618.286 1      1443.629          39.000  
G03  18324055.943 1  96293569.928 1      1349.941          42.000  
> 2021 08 05 00 38 51.3890000  0 26                     
C25  21663500.898 1 112807478.462 1     -2848.945          37.000  
G30  20684139.695 2 108695917.689 1     -2795.428          37.000  
C08  33397856.593 1 173911378.489 1      1016.386          39.000  
G17  17600422.321 1  92490848.481 1      1278.931          41.000  
C14  21892164.817 2 113998226.458 2      3351.140          33.000  
G01  18028819.670 1  94742116.711 1     -2411.394          40.000  
C21  21869506.477 2 113880205.163 1       615.903          38.000  
C28  20766451.008 1 108136274.693 1      2430.646          40.000  
C23  19779261.740 1 102995723.321 1      -907.552          40.000  
C03  34194107.236 2 178057655.961 1       440.933          38.000  
C01  34773214.926 2 181073223.419 1       392.595          38.000  
C02  34820123.432 4 181317488.65732       407.538          33.000  
C07  32558368.585 2 169539976.122 1        97.522          37.000  
C04  35597519.394 2 185365593.20931       398.535          34.000  
C11  18886667.014 1  98347777.208 1      -859.810          41.000  
G19  18576828.140 1  97621895.675 1      2668.572          40.000  
G06  20120833.527 1 105735744.478 1      3528.157          38.000  
C05  36645947.165 8 190825032.57333       421.662          31.000  
C10  32446181.205 2 168955759.180 1       497.540          38.000  
C13  34428577.732 2 179278575.230 1      1383.157          37.000  
G22  18940697.184 1  99534067.884 1      -508.679          42.000  
C12  22394307.641 4 116613012.727 3     -2082.026          28.000  
G21  20758907.649 2 109088779.908 1     -2610.780          38.000  
G14  16830704.001 1  88445990.335 1        83.454          42.000  
G28  17367211.521 1  91265329.565 1      1443.887          39.000  
G03  18324004.709 1  96293299.927 1      1350.208          42.000  
> 2021 08 05 00 38 51.5890000  0 26                     
C25  21663610.258 1 112808048.254 1     -2848.507          37.000  
G30  20684246.054 2 108696476.694 1     -2794.824          37.000  
C08  33397817.609 1 173911175.230 1      1016.337          39.000  
G17  17600373.635 1  92490592.713 1      1279.083          41.000  
C14  21892036.069 4 113997556.204 2      3352.000          33.000  
G01  18028911.388 1  94742599.025 1     -2411.429          40.000  
C21  21869482.814 2 113880081.907 1       616.444          38.000  
C28  20766357.632 1 108135788.537 1      2431.160          40.000  
C23  19779296.588 1 102995904.844 1      -907.536          40.000  
C03  34194090.309 2 178057567.691 1       441.188          37.000  
C01  34773199.884 1 181073144.925 1       392.770          38.000  
C02  34820107.866 4 181317407.25122       407.819          34.000  
C07  32558364.990 2 169539956.599 1        97.681          37.000  
C04  35597504.056 4 185365513.55722       398.798          34.000  
C11  18886700.082 1  98347949.244 1      -860.109          40.000  
G19  18576726.458 1  97621361.961 1      2668.819          40.000  
G06  20120699.387 1 105735038.872 1      3528.471          38.000  
C05  36645930.884 8 190824948.26223       421.614          31.000  
C10  32446162.062 2 168955659.649 1       497.827          38.000  
C13  34428524.596 2 179278298.567 1      1383.572          37.000  
G22  18940716.379 1  99534169.616 1      -508.669          42.000  
C12  22394388.243 4 116613429.383 3     -2082.982          28.000  
G21  20759007.097 2 109089302.237 1     -2611.352          38.000  
G14  16830700.807 1  88445973.669 1        83.350          42.000  
G28  17367156.658 1  91265040.857 1      1443.912          39.000  
G03  18323953.196 1  96293029.979 1      1349.769          42.000  
> 2021 08 05 00 38 51.7890000  0 26                     
C25  21663719.723 1 112808618.041 1     -2848.875          37.000  
G30  20684352.414 2 108697035.717 1     -2795.184          37.000  
C08  33397778.520 1 173910971.932 1      1016.239          39.000  
G17  17600325.089 1  92490336.943 1      1278.735          41.000  
C14  21891907.286 4 113996885.931 2      3351.477          33.000  
G01  18029003.141 1  94743081.335 1     -2411.611          40.000  
C21  21869459.152 2 113879958.687 1       616.276          38.000  
C28  20766264.309 1 108135302.424 1      2430.322          40.000  
C23  19779331.524 1 102996086.373 1      -907.971          40.000  
C03  34194073.226 2 178057479.433 1       441.357          38.000  
C01  34773184.719 2 181073066.417 1       393.008          38.000  
C02  34820092.126 4 181317325.80322       407.767          34.000  
C07  32558361.238 2 169539937.060 1        97.607          37.000  
C04  35597488.734 4 185365433.91422       397.906          34.000  
C11  18886733.080 1  98348121.258 1      -860.185          40.000  
G19  18576624.985 1  97620828.259 1      2668.225          40.000  
G06  20120565.038 1 105734333.270 1      3528.208          38.000  
C05  36645914.778 8 190824863.98823       421.027          31.000  
C10  32446142.954 2 168955560.129 1       497.485          38.000  
C13  34428471.460 2 179278021.897 1      1383.605          37.000  
G22  18940735.783 1  99534271.349 1      -508.669          42.000  
C12  22394467.921 4 116613845.915 3     -2082.864          28.000  
G21  20759106.424 2 109089824.502 1     -2611.443          38.000  
G14  16830697.649 1  88445957.003 1        83.401          42.000  
G28  17367101.655 1  91264752.153 1      1443.653          39.000  
G03  18323901.822 1  96292760.008 1      1349.783          42.000  
> 2021 08 05 00 38 51.9890000  0 26                     
C25  21663829.206 1 112809187.762 1     -2848.569          37.000  
G30  20684458.808 2 108697594.690 1     -2794.696          37.000  
C08  33397739.467 1 173910768.629 1      1016.237          39.000  
G17  17600276.437 1  92490081.116 1      1278.802          41.000  
C14  21891778.556 4 113996215.602 2      3352.507          33.000  
G01  18029094.842 1  94743563.612 1     -2411.569          40.000  
C21  21869435.507 2 113879835.453 1       616.407          38.000  
C28  20766170.967 1 108134816.203 1      2431.069          40.000  
C23  19779366.372 1 102996267.878 1      -907.687          40.000  
C03  34194056.316 1 178057391.116 1       441.330          38.000  
C01  34773169.852 1 181072987.892 1       392.761          38.000  
C02  34820076.386 4 181317244.35622       407.351          34.000  
C07  32558357.591 2 169539917.491 1        97.766          37.000  
C04  35597473.535 4 185365355.19532       398.120          34.000  
C11  18886766.114 1  98348293.247 1      -860.191          41.000  
G19  18576523.355 1  97620294.483 1      2668.885          40.000  
G06  20120430.863 1 105733627.637 1      3527.969          38.000  
C05  36645898.479 8 190824778.58933       421.148          31.000  
C10  32446123.916 2 168955460.563 1       498.035          38.000  
C13  34428418.394 2 179277745.231 1      1383.205          37.000  
G22  18940755.101 1  99534373.082 1      -508.802          43.000  
C12  22394547.232 4 116614262.466 3     -2082.583          28.000  
G21  20759205.873 2 109090346.741 1     -2611.292          37.000  
G14  16830694.456 1  88445940.326 1        83.398          42.000  
G28  17367046.634 1  91264463.442 1      1443.367          39.000  
G03  18323850.554 1  96292490.036 1      1349.699          42.000  
> 2021 08 05 00 38 52.1890000  0 26                     
C25  21663938.654 2 112809757.519 1     -2848.075          37.000  
G30  20684565.132 2 108698153.659 1     -2794.830          37.000  
C08  33397700.518 1 173910565.318 1      1016.620          39.000  
G17  17600227.804 1  92489825.306 1      1279.150          41.000  
C14  21891649.843 4 113995545.330 2      3351.535          33.000  
G01  18029186.665 1  94744045.882 1     -2411.139          40.000  
C21  21869411.879 2 113879712.229 1       616.430          38.000  
C28  20766077.626 1 108134330.050 1      2431.008          40.000  
C23  19779401.272 1 102996449.405 1      -907.594          40.000  
C03  34194039.355 2 178057302.805 1       441.644          38.000  
C01  34773154.600 1 181072909.345 1       392.730          38.000  
C02  34820060.594 4 181317162.85822       407.707          34.000  
C07  32558353.962 2 169539897.920 1        98.010          37.000  
C04  35597458.231 2 185365275.48221       398.621          34.000  
C11  18886799.077 1  98348465.220 1      -859.693          41.000  
G19  18576421.724 1  97619760.740 1      2669.060          40.000  
G06  20120296.549 1 105732921.997 1      3528.438          38.000  
C05  36645882.198 8 190824694.23424       421.246          31.000  
C10  32446104.773 2 168955361.005 1       497.961          38.000  
C13  34428365.241 2 179277468.508 1      1383.591          37.000  
G22  18940774.453 1  99534474.826 1      -508.521          42.000  
C12  22394627.084 4 116614678.961 3     -2082.424          28.000  
G21  20759305.200 2 109090868.950 1     -2610.883          37.000  
G14  16830691.175 1  88445923.674 1        83.382          42.000  
G28  17366991.666 1  91264174.721 1      1443.861          39.000  
G03  18323799.128 1  96292220.074 1      1350.124          42.000  
> 2021 08 05 00 38 52.3890000  0 26                     
C25  21664047.997 2 112810327.245 1     -2848.630          37.000  
G30  20684671.491 2 108698712.612 1     -2794.739          37.000  
C08  33397661.517 1 173910361.992 1      1016.471          39.000  
G17  17600179.187 1  92489569.476 1      1279.071          41.000  
C14  21891521.061 4 113994875.003 2      3351.494          33.000  
G01  18029278.296 1  94744528.171 1     -2411.482          40.000  
C21  21869388.182 2 113879589.007 1       616.319          38.000  
C28  20765984.302 1 108133843.827 1      2431.116          40.000  
C23  19779436.225 1 102996630.916 1      -907.467          40.000  
C03  34194022.445 2 178057214.457 1       441.602          38.000  
C01  34773139.454 2 181072830.760 1       392.989          38.000  
C02  34820044.871 4 181317081.36322       407.381          34.000  
C07  32558350.157 2 169539878.349 1        97.705          37.000  
C04  35597442.858 2 185365195.72721       398.895          34.000  
C11  18886832.110 1  98348637.193 1      -859.912          41.000  
G19  18576320.112 1  97619226.970 1      2668.795          40.000  
G06  20120162.165 1 105732216.358 1      3528.087          38.000  
C05  36645865.969 8 190824609.77224       422.232          30.000  
C10  32446085.717 2 168955261.426 1       498.254          38.000  
C13  34428312.088 2 179277191.785 1      1383.541          37.000  
G22  18940793.805 1  99534576.575 1      -508.859          42.000  
C12  22394707.059 4 116615095.439 3     -2082.496          29.000  
G21  20759404.526 2 109091391.149 1     -2610.884          38.000  
G14  16830687.842 1  88445907.023 1        82.819          42.000  
G28  17366936.628 1  91263886.010 1      1443.369          39.000  
G03  18323747.859 1  96291950.132 1      1349.700          42.000  
> 2021 08 05 00 38 52.5890000  0 26                     
C25  21664157.410 2 112810896.923 1     -2848.545          37.000  
G30  20684777.902 2 108699271.529 1     -2794.977          37.000  
C08  33397622.568 1 173910158.596 1      1016.841          39.000  
G17  17600130.571 1  92489313.603 1      1279.407          41.000  
C14  21891392.330 4 113994204.615 2      3352.096          33.000  
G01  18029370.137 1  94745010.420 1     -2411.489          40.000  
C21  21869364.519 2 113879465.753 1       616.577          38.000  
C28  20765890.909 1 108133357.592 1      2431.552          40.000  
C23  19779471.091 1 102996812.408 1      -907.415          40.000  
C03  34194005.431 1 178057126.083 1       442.085          38.000  
C01  34773124.394 1 181072752.137 1       393.056          38.000  
C02  34820029.288 4 181316999.83622       407.788          34.000  
C07  32558346.441 2 169539858.707 1        98.065          37.000  
C04  35597427.624 2 185365115.95821       398.846          34.000  
C11  18886865.283 1  98348809.117 1      -859.758          41.000  
G19  18576218.447 1  97618693.181 1      2668.760          40.000  
G06  20120027.937 1 105731510.664 1      3528.195          38.000  
C05  36645849.741 8 190824525.32434       422.717          31.000  
C10  32446066.557 2 168955161.815 1       498.358          38.000  
C13  34428258.952 2 179276915.032 1      1383.565          37.000  
G22  18940813.175 1  99534678.291 1      -508.650          42.000  
C12  22394786.701 4 116615511.896 3     -2082.232          29.000  
G21  20759503.923 2 109091913.319 1     -2611.030          38.000  
G14  16830684.596 1  88445890.322 1        83.462          42.000  
G28  17366881.642 1  91263597.252 1      1443.533          39.000  
G03  18323696.608 1  96291680.168 1      1349.734          42.000  
> 2021 08 05 00 38 52.7890000  0 26                     
C25  21664266.840 1 112811466.613 1     -2848.557          37.000  
G30  20684884.279 1 108699830.416 1     -2794.458          37.000  
C08  33397583.514 1 173909955.218 1      1017.385          39.000  
G17  17600081.972 1  92489057.754 1      1279.242          41.000  
C14  21891263.478 4 113993534.258 2      3351.406          33.000  
G01  18029461.820 1  94745492.668 1     -2411.321          40.000  
C21  21869340.857 2 113879342.532 1       616.098          38.000  
C28  20765797.568 1 108132871.376 1      2430.932          40.000  
C23  19779505.939 1 102996993.920 1      -907.637          40.000  
C03  34193988.470 1 178057037.706 1       441.709          38.000  
C01  34773109.282 2 181072673.545 1       392.759          38.000  
C02  34820013.565 4 181316918.27222       407.851          34.000  
C07  32558342.619 2 169539839.079 1        98.132          37.000  
C04  35597412.302 2 185365036.15621       399.170          34.000  
C11  18886898.421 1  98348981.055 1      -859.882          41.000  
G19  18576116.730 1  97618159.356 1      2669.153          40.000  
G06  20119893.623 2 105730804.956 1      3528.736          38.000  
C05  36645833.495 9               9       422.217          31.000  
C10  32446047.484 2 168955062.179 1       498.511          38.000  
C13  34428205.886 2 179276638.282 1      1383.910          37.000  
G22  18940832.493 1  99534780.043 1      -508.556          42.000  
C12  22394866.449 4 116615928.362 3     -2082.343          29.000  
G21  20759603.214 2 109092435.448 1     -2610.232          38.000  
G14  16830681.385 1  88445873.678 1        83.297          42.000  
G28  17366826.761 1  91263308.533 1      1443.646          39.000  
G03  18323645.130 1  96291410.219 1      1349.703          42.000  
> 2021 08 05 00 38 52.9890000  0 26                     
C25  21664376.253 1 112812036.263 1     -2848.032          37.000  
G30  20684990.585 2 108700389.300 1     -2793.585          37.000  
C08  33397544.513 2 173909751.842 1      1017.354          39.000  
G17  17600033.321 1  92488801.875 1      1279.376          41.000  
C14  21891134.748 4 113992863.850 2      3352.377          33.000  
G01  18029553.486 1  94745974.907 1     -2411.025          40.000  
C21  21869317.177 2 113879219.314 1       616.277          38.000  
C28  20765704.279 1 108132385.109 1      2431.648          40.000  
C23  19779540.874 1 102997175.431 1      -907.331          40.000  
C03  34193971.456 1 178056949.311 1       441.865          38.000  
C01  34773094.223 2 181072594.889 1       393.207          38.000  
C02  34819998.017 4 181316836.70422       408.191          34.000  
C07  32558338.780 2 169539819.454 1        98.254          37.000  
C04  35597396.964 2 185364956.37121       398.962          34.000  
C11  18886931.385 1  98349152.961 1      -859.404          41.000  
G19  18576015.204 1  97617625.552 1      2669.357          40.000  
G06  20119759.291 2 105730099.301 1      3528.714          38.000  
C05  36645817.196 9 190824355.89536       422.634          31.000  
C10  32446028.306 2 168954962.558 1       498.523          38.000  
C13  34428152.732 2 179276361.534 1      1383.541          37.000  
G22  18940851.897 1  99534881.824 1      -508.768          42.000  
C12  22394947.470 4 116616344.773 3     -2082.112          29.000  
G21  20759702.593 2 109092957.584 1     -2610.335          38.000  
G14  16830678.087 1  88445857.030 1        83.491          42.000  
G28  17366771.898 1  91263019.793 1      1443.881          39.000  
G03  18323593.756 1  96291140.275 1      1349.859          42.000  
> 2021 08 05 00 38 53.1890000  0 26                     
C25  21664485.648 2 112812605.961 1     -2848.545          37.000  
G30  20685096.822 2 108700948.216 1     -2794.373          37.000  
C08  33397505.355 2 173909548.470 1      1017.270          39.000  
G17  17599984.722 1  92488546.008 1      1279.407          41.000  
C14  21891006.017 4 113992193.475 2      3351.413          33.000  
G01  18029645.222 1  94746457.165 1     -2411.335          40.000  
C21  21869293.392 2 113879096.119 1       615.717          38.000  
C28  20765610.850 1 108131898.881 1      2431.045          40.000  
C23  19779575.757 1 102997356.964 1      -907.718          40.000  
C03  34193954.529 1 178056860.882 1       442.003          37.000  
C01  34773079.024 2 181072516.241 1       393.324          38.000  
C02  34819982.382 4 181316755.13222       407.943          34.000  
C07  32558335.063 2 169539799.804 1        98.022          37.000  
C04  35597381.520 4 185364875.55532       398.755          34.000  
C11  18886964.383 1  98349324.890 1      -859.519          41.000  
G19  18575913.696 1  97617091.742 1      2669.252          40.000  
G06  20119624.925 2 105729393.640 1      3528.031          38.000  
C05  36645801.072 9 190824271.40426       421.818          30.000  
C10  32446009.163 2 168954862.922 1       498.145          38.000  
C13  34428099.544 2 179276084.748 1      1383.650          37.000  
G22  18940871.058 1  99534983.587 1      -509.088          42.000  
C12  22395026.607 4 116616761.169 3     -2081.989          29.000  
G21  20759801.972 2 109093479.729 1     -2610.647          38.000  
G14  16830674.911 1  88445840.407 1        82.936          42.000  
G28  17366717.069 1  91262731.093 1      1443.345          39.000  
G03  18323542.313 1  96290870.365 1      1349.597          42.000  
> 2021 08 05 00 38 53.3890000  0 26                     
C25  21664594.922 2 112813175.577 1     -2847.968          37.000  
G30  20685203.251 2 108701507.075 1     -2794.342          37.000  
C08  33397466.336 1 173909345.090 1      1017.151          39.000  
G17  17599935.984 1  92488290.127 1      1279.285          41.000  
C14  21890877.305 4 113991523.006 2      3352.656          33.000  
G01  18029736.853 1  94746939.417 1     -2411.317          40.000  
C21  21869269.782 1 113878972.888 1       615.988          38.000  
C28  20765517.596 1 108131412.617 1      2431.103          40.000  
C23  19779610.727 1 102997538.497 1      -907.793          40.000  
C03  34193937.672 1 178056772.465 1       442.223          38.000  
C01  34773064.069 2 181072437.581 1       393.503          38.000  
C02  34819966.712 4 181316673.50622       408.317          34.000  
C07  32558331.276 2 169539780.155 1        98.315          37.000  
C04  35597366.147 4 185364795.71222       399.323          34.000  
C11  18886997.416 1  98349496.807 1      -859.832          41.000  
G19  18575812.188 1  97616557.927 1      2669.071          40.000  
G06  20119490.698 2 105728687.923 1      3528.546          38.000  
C05  36645784.774 9 190824186.92825       423.206          31.000  
C10  32445990.055 1 168954763.259 1       498.364          38.000  
C13  34428046.530 2 179275807.946 1      1384.151          37.000  
G22  18940890.549 1  99535085.357 1      -508.781          42.000  
C12  22395107.297 4 116617177.607 3     -2082.305          29.000  
G21  20759901.334 2 109094001.828 1     -2610.347          38.000  
G14  16830671.648 1  88445823.775 1        83.055          42.000  
G28  17366662.153 1  91262442.358 1      1443.571          39.000  
G03  18323490.922 1  96290600.450 1      1349.468          42.000  
> 2021 08 05 00 38 53.5890000  0 26                     
C25  21664704.369 2 112813745.255 1     -2848.083          37.000  
G30  20685309.610 2 108702065.975 1     -2794.598          37.000  
C08  33397427.213 1 173909141.718 1      1016.595          39.000  
G17  17599887.175 1  92488034.280 1      1279.163          41.000  
C14  21890748.662 4 113990852.670 2      3351.629          33.000  
G01  18029828.659 1  94747421.699 1     -2411.465          40.000  
C21  21869246.119 1 113878849.736 1       615.879          38.000  
C28  20765424.168 1 108130926.386 1      2430.932          40.000  
C23  19779645.628 1 102997720.076 1      -908.275          40.000  
C03  34193920.780 1 178056684.059 1       441.820          37.000  
C01  34773049.009 2 181072358.951 1       392.881          38.000  
C02  34819951.006 4 181316591.95022       407.886          34.000  
C07  32558327.472 2 169539760.516 1        98.425          37.000  
C04  35597350.738 4 185364715.89222       399.554          34.000  
C11  18887030.519 1  98349668.744 1      -859.872          41.000  
G19  18575710.733 1  97616024.133 1      2668.918          40.000  
G06  20119356.505 2 105727982.289 1      3528.192          38.000  
C05  36645768.702 9               9       416.553          31.000  
C10  32445970.860 1 168954663.649 1       498.248          38.000  
C13  34427993.412 2 179275531.193 1      1383.844          37.000  
G22  18940909.884 1  99535187.189 1      -509.152          42.000  
C12  22395187.899 4 116617593.968 3     -2081.713          29.000  
G21  20760000.591 2 109094523.979 1     -2610.574          38.000  
G14  16830668.542 1  88445807.209 1        82.626          42.000  
G28  17366607.220 1  91262153.677 1      1443.364          39.000  
G03  18323439.496 1  96290330.603 1      1349.008          42.000  
> 2021 08 05 00 38 53.7890000  0 26                     
C25  21664813.835 2 112814314.943 1     -2847.712          37.000  
G30  20685415.882 2 108702624.903 1     -2794.678          37.000  
C08  33397388.141 2 173908938.379 1      1016.563          39.000  
G17  17599838.507 1  92487778.430 1      1279.218          41.000  
C14  21890619.914 4 113990182.240 2      3351.917          33.000  
G01  18029920.412 1  94747903.981 1     -2411.260          40.000  
C21  21869222.422 1 113878726.605 1       615.544          38.000  
C28  20765330.652 1 108130440.136 1      2431.499          40.000  
C23  19779680.528 1 102997901.656 1      -908.055          40.000  
C03  34193903.766 2 178056595.670 1       441.569          37.000  
C01  34773033.915 1 181072280.310 1       393.179          38.000  
C02  34819935.266 4 181316509.38932       407.761          33.000  
C07  32558323.790 2 169539740.901 1        97.961          37.000  
C04  35597335.260 4 185364636.10422       399.701          34.000  
C11  18887063.518 1  98349840.679 1      -859.499          41.000  
G19  18575609.033 1  97615490.338 1      2668.946          40.000  
G06  20119222.226 2 105727276.637 1      3527.962          38.000  
C05  36645752.456 9               6       423.583          31.000  
C10  32445951.682 1 168954564.034 1       498.065          38.000  
C13  34427940.293 2 179275254.430 1      1383.798          37.000  
G22  18940929.289 1  99535289.050 1      -509.265          42.000  
C12  22395268.537 4 116618010.458 3     -2082.302          29.000  
G21  20760099.970 2 109095046.104 1     -2610.615          38.000  
G14  16830665.471 1  88445790.627 1        82.942          42.000  
G28  17366552.269 1  91261865.027 1      1443.256          39.000  
G03  18323388.088 1  96290060.762 1      1349.289          42.000  
> 2021 08 05 00 38 53.9890000  0 26                     
C25  21664923.090 2 112814884.630 1     -2848.819          37.000  
G30  20685522.171 2 108703183.753 1     -2794.855          37.000  
C08  33397349.105 1 173908734.972 1      1016.826          39.000  
G17  17599789.960 1  92487522.557 1      1279.285          41.000  
C14  21890491.149 4 113989511.810 2      3352.738          33.000  
G01  18030012.200 1  94748386.252 1     -2411.302          40.000  
C21  21869198.742 1 113878603.437 1       615.836          38.000  
C28  20765237.311 1 108129953.890 1      2431.145          40.000  
C23  19779715.463 1 102998083.229 1      -908.165          40.000  
C03  34193886.770 2 178056507.191 1       442.194          37.000  
C01  34773018.838 2 181072201.624 1       393.374          38.000  
C02  34819919.701 4 181316427.80322       407.555          33.000  
C07  32558319.986 2 169539721.236 1        98.456          37.000  
C04  35597319.956 2 185364556.26322       399.072          34.000  
C11  18887096.533 1  98350012.608 1      -859.759          41.000  
G19  18575507.490 1  97614956.510 1      2669.203          40.000  
G06  20119087.999 2 105726570.947 1      3528.460          38.000  
C05  36645736.053 9               9       422.070          30.000  
C10  32445932.539 1 168954464.364 1       498.206          38.000  
C13  34427887.227 2 179274977.650 1      1383.936          37.000  
G22  18940948.746 1  99535390.880 1      -509.256          42.000  
C12  22395347.185 4 116618426.831 3     -2082.145          29.000  
G21  20760199.366 2 109095568.200 1     -2610.244          38.000  
G14  16830662.312 1  88445774.068 1        82.888          41.000  
G28  17366497.319 1  91261576.352 1      1443.248          39.000  
G03  18323336.819 1  96289790.907 1      1349.132          42.000  
> 2021 08 05 00 38 54.1890000  0 26                     
C25  21665032.416 2 112815454.230 1     -2847.562          37.000  
G30  20685628.478 2 108703742.577 1     -2793.829          37.000  
C08  33397310.087 1 173908531.569 1      1017.167          39.000  
G17  17599741.326 1  92487266.663 1      1279.736          41.000  
C14  21890362.331 4 113988841.404 2      3352.280          33.000  
G01  18030103.988 1  94748868.504 1     -2410.900          40.000  
C21  21869175.097 1 113878480.284 1       615.693          38.000  
C28  20765143.987 1 108129467.611 1      2431.582          40.000  
C23  19779750.434 1 102998264.800 1      -907.678          40.000  
C03  34193869.878 2 178056418.738 1       442.841          38.000  
C01  34773003.691 2 181072122.928 1       393.523          38.000  
C02  34819904.100 4 181316346.13822       408.542          34.000  
C07  32558316.409 2 169539701.588 1        98.199          37.000  
C04  35597304.547 2 185364476.39121       399.585          34.000  
C11  18887129.567 1  98350184.487 1      -859.181          41.000  
G19  18575405.930 1  97614422.694 1      2669.379          40.000  
G06  20118953.667 2 105725865.257 1      3528.855          38.000  
C05  36645719.911 9 190823849.00337       423.601          30.000  
C10  32445913.466 1 168954364.691 1       498.560          38.000  
C13  34427834.109 2 179274700.857 1      1383.883          37.000  
G22  18940968.255 1  99535492.727 1      -509.124          42.000  
C12  22395426.130 4 116618843.182 3     -2081.883          29.000  
G21  20760298.588 2 109096090.278 1     -2610.172          38.000  
G14  16830659.293 1  88445757.521 1        82.549          41.000  
G28  17366442.473 1  91261287.668 1      1443.321          39.000  
G03  18323285.498 1  96289521.067 1      1349.332          42.000  
> 2021 08 05 00 38 54.3890000  0 26                     
C25  21665141.759 2 112816023.881 1     -2848.047          37.000  
G30  20685734.645 2 108704301.445 1     -2794.426          37.000  
C08  33397271.016 1 173908328.150 1      1017.240          39.000  
G17  17599692.658 1  92487010.795 1      1279.150          41.000  
C14  21890233.636 4 113988170.936 2      3352.399          33.000  
G01  18030195.724 1  94749350.787 1     -2411.774          40.000  
C21  21869151.400 1 113878357.138 1       615.393          38.000  
C28  20765050.524 1 108128981.348 1      2431.367          40.000  
C23  19779785.421 1 102998446.397 1      -908.066          40.000  
C03  34193852.829 2 178056330.291 1       442.170          38.000  
C01  34772988.614 2 181072044.239 1       393.350          38.000  
C02  34819888.412 4 181316264.56022       407.518          34.000  
C07  32558312.657 2 169539681.907 1        98.041          37.000  
C04  35597289.209 2 185364396.55521       399.414          34.000  
C11  18887162.583 1  98350356.402 1      -859.566          40.000  
G19  18575304.404 1  97613888.854 1      2669.251          40.000  
G06  20118819.370 2 105725159.603 1      3528.351          38.000  
C05  36645703.665 9 190823764.41826       422.202          31.000  
C10  32445894.341 1 168954265.032 1       498.138          38.000  
C13  34427781.078 2 179274424.061 1      1384.114          37.000  
G22  18940987.555 1  99535594.592 1      -509.403          42.000  
C12  22395507.203 4 116619259.554 3     -2081.940          29.000  
G21  20760397.897 2 109096612.350 1     -2610.566          38.000  
G14  16830656.152 1  88445740.967 1        82.688          41.000  
G28  17366387.522 1  91260999.028 1      1442.849          39.000  
G03  18323234.229 1  96289251.262 1      1349.019          42.000  
> 2021 08 05 00 38 54.5890000  0 26                     
C25  21665251.224 2 112816593.575 1     -2848.817          37.000  
G30  20685840.987 2 108704860.324 1     -2794.463          37.000  
C08  33397231.997 2 173908124.779 1      1017.083          39.000  
G17  17599643.902 1  92486754.943 1      1279.187          41.000  
C14  21890104.818 2 113987500.531 1      3351.879          33.000  
G01  18030287.547 1  94749833.088 1     -2411.624          40.000  
C21  21869127.790 1 113878234.052 1       615.326          38.000  
C28  20764957.078 1 108128495.124 1      2430.856          40.000  
C23  19779820.269 1 102998628.024 1      -908.044          40.000  
C03  34193835.885 2 178056241.859 1       441.854          37.000  
C01  34772973.624 2 181071965.566 1       393.389          38.000  
C02  34819872.637 4 181316182.90222       407.817          34.000  
C07  32558308.940 2 169539662.253 1        98.486          37.000  
C04  35597273.852 2 185364316.70221       399.237          34.000  
C11  18887195.616 1  98350528.354 1      -859.832          41.000  
G19  18575202.984 1  97613355.078 1      2668.910          40.000  
G06  20118685.056 2 105724453.941 1      3528.295          38.000  
C05  36645687.436 9 190823679.95125       422.236          31.000  
C10  32445875.215 1 168954165.376 1       498.364          38.000  
C13  34427727.889 2 179274147.301 1      1383.668          37.000  
G22  18941006.890 1  99535696.516 1      -509.855          42.000  
C12  22395586.515 4 116619675.945 3     -2082.220          29.000  
G21  20760497.241 2 109097134.447 1     -2610.282          37.000  
G14  16830653.046 1  88445724.483 1        82.372          41.000  
G28  17366332.589 1  91260710.377 1      1443.232          39.000  
G03  18323182.891 1  96288981.501 1      1348.447          42.000  
> 2021 08 05 00 38 54.7890000  0 26                     
C25  21665360.620 2 112817163.202 1     -2848.447          37.000  
G30  20685947.294 2 108705419.173 1     -2794.535          37.000  
C08  33397192.839 1 173907921.394 1      1016.944          39.000  
G17  17599595.268 1  92486499.067 1      1279.364          41.000  
C14  21889976.036 2 113986830.098 1      3352.115          33.000  
G01  18030379.405 1  94750315.384 1     -2411.577          40.000  
C21  21869104.092 1 113878110.947 1       615.235          38.000  
C28  20764863.737 1 108128008.854 1      2431.111          40.000  
C23  19779855.065 1 102998809.654 1      -908.196          40.000  
C03  34193818.854 2 178056153.366 1       442.388          38.000  
C01  34772958.477 2 181071886.844 1       393.525          38.000  
C02  34819856.932 4 181316101.26722       408.426          33.000  
C07  32558305.171 1 169539642.581 1        98.553          37.000  
C04  35597258.531 4 185364236.83422       399.255          34.000  
C11  18887228.562 1  98350700.260 1      -859.709          41.000  
G19  18575101.389 1  97612821.246 1      2669.194          40.000  
G06  20118550.899 1 105723748.283 1      3528.406          38.000  
C05  36645671.190 9 190823595.41925       422.772          31.000  
C10  32445856.003 1 168954065.703 1       498.523          38.000  
C13  34427674.718 2 179273870.501 1      1384.235          37.000  
G22  18941026.207 1  99535798.421 1      -509.535          42.000  
C12  22395666.123 4 116620092.284 3     -2081.538          29.000  
G21  20760596.585 2 109097656.544 1     -2610.820          37.000  
G14  16830649.870 1  88445707.982 1        82.180          41.000  
G28  17366277.725 1  91260421.729 1      1443.397          39.000  
G03  18323131.639 1  96288711.716 1      1348.845          42.000  
> 2021 08 05 00 38 54.9890000  0 26                     
C25  21665470.155 2 112817732.846 1     -2847.907          37.000  
G30  20686053.723 2 108705978.015 1     -2794.141          37.000  
C08  33397153.802 1 173907717.968 1      1017.581          39.000  
G17  17599546.530 1  92486243.200 1      1279.456          41.000  
C14  21889847.375 4 113986159.619 2      3352.472          33.000  
G01  18030471.124 1  94750797.680 1     -2411.429          40.000  
C21  21869080.465 1 113877987.866 1       615.308          38.000  
C28  20764770.395 1 108127522.579 1      2431.368          40.000  
C23  19779889.931 1 102998991.295 1      -908.022          40.000  
C03  34193801.822 2 178056064.902 1       442.595          37.000  
C01  34772943.418 2 181071808.122 1       394.150          38.000  
C02  34819841.244 4 181316019.62532       408.612          33.000  
C07  32558301.332 2 169539622.938 1        98.285          37.000  
C04  35597243.245 2 185364156.95821       399.548          34.000  
C11  18887261.630 1  98350872.173 1      -859.612          41.000  
G19  18574999.811 1  97612287.423 1      2669.257          40.000  
G06  20118416.445 2 105723042.638 1      3528.234          38.000  
C05  36645654.909 9 190823510.86024       423.184          31.000  
C10  32445836.825 1 168953966.022 1       498.895          38.000  
C13  34427621.565 2 179273593.723 1      1384.268          37.000  
G22  18941045.472 1  99535900.345 1      -509.476          42.000  
C12  22395745.643 4 116620508.644 3     -2081.890          29.000  
G21  20760695.877 2 109098178.567 1     -2609.894          37.000  
G14  16830646.659 1  88445691.502 1        82.534          41.000  
G28  17366222.827 1  91260133.108 1      1443.318          39.000  
G03  18323080.353 1  96288441.978 1      1348.863          42.000  
> 2021 08 05 00 38 55.1890000  0 26                     
C25  21665579.463 2 112818302.505 1     -2848.306          37.000  
G30  20686159.977 2 108706536.857 1     -2793.819          36.000  
C08  33397114.731 1 173907514.624 1      1017.027          39.000  
G17  17599497.966 1  92485987.351 1      1279.431          41.000  
C14  21889718.575 4 113985489.200 2      3352.463          33.000  
G01  18030562.947 1  94751280.003 1     -2411.582          40.000  
C21  21869056.837 1 113877864.805 1       615.435          38.000  
C28  20764677.002 1 108127036.345 1      2431.071          40.000  
C23  19779924.779 1 102999172.975 1      -908.146          40.000  
C03  34193784.808 2 178055976.436 1       442.462          37.000  
C01  34772928.341 2 181071729.430 1       393.468          38.000  
C02  34819825.504 4 181315937.96122       409.073          34.000  
C07  32558297.545 2 169539603.285 1        98.242          37.000  
C04  35597228.011 4 185364077.10522       399.164          34.000  
C11  18887294.611 1  98351044.107 1      -859.619          41.000  
G19  18574898.268 1  97611753.626 1      2669.380          40.000  
G06  20118282.096 2 105722337.003 1      3528.149          38.000  
C05  36645638.698 9 190823426.33224       423.095          31.000  
C10  32445817.752 1 168953866.389 1       498.584          38.000  
C13  34427568.447 2 179273316.944 1      1383.899          37.000  
G22  18941064.772 1  99536002.329 1      -509.948          42.000  
C12  22395826.281 4 116620924.970 3     -2081.404          29.000  
G21  20760795.117 2 109098700.687 1     -2610.751          37.000  
G14  16830643.379 1  88445675.064 1        82.222          41.000  
G28  17366167.981 1  91259844.533 1      1443.056          39.000  
G03  18323029.085 1  96288172.265 1      1348.625          42.000  
> 2021 08 05 00 38 55.3890000  0 26                     
C25  21665688.841 2 112818872.116 1     -2848.090          37.000  
G30  20686266.161 2 108707095.697 1     -2793.948          36.000  
C08  33397075.573 1 173907311.184 1      1017.521          39.000  
G17  17599449.280 1  92485731.471 1      1279.480          41.000  
C14  21889589.915 4 113984818.744 2      3352.143          33.000  
G01  18030654.787 1  94751762.290 1     -2411.340          40.000  
C21  21869033.174 1 113877741.741 1       615.328          38.000  
C28  20764583.521 1 108126550.063 1      2431.232          40.000  
C23  19779959.714 1 102999354.635 1      -908.322          40.000  
C03  34193767.759 2 178055887.937 1       442.775          38.000  
C01  34772913.212 2 181071650.709 1       393.698          38.000  
C02  34819809.834 4 181315856.34622       408.226          34.000  
C07  32558293.758 2 169539583.593 1        98.547          37.000  
C04  35597212.637 4 185363997.18922       399.744          34.000  
C11  18887327.731 1  98351216.004 1      -859.365          41.000  
G19  18574796.621 1  97611219.813 1      2669.058          41.000  
G06  20118147.886 2 105721631.326 1      3528.553          38.000  
C05  36645622.487 8 190823341.75824       423.737          31.000  
C10  32445798.591 2 168953766.712 1       498.187          38.000  
C13  34427515.398 2 179273040.142 1      1384.105          37.000  
G22  18941084.282 1  99536104.275 1      -509.923          42.000  
C12  22395906.203 4 116621341.295 3     -2081.545          29.000  
G21  20760894.391 2 109099222.705 1     -2610.139          37.000  
G14  16830640.203 1  88445658.614 1        82.164          41.000  
G28  17366112.978 1  91259555.919 1      1442.839          39.000  
G03  18322977.746 1  96287902.548 1      1348.489          42.000  
> 2021 08 05 00 38 55.5890000  0 26                     
C25  21665798.184 2 112819441.722 1     -2847.825          37.000  
G30  20686372.555 2 108707654.522 1     -2794.120          36.000  
C08  33397036.520 1 173907107.789 1      1017.241          39.000  
G17  17599400.559 1  92485475.586 1      1279.486          41.000  
C14  21889461.132 4 113984148.246 2      3352.693          33.000  
G01  18030746.523 1  94752244.593 1     -2411.754          40.000  
C21  21869009.442 2 113877618.688 1       614.972          38.000  
C28  20764490.215 1 108126063.782 1      2431.401          40.000  
C23  19779994.580 1 102999536.305 1      -908.368          40.000  
C03  34193750.641 2 178055799.421 1       443.069          38.000  
C01  34772898.012 2 181071571.982 1       393.192          38.000  
C02  34819794.164 4 181315774.67822       408.093          34.000  
C07  32558289.989 1 169539563.901 1        98.499          37.000  
C04  35597197.263 2 185363917.29621       399.243          34.000  
C11  18887360.747 1  98351387.897 1      -859.430          41.000  
G19  18574695.025 1  97610685.985 1      2669.025          41.000  
G06  20118013.484 2 105720925.664 1      3528.302          38.000  
C05  36645606.240 8 190823257.19834       423.500          31.000  
C10  32445779.553 2 168953667.011 1       498.541          38.000  
C13  34427462.227 2 179272763.318 1      1384.268          37.000  
G22  18941103.774 1  99536206.240 1      -509.853          42.000  
C12  22395985.706 4 116621757.625 3     -2081.659          29.000  
G21  20760993.718 2 109099744.739 1     -2610.201          37.000  
G14  16830637.044 1  88445642.161 1        82.075          41.000  
G28  17366058.184 1  91259267.303 1      1443.374          39.000  
G03  18322926.373 1  96287632.840 1      1348.423          42.000  
> 2021 08 05 00 38 55.7890000  0 26                     
C25  21665907.579 2 112820011.355 1     -2848.113          37.000  
G30  20686478.740 2 108708213.350 1     -2794.148          37.000  
C08  33396997.326 1 173906904.390 1      1017.100          39.000  
G17  17599352.047 1  92485219.719 1      1279.315          41.000  
C14  21889332.367 4 113983477.768 2      3352.733          33.000  
G01  18030838.328 1  94752726.900 1     -2411.666          40.000  
C21  21868985.727 1 113877495.670 1       614.962          38.000  
C28  20764396.786 1 108125577.503 1      2431.385          40.000  
C23  19780029.445 1 102999718.013 1      -908.942          40.000  
C03  34193733.574 2 178055710.935 1       442.357          38.000  
C01  34772882.970 2 181071493.219 1       393.945          38.000  
C02  34819778.581 4 181315693.00922       407.400          34.000  
C07  32558286.133 1 169539544.220 1        98.370          37.000  
C04  35597181.907 2 185363837.39221       399.365          34.000  
C11  18887393.780 1  98351559.799 1      -859.416          41.000  
G19  18574593.430 1  97610152.145 1      2669.000          41.000  
G06  20117879.275 1 105720220.043 1      3527.785          38.000  
C05  36645589.924 8 190823172.61625       424.450          30.000  
C10  32445760.498 2 168953567.313 1       498.547          38.000  
C13  34427409.021 1 179272486.517 1      1383.923          37.000  
G22  18941123.039 1  99536308.237 1      -510.088          42.000  
C12  22396066.692 4 116622173.908 2     -2081.430          29.000  
G21  20761092.957 2 109100266.784 1     -2610.534          37.000  
G14  16830633.886 1  88445625.750 1        81.999          41.000  
G28  17366003.198 1  91258978.754 1      1442.755          39.000  
G03  18322874.964 1  96287363.176 1      1347.986          42.000  
> 2021 08 05 00 38 55.9890000  0 26                     
C25  21666016.800 2 112820580.982 1     -2848.215          37.000  
G30  20686584.994 2 108708772.143 1     -2794.176          37.000  
C08  33396958.220 1 173906700.967 1      1016.869          39.000  
G17  17599303.308 1  92484963.842 1      1279.260          41.000  
C14  21889203.602 4 113982807.239 2      3353.390          33.000  
G01  18030930.047 1  94753209.202 1     -2411.589          40.000  
C21  21868962.100 1 113877372.638 1       614.708          38.000  
C28  20764303.358 1 108125091.224 1      2431.109          40.000  
C23  19780064.311 1 102999899.693 1      -908.675          40.000  
C03  34193716.683 2 178055622.417 1       442.217          38.000  
C01  34772867.789 2 181071414.491 1       393.219          38.000  
C02  34819762.893 4 181315611.29322       408.195          33.000  
C07  32558282.311 1 169539524.532 1        98.230          37.000  
C04  35597166.516 2 185363757.48721       399.213          34.000  
C11  18887426.866 1  98351731.697 1      -859.664          41.000  
G19  18574491.818 1  97609618.323 1      2669.025          41.000  
G06  20117745.013 1 105719514.346 1      3528.343          38.000  
C05  36645573.626 8 190823088.05325       421.964          30.000  
C10  32445741.302 2 168953467.616 1       498.584          38.000  
C13  34427355.920 2 179272209.700 1      1384.290          37.000  
G22  18941142.339 1  99536410.239 1      -510.274          42.000  
C12  22396146.719 2 116622590.217 2     -2081.519          29.000  
G21  20761192.109 2 109100788.785 1     -2610.430          37.000  
G14  16830630.745 1  88445609.353 1        81.644          41.000  
G28  17365948.300 1  91258690.153 1      1442.949          39.000  
G03  18322823.643 1  96287093.501 1      1347.989          42.000  
> 2021 08 05 00 38 56.1890000  0 26                     
C25  21666126.231 2 112821150.620 1     -2848.021          37.000  
G30  20686691.388 2 108709330.999 1     -2794.363          37.000  
C08  33396919.237 1 173906497.613 1      1016.795          39.000  
G17  17599254.535 1  92484708.001 1      1279.285          41.000  
C14  21889074.802 4 113982136.799 2      3353.173          33.000  
G01  18031021.852 1  94753691.564 1     -2411.991          40.000  
C21  21868938.542 1 113877249.665 1       614.520          38.000  
C28  20764210.017 1 108124604.968 1      2431.188          40.000  
C23  19780099.211 1 103000081.451 1      -909.107          40.000  
C03  34193699.616 2 178055533.917 1       442.566          38.000  
C01  34772852.642 2 181071335.737 1       393.469          38.000  
C02  34819747.258 4 181315529.61732       408.861          33.000  
C07  32558278.420 1 169539504.874 1        97.955          37.000  
C04  35597151.125 2 185363675.57931       399.231          34.000  
C11  18887459.882 1  98351903.638 1      -859.638          41.000  
G19  18574390.257 1  97609084.538 1      2668.806          41.000  
G06  20117610.663 1 105718808.759 1      3528.064          38.000  
C05  36645557.397 8 190823002.48835       422.547          30.000  
C10  32445722.194 2 168953367.975 1       498.071          38.000  
C13  34427302.767 2 179271932.939 1      1383.676          37.000  
G22  18941161.813 1  99536512.296 1      -510.243          42.000  
C12  22396227.409 2 116623006.542 2     -2081.365          29.000  
G21  20761291.366 2 109101310.856 1     -2610.852          37.000  
G14  16830627.517 1  88445592.992 1        81.712          41.000  
G28  17365893.436 1  91258401.628 1      1442.700          39.000  
G03  18322772.287 1  96286823.880 1      1348.178          42.000  
> 2021 08 05 00 38 56.3890000  0 26                     
C25  21666235.643 2 112821720.292 1     -2848.612          37.000  
G30  20686797.800 2 108709889.868 1     -2794.894          37.000  
C08  33396880.078 1 173906294.233 1      1016.709          39.000  
G17  17599205.832 1  92484452.175 1      1278.967          41.000  
C14  21888946.072 4 113981466.418 2      3351.811          33.000  
G01  18031113.623 1  94754173.934 1     -2412.052          40.000  
C21  21868914.845 2 113877126.693 1       614.768          38.000  
C28  20764116.763 1 108124118.747 1      2430.948          40.000  
C23  19780134.199 1 103000263.208 1      -908.866          40.000  
C03  34193682.567 2 178055445.432 1       442.277          38.000  
C01  34772837.443 2 181071257.027 1       393.645          38.000  
C02  34819731.587 4 181315447.97322       408.217          33.000  
C07  32558274.633 1 169539485.218 1        97.974          37.000  
C04  35597135.769 4 185363595.70122       399.188          34.000  
C11  18887493.037 1  98352075.591 1      -860.059          41.000  
G19  18574288.680 1  97608550.745 1      2668.573          41.000  
G06  20117476.419 1 105718103.154 1      3527.656          38.000  
C05  36645541.169 8 190822917.98125       422.336          30.000  
C10  32445703.086 2 168953268.313 1       498.315          38.000  
C13  34427249.596 2 179271656.158 1      1383.841          37.000  
G22  18941181.218 1  99536614.402 1      -510.649          42.000  
C12  22396307.505 2 116623422.876 2     -2081.873          29.000  
G21  20761390.710 2 109101832.888 1     -2610.721          37.000  
G14  16830624.550 1  88445576.677 1        81.516          41.000  
G28  17365838.503 1  91258113.142 1      1442.092          39.000  
G03  18322721.001 1  96286554.314 1      1347.855          42.000  
> 2021 08 05 00 38 56.5890000  0 26                     
C25  21666344.917 2 112822289.960 1     -2848.725          37.000  
G30  20686904.281 2 108710448.706 1     -2794.167          37.000  
C08  33396840.903 2 173906090.867 1      1016.870          39.000  
G17  17599157.058 1  92484196.357 1      1278.949          41.000  
C14  21888817.237 4 113980795.952 2      3351.156          33.000  
G01  18031205.481 1  94754656.319 1     -2412.136          40.000  
C21  21868891.217 2 113877003.800 1       614.171          38.000  
C28  20764023.404 1 108123632.520 1      2430.997          40.000  
C23  19780169.047 1 103000445.008 1      -909.048          40.000  
C03  34193665.606 2 178055356.944 1       442.468          38.000  
C01  34772822.313 2 181071178.306 1       393.652          38.000  
C02  34819715.987 4 181315366.33622       407.958          34.000  
C07  32558270.933 1 169539465.572 1        98.016          37.000  
C04  35597120.500 4 185363515.82622       399.060          34.000  
C11  18887526.105 1  98352247.518 1      -859.518          41.000  
G19  18574187.172 1  97608016.971 1      2668.844          41.000  
G06  20117342.105 1 105717397.579 1      3527.410          38.000  
C05  36645524.887 8 190822833.41824       422.761          30.000  
C10  32445683.839 1 168953168.673 1       498.035          38.000  
C13  34427196.443 2 179271379.397 1      1383.831          37.000  
G22  18941200.657 1  99536716.511 1      -510.596          42.000  
C12  22396388.108 2 116623839.221 2     -2081.579          29.000  
G21  20761490.106 2 109102354.932 1     -2609.862          38.000  
G14  16830621.374 1  88445560.396 1        81.169          41.000  
G28  17365783.692 2  91257824.656 1      1441.986          39.000  
G03  18322669.837 1  96286284.758 1      1347.907          42.000  
> 2021 08 05 00 38 56.7890000  0 26                     
C25  21666454.242 2 112822859.672 1     -2848.962          37.000  
G30  20687010.501 1 108711007.593 1     -2794.460          36.000  
C08  33396801.884 2 173905887.524 1      1017.146          39.000  
G17  17599108.407 1  92483940.568 1      1278.973          41.000  
C14  21888688.576 4 113980125.537 2      3351.961          33.000  
G01  18031297.252 1  94755138.740 1     -2412.267          40.000  
C21  21868867.694 2 113876880.906 1       614.128          38.000  
C28  20763930.010 1 108123146.326 1      2430.839          40.000  
C23  19780203.982 1 103000626.844 1      -909.294          40.000  
C03  34193648.679 2 178055268.485 1       442.417          38.000  
C01  34772807.219 1 181071099.622 1       393.287          38.000  
C02  34819700.282 4 181315284.69022       408.148          34.000  
C07  32558267.182 2 169539445.957 1        98.016          37.000  
C04  35597105.056 2 185363435.95032       399.304          34.000  
C11  18887559.226 1  98352419.523 1      -860.077          40.000  
G19  18574085.751 1  97607483.232 1      2668.662          41.000  
G06  20117207.686 1 105716692.012 1      3527.504          38.000  
C05  36645508.763 8 190822748.91833       421.642          30.000  
C10  32445664.626 1 168953069.057 1       497.900          38.000  
C13  34427143.255 2 179271102.667 1      1383.582          37.000  
G22  18941220.202 1  99536818.678 1      -510.844          42.000  
C12  22396468.344 4 116624255.580 3     -2081.759          29.000  
G21  20761589.381 2 109102877.022 1     -2610.561          38.000  
G14  16830618.268 1  88445544.140 1        81.100          41.000  
G28  17365728.637 2  91257536.205 1      1442.132          39.000  
G03  18322618.481 1  96286015.264 1      1347.465          42.000  
> 2021 08 05 00 38 56.9890000  0 26                     
C25  21666563.690 2 112823429.337 1     -2848.523          37.000  
G30  20687116.825 2 108711566.462 1     -2794.238          36.000  
C08  33396762.865 1 173905684.200 1      1016.665          39.000  
G17  17599059.686 1  92483684.786 1      1278.735          41.000  
C14  21888559.724 4 113979455.088 2      3352.260          33.000  
G01  18031389.075 1  94755621.165 1     -2412.559          40.000  
C21  21868843.874 2 113876758.045 1       613.896          38.000  
C28  20763836.634 1 108122660.113 1      2431.047          40.000  
C23  19780238.918 1 103000808.693 1      -909.484          40.000  
C03  34193631.787 1 178055180.022 1       442.269          38.000  
C01  34772792.090 1 181071020.920 1       393.131          38.000  
C02  34819684.594 4 181315203.03222       408.536          33.000  
C07  32558263.325 2 169539426.313 1        98.328          37.000  
C04  35597089.770 2 185363356.07121       399.335          34.000  
C11  18887592.364 1  98352591.490 1      -859.908          40.000  
G19  18573984.226 1  97606949.496 1      2668.623          41.000  
G06  20117073.528 2 105715986.462 1      3527.369          38.000  
C05  36645492.622 8 190822664.39923       422.465          30.000  
C10  32445645.553 2 168952969.427 1       498.004          38.000  
C13  34427089.997 2 179270825.941 1      1383.421          37.000  
G22  18941239.589 1  99536920.878 1      -511.283          42.000  
C12  22396548.597 2 116624671.939 2     -2081.864          29.000  
G21  20761688.760 2 109103399.091 1     -2610.524          38.000  
G14  16830615.109 1  88445527.911 1        80.970          41.000  
G28  17365673.668 2  91257247.776 1      1441.904          39.000  
G03  18322567.177 1  96285745.793 1      1347.264          42.000  
> 2021 08 05 00 38 57.1890000  0 26                     
C25  21666673.103 2 112823999.052 1     -2848.703          37.000  
G30  20687223.184 2 108712125.383 1     -2794.547          36.000  
C08  33396723.864 2 173905480.910 1      1016.851          39.000  
G17  17599011.035 1  92483429.029 1      1279.089          41.000  
C14  21888431.098 4 113978784.709 2      3351.921          33.000  
G01  18031480.723 1  94756103.612 1     -2412.128          40.000  
C21  21868820.334 2 113876635.228 1       613.900          37.000  
C28  20763743.258 1 108122173.941 1      2431.278          40.000  
C23  19780273.993 1 103000990.577 1      -909.121          40.000  
C03  34193614.773 2 178055091.580 1       442.363          38.000  
C01  34772776.960 1 181070942.235 1       393.399          38.000  
C02  34819669.098 4 181315121.46222       408.166          33.000  
C07  32558259.643 2 169539406.750 1        98.297          37.000  
C04  35597074.466 4 185363276.25322       399.347          34.000  
C11  18887625.327 1  98352763.515 1      -859.876          41.000  
G19  18573882.683 1  97606415.784 1      2668.589          41.000  
G06  20116939.406 2 105715280.952 1      3527.532          38.000  
C05  36645476.376 8 190822579.88523       421.836          31.000  
C10  32445626.288 1 168952869.830 1       497.992          38.000  
C13  34427036.930 2 179270549.241 1      1383.510          37.000  
G22  18941259.011 1  99537023.112 1      -511.289          42.000  
C12  22396628.275 2 116625088.281 2     -2081.728          29.000  
G21  20761788.051 2 109103921.194 1     -2610.348          38.000  
G14  16830611.934 1  88445511.730 1        81.020          41.000  
G28  17365618.787 1  91256959.390 1      1441.789          39.000  
G03  18322515.926 1  96285476.357 1      1347.506          42.000  
> 2021 08 05 00 38 57.3890000  0 26                     
C25  21666782.394 2 112824568.789 1     -2849.093          37.000  
G30  20687329.525 2 108712684.303 1     -2795.088          36.000  
C08  33396685.002 2 173905277.631 1      1016.229          39.000  
G17  17598962.384 1  92483173.293 1      1278.314          41.000  
C14  21888302.228 4 113978114.325 2      3351.242          33.000  
G01  18031572.511 1  94756586.095 1     -2412.397          40.000  
C21  21868796.689 2 113876512.416 1       613.794          37.000  
C28  20763649.865 1 108121687.789 1      2430.636          40.000  
C23  19780308.963 1 103001172.513 1      -909.699          40.000  
C03  34193597.847 2 178055003.137 1       442.157          38.000  
C01  34772761.918 1 181070863.557 1       393.531          38.000  
C02  34819653.410 4 181315041.86532       407.297          34.000  
C07  32558255.822 2 169539387.170 1        97.534          37.000  
C04  35597059.180 2 185363196.41921       398.517          34.000  
C11  18887658.378 1  98352935.550 1      -860.442          40.000  
G19  18573781.018 1  97605882.095 1      2668.052          41.000  
G06  20116805.214 2 105714575.439 1      3527.255          38.000  
C05  36645460.042 8 190822495.37324       421.783          31.000  
C10  32445607.110 1 168952770.238 1       497.943          38.000  
C13  34426983.812 2 179270272.538 1      1383.345          37.000  
G22  18941278.328 1  99537125.375 1      -511.569          42.000  
C12  22396708.459 2 116625504.703 2     -2082.212          29.000  
G21  20761887.396 2 109104443.300 1     -2611.081          37.000  
G14  16830608.880 1  88445495.603 1        80.247          41.000  
G28  17365563.941 1  91256671.023 1      1441.363          39.000  
G03  18322464.710 1  96285206.982 1      1346.617          42.000  
> 2021 08 05 00 38 57.5890000  0 26                     
C25  21666891.841 2 112825138.534 1     -2849.217          37.000  
G30  20687435.902 2 108713243.217 1     -2794.628          36.000  
C08  33396645.984 2 173905074.364 1      1016.345          39.000  
G17  17598913.767 1  92482917.569 1      1278.479          41.000  
C14  21888173.393 4 113977443.898 2      3351.835          33.000  
G01  18031664.300 1  94757068.608 1     -2412.502          40.000  
C21  21868773.079 2 113876389.673 1       613.464          37.000  
C28  20763556.523 1 108121201.654 1      2430.843          40.000  
C23  19780343.968 1 103001354.473 1      -909.953          40.000  
C03  34193580.885 2 178054914.731 1       442.309          38.000  
C01  34772746.876 1 181070784.908 1       393.374          38.000  
C02  34819637.723 4 181314960.23622       408.277          34.000  
C07  32558251.913 2 169539367.599 1        97.833          37.000  
C04  35597043.893 2 185363116.58021       399.365          34.000  
C11  18887691.429 1  98353107.592 1      -860.440          40.000  
G19  18573679.493 1  97605348.410 1      2668.386          41.000  
G06  20116671.022 2 105713869.969 1      3527.251          38.000  
C05  36645443.936 8 190822410.85023       421.562          30.000  
C10  32445587.897 1 168952670.656 1       498.132          38.000  
C13  34426930.641 2 179269995.879 1      1382.836          37.000  
G22  18941298.012 1  99537227.667 1      -511.466          42.000  
C12  22396789.096 2 116625921.066 2     -2081.831          29.000  
G21  20761986.722 2 109104965.404 1     -2610.356          37.000  
G14  16830605.686 1  88445479.478 1        80.322          41.000  
G28  17365509.113 1  91256382.680 1      1441.809          39.000  
G03  18322413.598 1  96284937.632 1      1346.581          42.000  
> 2021 08 05 00 38 57.7890000  0 26                     
C25  21667001.219 2 112825708.313 1     -2849.317          37.000  
G30  20687542.156 2 108713802.194 1     -2794.991          36.000  
C08  33396607.017 1 173904871.135 1      1016.055          39.000  
G17  17598865.221 1  92482661.888 1      1278.290          41.000  
C14  21888044.558 4 113976773.578 2      3351.437          33.000  
G01  18031756.088 1  94757551.163 1     -2413.115          40.000  
C21  21868749.486 2 113876266.952 1       613.564          37.000  
C28  20763463.130 1 108120715.557 1      2430.587          40.000  
C23  19780378.938 1 103001536.473 1      -910.093          40.000  
C03  34193563.889 2 178054826.345 1       441.829          37.000  
C01  34772731.939 1 181070706.263 1       393.064          38.000  
C02  34819622.035 4 181314878.69322       407.758          33.000  
C07  32558248.178 2 169539348.081 1        97.717          37.000  
C04  35597028.485 2 185363036.78721       399.017          34.000  
C11  18887724.480 1  98353279.662 1      -860.217          40.000  
G19  18573577.915 1  97604814.763 1      2668.280          41.000  
G06  20116536.725 2 105713164.525 1      3527.085          38.000  
C05  36645427.829 8 190822326.40423       422.316          31.000  
C10  32445568.737 1 168952571.135 1       497.730          38.000  
C13  34426877.540 2 179269719.216 1      1383.208          37.000  
G22  18941317.556 1  99537330.036 1      -511.918          42.000  
C12  22396869.420 2 116626337.459 2     -2081.987          29.000  
G21  20762086.014 2 109105487.554 1     -2610.683          37.000  
G14  16830602.545 1  88445463.423 1        80.148          41.000  
G28  17365454.267 1  91256094.418 1      1441.073          39.000  
G03  18322362.312 1  96284668.326 1      1346.400          42.000  
> 2021 08 05 00 38 57.9890000  0 26                     
C25  21667110.667 2 112826278.114 1     -2848.958          37.000  
G30  20687648.568 2 108714361.191 1     -2795.317          36.000  
C08  33396567.964 1 173904667.929 1      1016.026          39.000  
G17  17598816.482 1  92482406.239 1      1278.094          41.000  
C14  21887915.828 4 113976103.258 2      3351.589          33.000  
G01  18031847.998 1  94758033.721 1     -2412.809          40.000  
C21  21868725.928 2 113876144.297 1       613.063          37.000  
C28  20763369.771 1 108120229.490 1      2430.436          40.000  
C23  19780413.786 1 103001718.526 1      -910.414          40.000  
C03  34193546.944 2 178054737.955 1       442.228          37.000  
C01  34772716.792 1 181070627.656 1       393.807          38.000  
C02  34819606.347 4 181314796.15932       407.515          34.000  
C07  32558244.339 2 169539328.580 1        97.217          37.000  
C04  35597013.198 2 185362957.01921       399.023          34.000  
C11  18887757.513 1  98353451.799 1      -860.880          41.000  
G19  18573476.320 1  97604281.151 1      2668.177          41.000  
G06  20116402.445 2 105712459.127 1      3526.953          38.000  
C05  36645411.566 8 190822241.91523       422.888          30.000  
C10  32445549.577 1 168952471.612 1       497.809          38.000  
C13  34426824.369 1 179269442.628 1      1382.877          37.000  
G22  18941337.170 1  99537432.441 1      -512.275          42.000  
C12  22396951.000 4 116626753.915 3     -2081.550          29.000  
G21  20762185.550 2 109106009.720 1     -2610.912          37.000  
G14  16830599.544 1  88445447.417 1        79.759          41.000  
G28  17365399.368 1  91255806.164 1      1441.173          39.000  
G03  18322311.217 1  96284399.078 1      1346.208          42.000  
> 2021 08 05 00 38 58.1890000  0 26                     
C25  21667220.150 2 112826847.963 1     -2849.420          37.000  
G30  20687755.014 2 108714920.212 1     -2795.255          36.000  
C08  33396528.875 1 173904464.753 1      1016.063          39.000  
G17  17598767.866 1  92482150.625 1      1278.033          41.000  
C14  21887786.976 4 113975432.966 2      3351.475          34.000  
G01  18031939.839 1  94758516.366 1     -2413.291          40.000  
C21  21868702.266 2 113876021.684 1       613.081          37.000  
C28  20763276.395 1 108119743.440 1      2430.252          40.000  
C23  19780448.722 1 103001900.622 1      -910.663          40.000  
C03  34193530.035 2 178054649.630 1       441.792          37.000  
C01  34772701.663 2 181070549.099 1       392.629          38.000  
C02  34819590.694 4 181314714.63322       407.544          34.000  
C07  32558240.692 2 169539309.117 1        97.144          37.000  
C04  35596997.877 2 185362877.29821       398.486          34.000  
C11  18887790.564 1  98353623.938 1      -861.020          41.000  
G19  18573374.724 1  97603747.597 1      2667.785          40.000  
G06  20116268.166 2 105711753.780 1      3526.399          38.000  
C05  36645395.337 4 190822157.51023       423.124          31.000  
C10  32445530.556 1 168952372.140 1       497.205          38.000  
C13  34426771.164 1 179269166.052 1      1382.342          37.000  
G22  18941356.540 1  99537534.901 1      -512.501          42.000  
C12  22397032.387 4 116627170.415 3     -2083.020          29.000  
G21  20762285.034 2 109106531.939 1     -2611.017          37.000  
G14  16830596.420 1  88445431.462 1        79.604          41.000  
G28  17365344.627 1  91255517.984 1      1440.540          39.000  
G03  18322260.106 1  96284129.904 1      1345.515          42.000  
> 2021 08 05 00 38 58.3890000  0 26                     
C25  21667329.545 1 112827417.830 1     -2849.336          37.000  
G30  20687861.373 2 108715479.254 1     -2795.300          36.000  
C08  33396489.926 1 173904261.623 1      1015.838          39.000  
G17  17598719.250 1  92481895.045 1      1277.881          41.000  
C14  21887658.280 4 113974762.703 2      3351.559          34.000  
G01  18032031.662 1  94758999.009 1     -2413.340          40.000  
C21  21868678.848 2 113875899.107 1       613.062          37.000  
C28  20763183.071 1 108119257.429 1      2430.240          40.000  
C23  19780483.779 1 103002082.747 1      -910.427          40.000  
C03  34193513.143 2 178054561.308 1       441.753          37.000  
C01  34772686.620 1 181070470.543 1       392.914          38.000  
C02  34819574.989 4 181314633.15422       407.508          33.000  
C07  32558237.010 2 169539289.662 1        97.369          38.000  
C04  35596982.678 2 185362797.59121       398.505          34.000  
C11  18887823.736 1  98353796.110 1      -860.794          40.000  
G19  18573273.251 1  97603214.046 1      2667.750          40.000  
G06  20116133.904 2 105711048.443 1      3526.141          38.000  
C05  36645379.213 8 190822073.18423       421.394          30.000  
C10  32445511.500 1 168952272.683 1       497.473          38.000  
C13  34426718.010 2 179268889.481 1      1382.739          37.000  
G22  18941376.014 1  99537637.407 1      -512.447          42.000  
C12  22397111.507 8 116627586.970 3     -2083.611          29.000  
G21  20762384.517 2 109107054.156 1     -2611.159          37.000  
G14  16830593.349 1  88445415.554 1        79.497          41.000  
G28  17365289.676 1  91255229.825 1      1440.709          39.000  
G03  18322208.872 1  96283860.750 1      1345.486          42.000  
> 2021 08 05 00 38 58.5890000  0 26                     
C25  21667439.028 1 112827987.735 1     -2849.549          37.000  
G30  20687967.802 2 108716038.338 1     -2795.499          36.000  
C08  33396450.768 1 173904058.542 1      1015.315          39.000  
G17  17598670.703 1  92481639.506 1      1277.399          41.000  
C14  21887529.725 4 113974092.470 2      3351.172          34.000  
G01  18032123.485 1  94759481.717 1     -2413.500          40.000  
C21  21868655.307 2 113875776.604 1       612.686          37.000  
C28  20763089.870 1 108118771.453 1      2430.054          40.000  
C23  19780518.784 1 103002264.959 1      -911.023          40.000  
C03  34193496.286 2 178054473.036 1       441.555          37.000  
C01  34772671.613 1 181070392.051 1       392.184          38.000  
C02  34819559.441 4 181314551.70332       406.785          33.000  
C07  32558233.346 2 169539270.277 1        97.046          38.000  
C04  35596967.304 4 185362717.92822       397.430          34.000  
C11  18887856.805 1  98353968.330 1      -861.051          40.000  
G19  18573171.866 1  97602680.555 1      2667.415          40.000  
G06  20115999.712 2 105710343.139 1      3526.403          38.000  
C05  36645363.089 8 190821988.85123       420.777          30.000  
C10  32445492.410 1 168952173.257 1       497.156          38.000  
C13  34426664.892 2 179268612.972 1      1382.555          37.000  
G22  18941395.349 1  99537739.984 1      -513.104          42.000  
C12  22397192.057 8 116628003.430 3     -2082.384          29.000  
G21  20762484.001 2 109107576.428 1     -2611.890          37.000  
G14  16830590.121 1  88445399.710 1        79.039          41.000  
G28  17365234.795 1  91254941.730 1      1440.249          39.000  
G03  18322157.656 1  96283591.671 1      1345.087          42.000  
> 2021 08 05 00 38 58.7890000  0 26                     
C25  21667548.528 1 112828557.677 1     -2849.393          37.000  
G30  20688074.213 2 108716597.463 1     -2795.810          36.000  
C08  33396411.767 1 173903855.475 1      1015.334          39.000  
G17  17598622.017 1  92481383.990 1      1277.502          41.000  
C14  21887400.960 4 113973422.238 2      3351.376          33.000  
G01  18032215.325 1  94759964.466 1     -2413.767          40.000  
C21  21868631.715 2 113875654.129 1       612.446          37.000  
C28  20762996.563 1 108118285.509 1      2430.068          40.000  
C23  19780553.859 1 103002447.195 1      -911.172          40.000  
C03  34193479.272 2 178054384.785 1       441.110          37.000  
C01  34772656.501 1 181070313.536 1       392.459          38.000  
C02  34819543.806 4 181314470.26422       407.335          33.000  
C07  32558229.681 1 169539250.906 1        97.034          38.000  
C04  35596951.983 4 185362638.24122       398.370          34.000  
C11  18887889.751 1  98354140.591 1      -861.427          41.000  
G19  18573070.375 1  97602147.073 1      2667.446          41.000  
G06  20115865.450 2 105709637.881 1      3526.553          38.000  
C05  36645346.808 8 190821904.48723       422.047          31.000  
C10  32445473.337 1 168952073.870 1       497.119          38.000  
C13  34426611.808 2 179268336.479 1      1382.548          37.000  
G22  18941414.876 1  99537842.598 1      -513.224          42.000  
C12  22397270.426 8 116628419.977 3     -2082.834          29.000  
G21  20762583.450 2 109108098.693 1     -2611.552          38.000  
G14  16830587.172 1  88445383.915 1        78.766          41.000  
G28  17365180.002 1  91254653.662 1      1440.221          39.000  
G03  18322106.457 1  96283322.631 1      1345.198          42.000  
> 2021 08 05 00 38 58.9890000  0 26                     
C25  21667658.011 1 112829127.681 1     -2850.633          37.000  
G30  20688180.607 2 108717156.626 1     -2796.446          36.000  
C08  33396372.835 1 173903652.460 1      1014.907          39.000  
G17  17598573.540 1  92481128.527 1      1277.179          41.000  
C14  21887272.317 4 113972752.136 2      3350.125          33.000  
G01  18032307.235 1  94760447.265 1     -2414.304          40.000  
C21  21868608.349 2 113875531.736 1       611.852          37.000  
C28  20762903.187 1 108117799.633 1      2429.270          40.000  
C23  19780588.794 1 103002629.500 1      -911.592          40.000  
C03  34193462.346 2 178054296.574 1       440.764          37.000  
C01  34772641.407 1 181070235.078 1       392.413          38.000  
C02  34819528.240 4 181314388.91522       406.520          33.000  
C07  32558225.982 1 169539231.581 1        96.460          38.000  
C04  35596936.592 4 185362558.63922       398.029          34.000  
C11  18887922.784 1  98354312.866 1      -861.504          40.000  
G19  18572969.007 1  97601613.652 1      2667.026          41.000  
G06  20115731.310 2 105708932.709 1      3525.602          38.000  
C05  36645330.614 8 190821820.18123       421.962          31.000  
C10  32445454.333 1 168951974.537 1       496.765          38.000  
C13  34426558.725 2 179268060.034 1      1382.166          37.000  
G22  18941434.368 1  99537945.284 1      -513.607          42.000  
C12  22397347.730 8 116628836.548 3     -2082.881          29.000  
G21  20762682.794 2 109108621.038 1     -2611.851          38.000  
G14  16830584.135 1  88445368.177 1        78.613          41.000  
G28  17365125.208 1  91254365.677 1      1439.701          39.000  
G03  18322055.275 1  96283053.669 1      1344.656          42.000  
> 2021 08 05 00 38 59.1890000  0 26                     
C25  21667767.546 2 112829697.651 1     -2850.279          37.000  
G30  20688286.897 2 108717715.765 1     -2795.975          36.000  
C08  33396333.747 1 173903449.448 1      1014.908          39.000  
G17  17598524.907 1  92480873.079 1      1277.124          42.000  
C14  21887143.656 4 113972081.950 2      3350.607          33.000  
G01  18032399.093 1  94760930.059 1     -2414.038          40.000  
C21  21868584.878 2 113875409.376 1       611.333          37.000  
C28  20762809.846 1 108117313.748 1      2429.306          40.000  
C23  19780623.765 1 103002811.829 1      -911.970          40.000  
C03  34193445.471 1 178054208.343 1       441.188          38.000  
C01  34772626.260 1 181070156.648 1       391.900          38.000  
C02  34819512.587 4 181314308.50532       406.537          33.000  
C07  32558222.247 1 169539212.238 1        96.790          38.000  
C04  35596921.323 4 185362479.01722       397.687          34.000  
C11  18887955.887 1  98354485.173 1      -861.607          40.000  
G19  18572867.447 1  97601080.240 1      2666.846          40.000  
G06  20115597.135 2 105708227.505 1      3525.984          38.000  
C05  36645314.438 9               9       422.803          31.000  
C10  32445435.173 1 168951875.193 1       496.808          38.000  
C13  34426505.641 2 179267783.598 1      1382.247          37.000  
G22  18941453.895 1  99538047.987 1      -513.706          42.000  
C12  22397429.851 8 116629253.141 3     -2081.436          29.000  
G21  20762782.173 2 109109143.352 1     -2611.934          38.000  
G14  16830580.977 1  88445352.473 1        78.303          41.000  
G28  17365070.379 1  91254077.712 1      1439.307          39.000  
G03  18322004.059 1  96282784.730 1      1344.498          42.000  
> 2021 08 05 00 38 59.3890000  0 26                     
C25  21667877.011 2 112830267.629 1     -2849.742          37.000  
G30  20688393.238 2 108718274.930 1     -2796.174          36.000  
C08  33396294.868 1 173903246.449 1      1014.846          39.000  
G17  17598476.255 1  92480617.646 1      1277.075          41.000  
C14  21887014.908 4 113971411.792 2      3350.571          33.000  
G01  18032490.934 1  94761412.901 1     -2414.506          40.000  
C21  21868561.408 2 113875287.006 1       611.167          37.000  
C28  20762716.610 1 108116827.856 1      2429.623          40.000  
C23  19780658.927 1 103002994.158 1      -911.785          40.000  
C03  34193428.388 1 178054120.133 1       441.002          37.000  
C01  34772611.183 1 181070078.188 1       392.200          38.000  
C02  34819497.004 4 181314227.10922       407.206          34.000  
C07  32558218.530 2 169539192.961 1        96.350          37.000  
C04  35596906.037 4 185362399.40122       397.949          34.000  
C11  18887989.007 1  98354657.476 1      -861.550          40.000  
G19  18572765.956 1  97600546.819 1      2667.219          41.000  
G06  20115463.030 2 105707522.315 1      3525.592          38.000  
C05  36645298.227 9 190821652.64636       421.146          31.000  
C10  32445416.135 2 168951775.859 1       496.747          38.000  
C13  34426452.488 2 179267507.185 1      1381.621          37.000  
G22  18941473.387 1  99538150.730 1      -514.034          42.000  
C12  22397510.000 8 116629669.791 3     -2083.232          29.000  
G21  20762881.500 2 109109665.686 1     -2611.943          38.000  
G14  16830577.906 1  88445336.788 1        78.046          41.000  
G28  17365015.673 1  91253789.725 1      1439.688          39.000  
G03  18321952.877 1  96282515.824 1      1344.437          42.000  
> 2021 08 05 00 38 59.5890000  0 26                     
C25  21667986.424 2 112830837.652 1     -2849.775          37.000  
G30  20688499.597 2 108718834.114 1     -2795.728          36.000  
C08  33396255.832 1 173903043.453 1      1015.119          39.000  
G17  17598427.587 1  92480362.239 1      1276.923          41.000  
C14  21886886.388 4 113970741.708 2      3349.339          33.000  
G01  18032582.757 1  94761895.753 1     -2414.608          40.000  
C21  21868537.885 2 113875164.648 1       612.194          37.000  
C28  20762623.216 1 108116342.007 1      2429.443          40.000  
C23  19780694.037 1 103003176.549 1      -911.763          40.000  
C03  34193411.583 1 178054031.953 1       440.681          38.000  
C01  34772596.141 1 181069999.758 1       392.227          38.000  
C02  34819481.404 4 181314145.77722       406.531          34.000  
C07  32558214.814 1 169539173.653 1        96.442          37.000  
C04  35596890.698 4 185362319.79822       398.169          34.000  
C11  18888022.041 1  98354829.814 1      -861.355          40.000  
G19  18572664.413 1  97600013.452 1      2666.960          40.000  
G06  20115328.768 2 105706817.165 1      3525.878          38.000  
C05  36645282.068 9 190821568.36026       422.012          30.000  
C10  32445396.975 2 168951676.552 1       496.869          38.000  
C13  34426399.544 2 179267230.774 1      1382.097          37.000  
G22  18941492.966 1  99538253.509 1      -513.995          42.000  
C12  22397588.927 8 116630086.375 3     -2082.752          30.000  
G21  20762980.896 2 109110188.027 1     -2611.987          38.000  
G14  16830574.904 1  88445321.156 1        78.173          41.000  
G28  17364960.862 1  91253501.813 1      1439.803          39.000  
G03  18321901.975 1  96282246.966 1      1344.125          42.000  
> 2021 08 05 00 38 59.7890000  0 26                     
C25  21668095.854 2 112831407.706 1     -2850.471          37.000  
G30  20688606.236 2 108719393.317 1     -2796.166          36.000  
C08  33396216.778 1 173902840.482 1      1014.902          39.000  
G17  17598378.970 1  92480106.832 1      1276.782          41.000  
C14  21886757.570 4 113970071.519 2      3350.530          33.000  
G01  18032674.597 1  94762378.606 1     -2414.340          40.000  
C21  21868514.397 2 113875042.387 1       611.250          37.000  
C28  20762529.962 1 108115856.171 1      2429.008          40.000  
C23  19780729.059 1 103003358.962 1      -912.451          40.000  
C03  34193394.587 1 178053943.761 1       440.652          38.000  
C01  34772580.977 1 181069921.336 1       391.879          38.000  
C02  34819465.803 4 181314064.41522       406.777          33.000  
C07  32558211.044 1 169539154.354 1        96.375          37.000  
C04  35596875.377 4 185362240.21922       397.906          34.000  
C11  18888055.074 1  98355002.159 1      -861.944          40.000  
G19  18572562.940 1  97599480.080 1      2666.787          40.000  
G06  20115194.628 2 105706112.034 1      3525.832          38.000  
C05  36645265.839 9 190821484.20425       419.810          31.000  
C10  32445377.867 2 168951577.256 1       496.552          38.000  
C13  34426346.425 2 179266954.358 1      1381.998          37.000  
G22  18941512.370 1  99538356.318 1      -514.325          42.000  
C12  22397667.663 8 116630502.969 3     -2082.673          29.000  
G21  20763080.205 2 109110710.360 1     -2611.679          38.000  
G14  16830571.850 1  88445305.531 1        78.050          41.000  
G28  17364906.103 1  91253213.939 1      1438.867          39.000  
G03  18321850.916 1  96281978.130 1      1344.073          42.000  
> 2021 08 05 00 38 59.9890000  0 26                     
C25  21668205.337 1 112831977.703 1     -2849.871          37.000  
G30  20688712.734 2 108719952.504 1     -2795.970          36.000  
C08  33396177.829 1 173902637.524 1      1014.573          39.000  
G17  17598330.354 1  92479851.427 1      1277.148          41.000  
C14  21886628.892 4 113969401.373 2      3350.865          33.000  
G01  18032766.438 1  94762861.492 1     -2414.136          40.000  
C21  21868490.891 2 113874920.134 1       611.082          37.000  
C28  20762436.778 1 108115370.315 1      2429.460          40.000  
C23  19780764.117 1 103003541.387 1      -912.006          40.000  
C03  34193377.747 1 178053855.554 1       441.156          37.000  
C01  34772565.900 1 181069842.907 1       392.080          38.000  
C02  34819450.185 2 181313983.05622       406.646          33.000  
C07  32558207.467 1 169539135.078 1        96.454          37.000  
C04  35596859.968 4 185362160.61822       398.151          34.000  
C11  18888088.160 1  98355174.511 1      -861.476          40.000  
G19  18572461.380 1  97598946.725 1      2666.948          41.000  
G06  20115060.524 2 105705406.925 1      3525.474          38.000  
C05  36645249.645 9 190821399.85325       421.794          31.000  
C10  32445358.759 2 168951477.970 1       496.375          38.000  
C13  34426293.429 2 179266677.996 1      1382.045          37.000  
G22  18941531.950 1  99538459.159 1      -514.357          42.000  
C12  22397748.352 8 116630919.626 3     -2082.579          29.000  
G21  20763179.671 2 109111232.703 1     -2611.338          38.000  
G14  16830568.779 1  88445289.952 1        78.160          41.000  
G28  17364851.327 1  91252926.035 1      1439.428          39.000  
G03  18321799.769 1  96281709.324 1      1344.025          42.000  
> 2021 08 05 00 39 00.1890000  0 26                     
C25  21668314.802 2 112832547.733 1     -2849.906          37.000  
G30  20688819.059 2 108720511.705 1     -2795.897          36.000  
C08  33396138.880 1 173902434.574 1      1014.337          39.000  
G17  17598281.773 1  92479596.059 1      1276.605          41.000  
C14  21886500.267 4 113968731.272 2      3350.580          33.000  
G01  18032858.470 1  94763344.402 1     -2414.375          40.000  
C21  21868467.369 2 113874797.882 1       611.052          37.000  
C28  20762343.419 1 108114884.511 1      2429.020          40.000  
C23  19780799.192 1 103003723.856 1      -912.521          40.000  
C03  34193360.838 2 178053767.381 1       441.036          37.000  
C01  34772550.736 1 181069764.504 1       391.724          38.000  
C02  34819434.532 2 181313901.67822       406.745          33.000  
C07  32558203.733 2 169539115.819 1        96.198          37.000  
C04  35596844.560 4 185362081.05422       398.401          34.000  
C11  18888121.315 1  98355346.894 1      -862.143          41.000  
G19  18572359.977 1  97598413.378 1      2666.636          41.000  
G06  20114926.366 2 105704701.817 1      3525.307          38.000  
C05  36645233.521 8 190821315.60724       421.437          31.000  
C10  32445339.790 2 168951378.683 1       496.332          38.000  
C13  34426240.433 2 179266401.629 1      1381.475          37.000  
G22  18941551.284 1  99538562.020 1      -514.565          42.000  
C12  22397829.775 8 116631336.281 3     -2083.287          30.000  
G21  20763279.033 2 109111755.067 1     -2611.486          38.000  
G14  16830565.882 1  88445274.408 1        77.501          41.000  
G28  17364796.760 1  91252638.207 1      1439.018          39.000  
G03  18321748.570 1  96281440.570 1      1343.509          42.000  
> 2021 08 05 00 39 00.3890000  0 26                     
C25  21668424.285 2 112833117.809 1     -2850.173          37.000  
G30  20688925.522 2 108721070.939 1     -2795.929          36.000  
C08  33396099.984 1 173902231.612 1      1014.471          39.000  
G17  17598233.139 1  92479340.675 1      1276.965          41.000  
C14  21886371.554 4 113968061.181 2      3350.096          33.000  
G01  18032950.259 1  94763827.324 1     -2414.408          40.000  
C21  21868443.881 2 113874675.653 1       610.960          37.000  
C28  20762250.113 1 108114398.682 1      2429.112          40.000  
C23  19780834.267 1 103003906.326 1      -912.531          40.000  
C03  34193343.894 2 178053679.195 1       441.193          38.000  
C01  34772535.589 1 181069686.078 1       391.866          38.000  
C02  34819418.949 2 181313820.33031       407.168          33.000  
C07  32558200.016 2 169539096.546 1        96.606          37.000  
C04  35596829.308 4 185362000.47532       398.120          34.000  
C11  18888154.383 1  98355519.250 1      -861.763          40.000  
G19  18572258.399 1  97597880.035 1      2666.685          41.000  
G06  20114792.261 2 105703996.719 1      3525.456          38.000  
C05  36645217.415 8 190821231.36924       421.664          31.000  
C10  32445320.787 2 168951279.413 1       496.082          38.000  
C13  34426187.297 2 179266125.253 1      1381.622          37.000  
G22  18941570.829 1  99538664.900 1      -514.329          42.000  
C12  22397910.203 8 116631752.864 3     -2083.026          30.000  
G21  20763378.377 2 109112277.452 1     -2611.967          38.000  
G14  16830562.846 1  88445258.875 1        77.692          41.000  
G28  17364742.071 1  91252350.362 1      1438.949          39.000  
G03  18321697.336 1  96281171.817 1      1343.624          42.000  
> 2021 08 05 00 39 00.5890000  0 26                     
C25  21668533.715 2 112833687.877 1     -2850.560          37.000  
G30  20689031.812 2 108721630.131 1     -2796.279          36.000  
C08  33396060.983 1 173902028.670 1      1014.720          39.000  
G17  17598184.575 1  92479085.318 1      1276.825          41.000  
C14  21886242.911 4 113967391.063 2      3350.153          33.000  
G01  18033042.064 1  94764310.259 1     -2414.946          40.000  
C21  21868420.393 2 113874553.464 1       610.754          37.000  
C28  20762156.737 1 108113912.867 1      2428.799          40.000  
C23  19780869.289 1 103004088.827 1      -912.425          40.000  
C03  34193326.827 2 178053591.029 1       440.818          38.000  
C01  34772520.459 1 181069607.662 1       391.806          38.000  
C02  34819403.419 4 181313739.03122       406.322          33.000  
C07  32558196.351 1 169539077.304 1        96.075          37.000  
C04  35596813.899 4 185361920.88722       397.852          34.000  
C11  18888187.486 1  98355691.666 1      -862.547          41.000  
G19  18572156.821 1  97597346.713 1      2666.533          41.000  
G06  20114658.069 2 105703291.630 1      3525.551          38.000  
C05  36645201.326 8 190821147.14624       421.093          30.000  
C10  32445301.784 2 168951180.126 1       496.320          38.000  
C13  34426134.196 2 179265848.901 1      1381.789          37.000  
G22  18941590.408 1  99538767.848 1      -515.011          42.000  
C12  22397991.120 8 116632169.500 3     -2083.332          30.000  
G21  20763477.791 2 109112799.806 1     -2612.035          37.000  
G14  16830559.949 1  88445243.373 1        77.376          41.000  
G28  17364687.365 1  91252062.551 1      1438.933          39.000  
G03  18321646.207 1  96280903.104 1      1343.235          42.000  
> 2021 08 05 00 39 00.7890000  0 26                     
C25  21668643.215 2 112834257.909 1     -2850.306          37.000  
G30  20689138.328 2 108722189.317 1     -2795.269          36.000  
C08  33396022.034 1 173901825.728 1      1014.757          39.000  
G17  17598135.906 1  92478829.949 1      1276.764          41.000  
C14  21886114.198 4 113966720.927 2      3350.334          33.000  
G01  18033133.922 1  94764793.176 1     -2414.452          40.000  
C21  21868396.905 2 113874431.257 1       611.022          37.000  
C28  20762063.396 1 108113427.059 1      2428.760          40.000  
C23  19780904.312 1 103004271.327 1      -912.741          40.000  
C03  34193309.848 2 178053502.826 1       440.906          38.000  
C01  34772505.313 1 181069529.231 1       391.980          38.000  
C02  34819387.748 4 181313657.64022       406.219          34.000  
C07  32558192.634 1 169539058.023 1        96.393          37.000  
C04  35596798.788 2 185361841.31721       397.937          34.000  
C11  18888220.589 1  98355864.025 1      -862.238          41.000  
G19  18572055.331 1  97596813.372 1      2666.422          41.000  
G06  20114523.894 2 105702586.534 1      3525.234          38.000  
C05  36645185.062 8 190821062.86223       421.606          31.000  
C10  32445282.693 1 168951080.834 1       496.295          38.000  
C13  34426081.130 2 179265572.509 1      1381.725          37.000  
G22  18941610.109 1  99538870.751 1      -514.773          42.000  
C12  22398072.228 8 116632586.086 3     -2082.836          30.000  
G21  20763577.152 2 109113322.147 1     -2611.753          37.000  
G14  16830557.000 1  88445227.874 1        77.356          41.000  
G28  17364632.623 1  91251774.730 1      1439.227          39.000  
G03  18321594.973 1  96280634.393 1      1343.498          42.000  
> 2021 08 05 00 39 00.9890000  0 26                     
C25  21668752.733 2 112834827.994 1     -2850.547          37.000  
G30  20689244.652 2 108722748.595 1     -2796.384          36.000  
C08  33395983.032 1 173901622.839 1      1014.154          39.000  
G17  17598087.308 1  92478574.630 1      1276.605          41.000  
C14  21885985.555 4 113966050.800 2      3351.047          33.000  
G01  18033225.867 1  94765276.165 1     -2415.000          40.000  
C21  21868373.504 2 113874309.142 1       610.516          37.000  
C28  20761970.089 1 108112941.275 1      2428.620          40.000  
C23  19780939.474 1 103004453.897 1      -913.274          40.000  
C03  34193292.956 2 178053414.685 1       440.448          38.000  
C01  34772490.340 2 181069450.835 1       391.890          38.000  
C02  34819371.956 4 181313576.31022       406.383          34.000  
C07  32558188.987 1 169539038.785 1        96.246          38.000  
C04  35596783.571 2 185361761.76031       397.375          34.000  
C11  18888253.675 1  98356036.435 1      -862.119          41.000  
G19  18571953.823 1  97596280.069 1      2666.467          41.000  
G06  20114389.615 1 105701881.495 1      3525.046          38.000  
C05  36645168.781 8 190820978.68423       420.574          30.000  
C10  32445263.620 1 168950981.585 1       495.911          38.000  
C13  34426028.064 2 179265296.202 1      1381.638          37.000  
G22  18941629.793 1  99538973.745 1      -515.071          42.000  
C12  22398148.591 8 116633002.783 3     -2083.632          30.000  
G21  20763676.654 2 109113844.541 1     -2611.792          37.000  
G14  16830554.051 1  88445212.457 1        76.886          41.000  
G28  17364577.952 1  91251486.979 1      1438.647          39.000  
G03  18321543.862 1  96280365.752 1      1342.977          42.000  
> 2021 08 05 00 39 01.1890000  0 26                     
C25  21668862.250 2 112835398.079 1     -2850.018          37.000  
G30  20689351.081 2 108723307.839 1     -2796.429          36.000  
C08  33395944.066 1 173901419.929 1      1014.466          39.000  
G17  17598038.691 1  92478319.320 1      1276.416          41.000  
C14  21885856.860 4 113965380.763 2      3350.703          33.000  
G01  18033317.900 1  94765759.154 1     -2414.673          40.000  
C21  21868350.103 2 113874187.017 1       610.900          37.000  
C28  20761876.731 1 108112455.511 1      2428.759          39.000  
C23  19780974.601 1 103004636.471 1      -912.809          40.000  
C03  34193276.047 1 178053326.521 1       440.953          37.000  
C01  34772475.229 1 181069372.443 1       392.079          38.000  
C02  34819356.320 4 181313495.00022       406.784          34.000  
C07  32558185.270 1 169539019.580 1        96.533          38.000  
C04  35596768.372 2 185361682.19821       398.090          34.000  
C11  18888286.813 1  98356208.863 1      -862.131          40.000  
G19  18571852.455 1  97595746.791 1      2666.371          41.000  
G06  20114255.562 2 105701176.472 1      3525.184          38.000  
C05  36645152.605 8 190820894.43024       421.107          30.000  
C10  32445244.582 1 168950882.338 1       496.265          38.000  
C13  34425975.102 2 179265019.883 1      1381.565          37.000  
G22  18941649.442 1  99539076.775 1      -515.394          42.000  
C12  22398229.507 4 116633419.409 3     -2083.260          30.000  
G21  20763776.172 2 109114366.930 1     -2611.676          37.000  
G14  16830551.172 1  88445197.047 1        77.202          41.000  
G28  17364523.315 1  91251199.241 1      1438.573          39.000  
G03  18321492.785 1  96280097.139 1      1343.109          42.000  
> 2021 08 05 00 39 01.3890000  0 26                     
C25  21668971.715 2 112835968.225 1     -2850.610          37.000  
G30  20689457.492 2 108723867.119 1     -2795.985          36.000  
C08  33395905.274 1 173901217.074 1      1014.477          39.000  
G17  17597990.075 1  92478064.040 1      1276.447          41.000  
C14  21885728.042 4 113964710.722 2      3350.020          33.000  
G01  18033409.827 1  94766242.198 1     -2414.890          40.000  
C21  21868326.650 2 113874064.992 1       610.154          37.000  
C28  20761783.442 1 108111969.794 1      2428.479          39.000  
C23  19781009.694 1 103004819.132 1      -913.304          40.000  
C03  34193259.121 1 178053238.426 1       440.613          37.000  
C01  34772460.256 2 181069294.094 1       392.102          38.000  
C02  34819340.598 4 181313413.72022       406.380          34.000  
C07  32558181.745 1 169539000.432 1        95.728          38.000  
C04  35596753.085 4 185361602.67722       397.839          34.000  
C11  18888320.021 1  98356381.336 1      -862.178          40.000  
G19  18571751.017 1  97595213.550 1      2666.232          41.000  
G06  20114121.440 2 105700471.492 1      3524.852          38.000  
C05  36645136.358 8 190820810.23023       421.246          31.000  
C10  32445225.613 1 168950783.125 1       496.228          38.000  
C13  34425921.984 2 179264743.589 1      1381.709          37.000  
G22  18941669.108 1  99539179.840 1      -515.342          42.000  
C12  22398312.343 4 116633836.098 3     -2083.700          30.000  
G21  20763875.586 2 109114889.369 1     -2612.032          37.000  
G14  16830548.310 1  88445181.720 1        76.768          41.000  
G28  17364468.626 1  91250911.576 1      1438.453          39.000  
G03  18321441.673 1  96279828.602 1      1342.607          42.000  
> 2021 08 05 00 39 01.5890000  0 26                     
C25  21669081.146 2 112836538.328 1     -2850.753          37.000  
G30  20689563.886 2 108724426.387 1     -2796.379          36.000  
C08  33395866.395 1 173901014.200 1      1014.346          39.000  
G17  17597941.633 1  92477808.751 1      1276.337          41.000  
C14  21885599.312 4 113964040.639 2      3350.836          33.000  
G01  18033501.808 1  94766725.219 1     -2415.171          40.000  
C21  21868303.249 2 113873942.902 1       610.687          37.000  
C28  20761690.258 1 108111484.018 1      2428.817          39.000  
C23  19781044.664 1 103005001.742 1      -913.142          40.000  
C03  34193242.211 1 178053150.261 1       440.857          38.000  
C01  34772445.197 2 181069215.703 1       392.067          38.000  
C02  34819324.962 4 181313332.43522       405.854          34.000  
C07  32558178.098 1 169538981.210 1        96.118          38.000  
C04  35596737.851 4 185361524.14832       397.491          34.000  
C11  18888353.106 1  98356553.779 1      -862.120          40.000  
G19  18571649.631 1  97594680.285 1      2666.313          41.000  
G06  20113987.126 2 105699766.482 1      3525.036          38.000  
C05  36645120.269 8 190820726.06633       420.970          30.000  
C10  32445206.610 2 168950683.900 1       496.613          38.000  
C13  34425868.848 2 179264467.301 1      1381.497          37.000  
G22  18941688.810 1  99539282.919 1      -515.400          42.000  
C12  22398392.108 8 116634252.722 3     -2082.750          30.000  
G21  20763974.983 2 109115411.763 1     -2612.362          37.000  
G14  16830545.361 1  88445166.374 1        76.363          41.000  
G28  17364414.007 1  91250623.886 1      1438.224          39.000  
G03  18321390.579 1  96279560.046 1      1342.609          42.000  
> 2021 08 05 00 39 01.7890000  0 26                     
C25  21669190.646 2 112837108.449 1     -2850.260          37.000  
G30  20689670.315 2 108724985.669 1     -2796.404          36.000  
C08  33395827.481 1 173900811.341 1      1014.511          39.000  
G17  17597892.947 1  92477553.464 1      1276.721          41.000  
C14  21885470.512 4 113963370.566 2      3350.566          33.000  
G01  18033593.770 1  94767208.279 1     -2415.168          40.000  
C21  21868279.744 2 113873820.896 1       610.670          37.000  
C28  20761596.986 1 108110998.283 1      2429.089          39.000  
C23  19781079.826 1 103005184.406 1      -913.091          40.000  
C03  34193225.285 1 178053062.131 1       440.938          37.000  
C01  34772430.120 2 181069137.332 1       392.178          38.000  
C02  34819309.240 4 181313251.07622       406.984          34.000  
C07  32558174.538 1 169538962.037 1        95.984          37.000  
C04  35596722.652 4 185361444.59522       397.955          34.000  
C11  18888386.192 1  98356726.244 1      -862.397          40.000  
G19  18571548.210 1  97594147.032 1      2666.422          41.000  
G06  20113852.968 1 105699061.520 1      3524.941          38.000  
C05  36645104.093 8 190820641.85423       420.230          30.000  
C10  32445187.467 1 168950584.697 1       496.069          38.000  
C13  34425815.782 2 179264190.985 1      1381.902          37.000  
G22  18941708.441 1  99539386.028 1      -515.454          42.000  
C12  22398470.844 8 116634669.384 4     -2082.305          30.000  
G21  20764074.257 2 109115934.155 1     -2611.757          37.000  
G14  16830542.517 1  88445151.045 1        76.999          41.000  
G28  17364359.440 1  91250336.226 1      1438.423          39.000  
G03  18321339.642 1  96279291.532 1      1342.581          42.000  
> 2021 08 05 00 39 01.9890000  0 26                     
C25  21669300.198 2 112837678.498 1     -2850.386          37.000  
G30  20689776.622 1 108725544.860 1     -2796.120          36.000  
C08  33395788.410 1 173900608.435 1      1014.127          39.000  
G17  17597844.366 1  92477298.145 1      1276.599          41.000  
C14  21885341.886 4 113962700.447 2      3350.883          33.000  
G01  18033685.698 1  94767691.258 1     -2414.978          40.000  
C21  21868256.221 2 113873698.822 1       610.350          37.000  
C28  20761503.627 1 108110512.490 1      2429.059          39.000  
C23  19781114.831 1 103005367.038 1      -913.431          40.000  
C03  34193208.288 1 178052973.937 1       441.082          37.000  
C01  34772415.025 2 181069058.895 1       392.352          38.000  
C02  34819293.569 4 181313169.70722       406.774          33.000  
C07  32558170.996 2 169538942.764 1        96.246          37.000  
C04  35596707.366 4 185361364.99822       398.157          34.000  
C11  18888419.260 1  98356898.638 1      -862.197          40.000  
G19  18571446.667 1  97593613.727 1      2666.472          41.000  
G06  20113718.864 1 105698356.473 1      3525.114          38.000  
C05  36645087.934 8 190820557.58923       421.226          31.000  
C10  32445168.394 1 168950485.411 1       496.362          38.000  
C13  34425762.681 2 179263914.639 1      1381.818          37.000  
G22  18941728.073 1  99539489.097 1      -515.501          42.000  
C12  22398551.795 8 116635086.010 4     -2083.109          30.000  
G21  20764173.706 2 109116456.503 1     -2611.997          37.000  
G14  16830539.655 1  88445135.702 1        76.684          41.000  
G28  17364304.681 1  91250048.523 1      1438.062          39.000  
G03  18321288.530 1  96279022.972 1      1342.558          42.000  
> 2021 08 05 00 39 02.1890000  0 26                     
C25  21669409.716 2 112838248.523 1     -2850.023          37.000  
G30  20689883.103 2 108726104.033 1     -2795.551          36.000  
C08  33395749.514 1 173900405.466 1      1014.931          39.000  
G17  17597795.732 1  92477042.777 1      1276.819          41.000  
C14  21885213.173 4 113962030.265 2      3351.338          33.000  
G01  18033777.730 1  94768174.221 1     -2414.722          40.000  
C21  21868232.838 2 113873576.742 1       610.507          37.000  
C28  20761410.304 1 108110026.653 1      2429.638          40.000  
C23  19781149.976 1 103005549.621 1      -913.101          40.000  
C03  34193191.326 1 178052885.676 1       441.517          37.000  
C01  34772399.913 2 181068980.418 1       392.683          38.000  
C02  34819277.934 4 181313088.26822       407.629          33.000  
C07  32558167.314 1 169538923.475 1        96.838          38.000  
C04  35596692.080 4 185361285.35132       398.383          34.000  
C11  18888452.276 1  98357070.995 1      -861.593          40.000  
G19  18571345.369 1  97593080.387 1      2666.754          41.000  
G06  20113584.794 1 105697651.385 1      3525.698          38.000  
C05  36645071.705 8 190820473.20434       422.884          30.000  
C10  32445149.339 1 168950386.100 1       497.009          38.000  
C13  34425709.597 2 179263638.248 1      1382.336          37.000  
G22  18941747.809 1  99539592.135 1      -515.193          42.000  
C12  22398634.195 8 116635502.589 3     -2082.802          30.000  
G21  20764273.172 2 109116978.790 1     -2611.302          37.000  
G14  16830536.653 1  88445120.332 1        76.972          41.000  
G28  17364250.184 1  91249760.769 1      1438.756          39.000  
G03  18321237.453 1  96278754.390 1      1343.058          42.000  
> 2021 08 05 00 39 02.3890000  0 26                     
C25  21669519.181 2 112838818.512 1     -2849.803          37.000  
G30  20689989.514 2 108726663.181 1     -2795.722          36.000  
C08  33395710.512 1 173900202.473 1      1014.771          39.000  
G17  17597747.133 1  92476787.362 1      1277.112          41.000  
C14  21885084.426 4 113961360.089 2      3351.180          33.000  
G01  18033869.676 1  94768657.165 1     -2414.614          40.000  
C21  21868209.262 2 113873454.622 1       610.324          37.000  
C28  20761316.980 1 108109540.812 1      2429.272          40.000  
C23  19781184.999 1 103005732.193 1      -912.717          40.000  
C03  34193174.382 1 178052797.436 1       441.205          37.000  
C01  34772384.819 2 181068901.909 1       392.477          38.000  
C02  34819262.334 4 181313006.85922       407.615          33.000  
C07  32558163.615 1 169538904.176 1        96.307          38.000  
C04  35596676.723 2 185361205.66721       398.535          34.000  
C11  18888485.414 1  98357243.330 1      -861.338          40.000  
G19  18571243.791 1  97592547.025 1      2666.673          41.000  
G06  20113450.601 1 105696946.313 1      3525.488          38.000  
C05  36645055.581 8 190820388.95824       420.303          30.000  
C10  32445130.248 2 168950286.760 1       496.790          38.000  
C13  34425656.548 2 179263361.844 1      1382.084          37.000  
G22  18941767.458 1  99539695.186 1      -515.369          42.000  
C12  22398711.901 8 116635919.135 3     -2083.199          30.000  
G21  20764372.603 2 109117501.053 1     -2611.340          37.000  
G14  16830533.809 1  88445104.954 1        76.724          41.000  
G28  17364195.565 1  91249473.042 1      1438.666          40.000  
G03  18321186.324 1  96278485.814 1      1342.761          42.000  
> 2021 08 05 00 39 02.5890000  0 26                     
C25  21669628.629 2 112839388.522 1     -2849.775          37.000  
G30  20690095.961 2 108727222.334 1     -2795.889          36.000  
C08  33395671.476 1 173899999.499 1      1014.827          39.000  
G17  17597698.482 1  92476532.000 1      1276.843          41.000  
C14  21884955.661 4 113960689.917 2      3350.382          33.000  
G01  18033961.621 1  94769140.128 1     -2414.690          40.000  
C21  21868185.914 1 113873332.563 1       610.195          37.000  
C28  20761223.604 1 108109054.955 1      2429.273          40.000  
C23  19781220.091 1 103005914.815 1      -913.138          40.000  
C03  34193157.473 1 178052709.165 1       440.623          37.000  
C01  34772369.916 1 181068823.415 1       392.376          38.000  
C02  34819246.681 4 181312925.41422       407.244          33.000  
C07  32558159.950 2 169538884.873 1        96.509          37.000  
C04  35596661.472 2 185361126.03121       398.077          34.000  
C11  18888518.342 1  98357415.693 1      -861.912          41.000  
G19  18571142.388 1  97592013.674 1      2666.657          41.000  
G06  20113316.409 1 105696241.228 1      3525.346          38.000  
C05  36645039.353 8 190820304.50324       422.483          30.000  
C10  32445111.175 2 168950187.449 1       496.045          38.000  
C13  34425603.500 2 179263085.446 1      1381.732          37.000  
G22  18941787.107 1  99539798.258 1      -515.628          42.000  
C12  22398792.085 8 116636335.603 3     -2082.188          30.000  
G21  20764472.017 2 109118023.343 1     -2611.582          37.000  
G14  16830531.017 1  88445089.607 1        76.307          41.000  
G28  17364140.859 1  91249185.313 1      1438.399          40.000  
G03  18321135.474 1  96278217.276 1      1342.754          42.000  
> 2021 08 05 00 39 02.7890000  0 26                     
C25  21669738.094 2 112839958.544 1     -2849.896          37.000  
G30  20690202.372 1 108727781.519 1     -2796.406          36.000  
C08  33395632.527 1 173899796.569 1      1014.555          39.000  
G17  17597649.813 1  92476276.660 1      1276.550          41.000  
C14  21884826.878 4 113960019.715 2      3351.188          33.000  
G01  18034053.566 1  94769623.144 1     -2415.408          40.000  
C21  21868162.531 1 113873210.533 1       610.048          37.000  
C28  20761130.263 1 108108569.168 1      2428.880          40.000  
C23  19781255.114 1 103006097.476 1      -913.567          40.000  
C03  34193140.476 1 178052620.908 1       440.984          37.000  
C01  34772354.839 1 181068744.936 1       392.310          38.000  
C02  34819230.993 4 181312841.99232       407.585          33.000  
C07  32558156.320 2 169538865.599 1        96.124          37.000  
C04  35596646.238 2 185361047.38831       397.443          34.000  
C11  18888551.463 1  98357588.090 1      -862.158          41.000  
G19  18571040.950 1  97591480.359 1      2666.320          41.000  
G06  20113182.077 1 105695536.189 1      3525.207          38.000  
C05  36645023.211 8 190820221.25434       422.244          30.000  
C10  32445092.154 2 168950088.141 1       496.027          38.000  
C13  34425550.364 2 179262809.039 1      1382.128          37.000  
G22  18941806.686 1  99539901.377 1      -515.928          42.000  
C12  22398869.808 8 116636752.210 3     -2083.715          30.000  
G21  20764571.466 2 109118545.650 1     -2611.602          37.000  
G14  16830528.138 1  88445074.320 1        76.059          41.000  
G28  17364086.170 1  91248897.633 1      1438.242          40.000  
G03  18321084.397 1  96277948.801 1      1342.071          42.000  
> 2021 08 05 00 39 02.9890000  0 26                     
C25  21669847.542 2 112840528.617 1     -2850.424          37.000  
G30  20690308.871 2 108728340.697 1     -2796.034          36.000  
C08  33395593.579 1 173899593.643 1      1014.746          39.000  
G17  17597601.249 1  92476021.336 1      1276.697          41.000  
C14  21884698.148 4 113959349.606 2      3351.182          33.000  
G01  18034145.546 1  94770106.165 1     -2415.137          40.000  
C21  21868139.060 1 113873088.531 1       610.202          37.000  
C28  20761036.904 1 108108083.359 1      2428.820          40.000  
C23  19781290.206 1 103006280.167 1      -913.509          40.000  
C03  34193123.550 1 178052532.668 1       441.355          37.000  
C01  34772339.780 2 181068666.475 1       392.436          38.000  
C02  34819215.445 4 181312760.61022       407.149          34.000  
C07  32558152.604 2 169538846.340 1        96.301          37.000  
C04  35596630.829 4 185360967.73722       398.645          34.000  
C11  18888584.548 1  98357760.484 1      -862.134          41.000  
G19  18570939.390 1  97590947.051 1      2666.481          41.000  
G06  20113047.885 1 105694831.171 1      3525.473          38.000  
C05  36645007.052 8 190820136.97424       421.155          31.000  
C10  32445073.029 2 168949988.847 1       496.796          38.000  
C13  34425497.333 2 179262532.710 1      1381.660          37.000  
G22  18941826.230 1  99540004.531 1      -515.606          42.000  
C12  22398950.690 8 116637168.777 3     -2083.162          30.000  
G21  20764670.880 2 109119067.959 1     -2611.516          37.000  
G14  16830525.206 1  88445059.056 1        76.224          41.000  
G28  17364031.411 1  91248609.991 1      1438.078          40.000  
G03  18321033.321 1  96277680.332 1      1342.295          42.000  
> 2021 08 05 00 39 03.1890000  0 26                     
C25  21669956.920 2 112841098.668 1     -2850.154          37.000  
G30  20690415.282 1 108728899.879 1     -2795.446          36.000  
C08  33395554.507 1 173899390.726 1      1014.776          39.000  
G17  17597552.720 1  92475766.017 1      1276.660          41.000  
C14  21884569.382 4 113958679.463 2      3350.690          33.000  
G01  18034237.613 1  94770589.207 1     -2415.316          40.000  
C21  21868115.659 1 113872966.555 1       609.841          37.000  
C28  20760943.580 1 108107597.557 1      2429.402          39.000  
C23  19781325.351 1 103006462.861 1      -913.384          40.000  
C03  34193106.536 1 178052444.464 1       440.912          37.000  
C01  34772324.703 2 181068587.989 1       393.154          38.000  
C02  34819199.844 4 181312679.20822       407.465          34.000  
C07  32558149.131 2 169538827.083 1        96.570          37.000  
C04  35596615.560 2 185360888.13222       398.206          34.000  
C11  18888617.547 1  98357932.881 1      -861.753          41.000  
G19  18570837.864 1  97590413.773 1      2666.224          41.000  
G06  20112913.745 1 105694126.170 1      3525.215          38.000  
C05  36644990.858 8 190820052.63523       422.045          31.000  
C10  32445054.043 2 168949889.560 1       496.887          38.000  
C13  34425444.406 2 179262256.349 1      1381.969          37.000  
G22  18941845.792 1  99540107.733 1      -515.862          42.000  
C12  22399030.507 8 116637585.295 3     -2082.840          30.000  
G21  20764770.398 2 109119590.261 1     -2611.555          37.000  
G14  16830522.309 1  88445043.801 1        76.425          41.000  
G28  17363976.635 1  91248322.357 1      1438.157          40.000  
G03  18320982.087 1  96277411.914 1      1342.151          42.000  
> 2021 08 05 00 39 03.3890000  0 26                     
C25  21670066.420 2 112841668.688 1     -2850.012          37.000  
G30  20690521.641 1 108729459.057 1     -2795.986          36.000  
C08  33395515.524 1 173899187.768 1      1014.898          39.000  
G17  17597504.017 1  92475510.661 1      1276.953          41.000  
C14  21884440.792 4 113958009.258 2      3351.512          33.000  
G01  18034329.332 1  94771072.204 1     -2415.284          40.000  
C21  21868092.224 1 113872844.565 1       610.223          37.000  
C28  20760850.309 1 108107111.756 1      2429.006          39.000  
C23  19781360.461 1 103006645.562 1      -913.400          40.000  
C03  34193089.557 1 178052356.179 1       441.461          38.000  
C01  34772309.556 2 181068509.508 1       392.471          38.000  
C02  34819184.209 4 181312597.77222       407.186          34.000  
C07  32558145.397 2 169538807.809 1        96.484          37.000  
C04  35596600.274 2 185360808.46121       398.505          34.000  
C11  18888650.685 1  98358105.262 1      -861.496          41.000  
G19  18570736.496 1  97589880.432 1      2666.662          41.000  
G06  20112779.588 1 105693421.142 1      3524.948          38.000  
C05  36644974.647 8 190819968.37323       421.380          31.000  
C10  32445034.987 2 168949790.247 1       496.655          38.000  
C13  34425391.357 2 179261979.970 1      1381.968          37.000  
G22  18941865.563 1  99540210.904 1      -515.997          42.000  
C12  22399112.139 8 116638001.828 3     -2082.148          30.000  
G21  20764869.882 2 109120112.535 1     -2611.655          37.000  
G14  16830519.500 1  88445028.558 1        76.281          41.000  
G28  17363921.911 1  91248034.706 1      1438.491          40.000  
G03  18320931.045 1  96277143.467 1      1342.113          42.000  
> 2021 08 05 00 39 03.5890000  0 26                     
C25  21670175.903 2 112842238.718 1     -2850.489          37.000  
G30  20690628.018 2 108730018.206 1     -2795.835          36.000  
C08  33395476.453 1 173898984.838 1      1014.370          39.000  
G17  17597455.592 1  92475255.324 1      1276.672          41.000  
C14  21884312.114 4 113957339.092 2      3350.779          33.000  
G01  18034421.277 1  94771555.215 1     -2415.055          40.000  
C21  21868068.841 1 113872722.599 1       609.557          37.000  
C28  20760757.020 1 108106625.924 1      2429.153          39.000  
C23  19781395.588 1 103006828.266 1      -913.613          40.000  
C03  34193072.647 1 178052267.900 1       441.225          38.000  
C01  34772294.357 2 181068430.988 1       392.343          38.000  
C02  34819168.643 4 181312516.32822       407.086          34.000  
C07  32558141.645 2 169538788.531 1        96.289          37.000  
C04  35596584.883 2 185360728.78421       398.358          34.000  
C11  18888683.858 1  98358277.642 1      -861.639          41.000  
G19  18570635.005 1  97589347.099 1      2666.749          41.000  
G06  20112645.396 1 105692716.103 1      3525.034          38.000  
C05  36644958.419 8 190819883.97023       421.329          31.000  
C10  32445016.036 2 168949690.931 1       496.576          38.000  
C13  34425338.256 2 179261703.574 1      1381.869          37.000  
G22  18941885.317 1  99540314.088 1      -516.106          42.000  
C12  22399191.346 8 116638418.351 3     -2082.287          30.000  
G21  20764969.226 2 109120634.808 1     -2611.454          37.000  
G14  16830516.743 1  88445013.332 1        76.166          41.000  
G28  17363867.257 1  91247747.081 1      1438.116          40.000  
G03  18320879.898 1  96276875.038 1      1342.162          42.000  
> 2021 08 05 00 39 03.7890000  0 26                     
C25  21670285.158 2 112842808.701 1     -2849.894          37.000  
G30  20690734.394 2 108730577.336 1     -2795.683          36.000  
C08  33395437.417 1 173898781.853 1      1015.003          39.000  
G17  17597406.784 1  92474999.954 1      1276.685          41.000  
C14  21884183.349 4 113956668.886 2      3350.675          33.000  
G01  18034513.100 1  94772038.218 1     -2415.150          40.000  
C21  21868045.475 1 113872600.621 1       609.748          37.000  
C28  20760663.679 1 108106140.069 1      2429.575          39.000  
C23  19781430.645 1 103007010.953 1      -913.405          40.000  
C03  34193055.651 1 178052179.604 1       441.550          38.000  
C01  34772279.315 2 181068352.453 1       392.533          38.000  
C02  34819152.990 4 181312434.83822       407.734          33.000  
C07  32558137.858 2 169538769.209 1        96.057          37.000  
C04  35596569.649 4 185360649.07822       398.553          34.000  
C11  18888716.943 1  98358450.012 1      -861.875          40.000  
G19  18570533.480 1  97588813.756 1      2666.789          41.000  
G06  20112511.274 1 105692011.057 1      3525.164          38.000  
C05  36644942.190 8 190819799.58623       421.921          30.000  
C10  32444996.841 1 168949591.591 1       496.863          38.000  
C13  34425285.173 2 179261427.161 1      1382.280          37.000  
G22  18941905.210 1  99540417.280 1      -516.116          42.000  
C12  22399271.320 8 116638834.862 3     -2082.682          30.000  
G21  20765068.483 2 109121157.045 1     -2611.593          37.000  
G14  16830513.846 1  88444998.107 1        75.691          41.000  
G28  17363812.515 1  91247459.436 1      1437.936          40.000  
G03  18320828.804 1  96276606.619 1      1342.091          42.000  
> 2021 08 05 00 39 04.1890000  0 26                     
C25  21670503.967 2 112843948.796 1     -2850.982          37.000  
G30  20690947.200 2 108731695.657 1     -2795.971          36.000  
C08  33395359.519 1 173898375.980 1      1014.738          39.000  
G17  17597309.604 1  92474489.321 1      1276.221          41.000  
C14  21883925.958 4 113955328.525 2      3350.241          33.000  
G01  18034696.886 1  94773004.333 1     -2415.464          40.000  
C21  21867998.708 2 113872356.798 1       609.026          37.000  
C28  20760476.961 1 108105168.487 1      2428.683          39.000  
C23  19781500.778 1 103007376.495 1      -914.444          40.000  
C03  34193021.640 2 178052003.066 1       441.443          37.000  
C01  34772249.266 2 181068195.444 1       392.208          38.000  
C02  34819121.720 4 181312272.97332       407.066          34.000  
C07  32558130.477 2 169538730.675 1        96.240          37.000  
C04  35596539.198 4 185360489.75922       398.102          34.000  
C11  18888783.114 1  98358794.817 1      -862.188          40.000  
G19  18570330.551 1  97587747.173 1      2666.096          41.000  
G06  20112242.889 1 105690601.053 1      3524.594          38.000  
C05  36644910.029 8 190819630.98823       420.181          31.000  
C10  32444958.573 1 168949392.988 1       496.167          38.000  
C13  34425179.128 2 179260874.416 1      1381.801          37.000  
G22  18941944.630 1  99540623.793 1      -516.611          42.000  
C12  22399432.229 8 116639667.907 3     -2082.708          30.000  
G21  20765267.154 2 109122201.600 1     -2611.670          37.000  
G14  16830508.140 1  88444967.760 1        75.579          41.000  
G28  17363703.242 1  91246884.281 1      1437.368          40.000  
G03  18320726.912 1  96276069.948 1      1341.243          42.000  
> 2021 08 05 00 39 04.3890000  0 26                     
C25  21670613.345 2 112844518.866 1     -2850.180          37.000  
G30  20691053.664 2 108732254.877 1     -2795.790          36.000  
C08  33395320.605 1 173898173.087 1      1014.743          39.000  
G17  17597260.883 1  92474234.029 1      1276.294          41.000  
C14  21883797.210 4 113954658.390 2      3350.878          33.000  
G01  18034788.744 1  94773487.443 1     -2415.609          40.000  
C21  21867975.307 2 113872234.915 1       609.611          37.000  
C28  20760383.638 1 108104682.709 1      2428.795          39.000  
C23  19781535.992 1 103007559.303 1      -913.928          40.000  
C03  34193004.696 2 178051914.831 1       441.353          37.000  
C01  34772234.328 1 181068116.962 1       392.522          38.000  
C02  34819106.049 4 181312191.55322       407.619          34.000  
C07  32558126.847 2 169538711.429 1        96.234          37.000  
C04  35596523.912 4 185360410.10422       398.322          34.000  
C11  18888816.287 1  98358967.254 1      -862.141          40.000  
G19  18570229.026 1  97587213.895 1      2666.305          41.000  
G06  20112108.802 1 105689896.085 1      3525.107          38.000  
C05  36644893.783 8 190819546.61524       421.617          31.000  
C10  32444939.587 1 168949293.711 1       496.423          38.000  
C13  34425126.044 1 179260598.099 1      1381.326          37.000  
G22  18941964.296 1  99540727.116 1      -516.612          42.000  
C12  22399509.097 8 116640084.468 3     -2082.703          30.000  
G21  20765366.550 2 109122723.883 1     -2611.350          37.000  
G14  16830505.365 1  88444952.663 1        75.482          41.000  
G28  17363648.605 1  91246596.741 1      1437.510          40.000  
G03  18320675.818 1  96275801.669 1      1341.229          42.000  
> 2021 08 05 00 39 04.5890000  0 26                     
C25  21670722.915 2 112845088.918 1     -2850.488          37.000  
G30  20691160.058 2 108732814.058 1     -2795.879          36.000  
C08  33395281.726 1 173897970.188 1      1014.669          39.000  
G17  17597212.249 1  92473978.737 1      1276.294          41.000  
C14  21883668.498 4 113953988.221 2      3351.071          33.000  
G01  18034880.846 1  94773970.514 1     -2415.234          40.000  
C21  21867951.907 2 113872113.076 1       609.268          37.000  
C28  20760290.192 1 108104196.934 1      2428.692          39.000  
C23  19781571.067 1 103007742.128 1      -914.364          40.000  
C03  34192987.770 2 178051826.567 1       441.404          37.000  
C01  34772219.321 1 181068038.482 1       392.166          38.000  
C02  34819090.379 4 181312110.14722       406.932          34.000  
C07  32558123.200 2 169538692.190 1        96.179          38.000  
C04  35596508.573 4 185360330.46622       398.480          34.000  
C11  18888849.390 1  98359139.674 1      -862.313          40.000  
G19  18570127.605 1  97586680.616 1      2666.502          41.000  
G06  20111974.714 1 105689191.134 1      3524.743          38.000  
C05  36644877.589 8 190819462.30733       421.751          31.000  
C10  32444920.514 2 168949194.413 1       496.771          38.000  
C13  34425073.065 1 179260321.740 1      1381.792          37.000  
G22  18941983.980 1  99540830.452 1      -516.929          42.000  
C12  22399589.298 8 116640500.916 3     -2081.165          30.000  
G21  20765465.912 2 109123246.170 1     -2611.392          37.000  
G14  16830502.468 1  88444937.566 1        75.306          41.000  
G28  17363594.056 1  91246309.211 1      1437.535          40.000  
G03  18320624.828 1  96275533.385 1      1341.292          42.000  
> 2021 08 05 00 39 04.7890000  0 26                     
C25  21670832.258 2 112845658.990 1     -2849.873          36.000  
G30  20691266.469 2 108733373.275 1     -2796.057          36.000  
C08  33395242.794 1 173897767.308 1      1014.843          39.000  
G17  17597163.685 1  92473723.457 1      1276.727          41.000  
C14  21883539.750 4 113953318.044 2      3351.339          33.000  
G01  18034972.721 1  94774453.647 1     -2415.377          40.000  
C21  21867928.488 2 113871991.272 1       609.173          37.000  
C28  20760196.798 1 108103711.164 1      2429.053          39.000  
C23  19781606.229 1 103007924.976 1      -913.985          40.000  
C03  34192970.878 1 178051738.346 1       441.463          37.000  
C01  34772204.209 2 181067960.008 1       392.250          38.000  
C02  34819074.848 4 181312028.69922       407.454          34.000  
C07  32558119.483 2 169538672.941 1        96.649          38.000  
C04  35596493.269 4 185360250.83222       398.193          34.000  
C11  18888882.476 1  98359312.112 1      -862.021          40.000  
G19  18570026.342 1  97586147.373 1      2666.422          41.000  
G06  20111840.609 2 105688486.195 1      3524.495          38.000  
C05  36644861.360 8 190819377.94423       421.966          31.000  
C10  32444901.458 2 168949095.153 1       496.814          38.000  
C13  34425019.930 2 179260045.412 1      1381.902          37.000  
G22  18942003.734 1  99540933.815 1      -516.760          42.000  
C12  22399669.935 8 116640917.526 3     -2082.636          30.000  
G21  20765565.448 2 109123768.470 1     -2611.255          37.000  
G14  16830499.676 1  88444922.499 1        75.634          41.000  
G28  17363539.385 1  91246021.716 1      1437.493          40.000  
G03  18320573.682 1  96275265.163 1      1341.230          42.000  
> 2021 08 05 00 39 04.9890000  0 26                     
C25  21670941.723 2 112846229.035 1     -2849.777          37.000  
G30  20691372.846 2 108733932.441 1     -2795.515          36.000  
C08  33395203.863 1 173897564.416 1      1014.406          39.000  
G17  17597115.156 1  92473468.185 1      1276.270          41.000  
C14  21883411.107 4 113952647.921 2      3350.822          33.000  
G01  18035064.632 1  94774936.740 1     -2415.546          40.000  
C21  21867905.123 2 113871869.424 1       609.675          38.000  
C28  20760103.544 1 108103225.375 1      2429.288          39.000  
C23  19781641.322 1 103008107.826 1      -913.859          40.000  
C03  34192953.951 1 178051650.058 1       441.598          38.000  
C01  34772189.185 1 181067881.489 1       392.591          38.000  
C02  34819059.283 4 181311947.24922       408.007          34.000  
C07  32558115.853 2 169538653.677 1        96.509          38.000  
C04  35596478.087 4 185360171.17522       398.041          34.000  
C11  18888915.527 1  98359484.539 1      -861.925          41.000  
G19  18569924.782 1  97585614.100 1      2666.492          41.000  
G06  20111706.347 2 105687781.220 1      3524.785          38.000  
C05  36644845.132 8 190819293.65423       421.916          31.000  
C10  32444882.368 2 168948995.865 1       496.844          38.000  
C13  34424966.968 2 179259769.083 1      1381.614          37.000  
G22  18942023.487 1  99541037.177 1      -516.753          42.000  
C12  22399749.526 8 116641334.040 3     -2082.166          30.000  
G21  20765664.809 2 109124290.737 1     -2611.314          37.000  
G14  16830496.745 1  88444907.443 1        75.480          41.000  
G28  17363484.748 1  91245734.205 1      1437.777          40.000  
G03  18320522.710 1  96274996.930 1      1341.261          42.000  
> 2021 08 05 00 39 05.1890000  0 26                     
C25  21671051.275 2 112846799.078 1     -2850.465          37.000  
G30  20691479.327 2 108734491.571 1     -2795.467          36.000  
C08  33395164.931 1 173897361.472 1      1014.481          39.000  
G17  17597066.627 1  92473212.842 1      1276.910          41.000  
C14  21883282.377 4 113951977.688 2      3351.314          33.000  
G01  18035156.490 1  94775419.804 1     -2414.943          40.000  
C21  21867881.722 1 113871747.613 1       608.950          38.000  
C28  20760010.273 1 108102739.561 1      2429.342          39.000  
C23  19781676.519 1 103008290.671 1      -914.419          40.000  
C03  34192936.937 1 178051561.753 1       441.685          38.000  
C01  34772174.125 1 181067802.939 1       392.604          38.000  
C02  34819043.525 4 181311865.77332       407.522          34.000  
C07  32558112.119 2 169538634.396 1        96.887          38.000  
C04  35596462.714 4 185360091.44322       398.730          34.000  
C11  18888948.665 1  98359656.933 1      -861.532          41.000  
G19  18569823.309 1  97585080.799 1      2666.438          41.000  
G06  20111572.312 2 105687076.221 1      3525.232          38.000  
C05  36644828.920 8 190819209.24233       422.017          31.000  
C10  32444863.364 2 168948896.553 1       496.381          38.000  
C13  34424913.972 2 179259492.696 1      1381.685          37.000  
G22  18942042.927 1  99541140.532 1      -516.833          42.000  
C12  22399827.895 8 116641750.577 3     -2082.276          30.000  
G21  20765764.223 2 109124812.960 1     -2610.654          37.000  
G14  16830493.813 1  88444892.376 1        75.323          41.000  
G28  17363430.251 1  91245446.690 1      1437.443          40.000  
G03  18320471.703 1  96274728.670 1      1341.402          42.000  
> 2021 08 05 00 39 05.3890000  0 26                     
C25  21671160.758 2 112847369.038 1     -2849.930          37.000  
G30  20691585.721 2 108735050.679 1     -2795.470          36.000  
C08  33395125.930 1 173897158.475 1      1014.996          39.000  
G17  17597018.098 1  92472957.494 1      1276.556          41.000  
C14  21883153.664 4 113951307.459 2      3350.648          33.000  
G01  18035248.470 1  94775902.857 1     -2415.085          40.000  
C21  21867858.391 2 113871625.733 1       608.903          38.000  
C28  20759916.984 1 108102253.711 1      2429.307          39.000  
C23  19781711.681 1 103008473.470 1      -914.224          40.000  
C03  34192920.028 2 178051473.409 1       441.569          38.000  
C01  34772159.100 1 181067724.325 1       393.323          38.000  
C02  34819027.837 4 181311784.27522       407.372          34.000  
C07  32558108.402 2 169538615.083 1        96.344          38.000  
C04  35596447.323 2 185360011.70521       398.462          34.000  
C11  18888981.855 1  98359829.303 1      -861.849          41.000  
G19  18569721.766 1  97584547.447 1      2666.617          41.000  
G06  20111438.155 2 105686371.205 1      3525.256          38.000  
C05  36644812.727 8 190819124.83323       421.489          31.000  
C10  32444844.291 2 168948797.169 1       496.686          38.000  
C13  34424860.871 2 179259216.282 1      1382.015          37.000  
G22  18942062.646 1  99541243.860 1      -516.827          42.000  
C12  22399909.126 8 116642166.985 3     -2082.197          30.000  
G21  20765863.602 2 109125335.175 1     -2611.471          38.000  
G14  16830490.724 1  88444877.274 1        75.462          41.000  
G28  17363375.597 1  91245159.135 1      1437.755          40.000  
G03  18320420.818 1  96274460.420 1      1341.287          42.000  
> 2021 08 05 00 39 05.5890000  0 26                     
C25  21671270.101 2 112847939.034 1     -2850.168          37.000  
G30  20691692.080 2 108735609.773 1     -2795.600          36.000  
C08  33395086.911 1 173896955.515 1      1014.589          39.000  
G17  17596969.569 1  92472702.127 1      1276.849          42.000  
C14  21883024.916 4 113950637.180 2      3350.883          33.000  
G01  18035340.450 1  94776385.930 1     -2415.531          40.000  
C21  21867834.955 2 113871503.877 1       609.218          37.000  
C28  20759823.695 1 108101767.870 1      2428.931          39.000  
C23  19781746.773 1 103008656.293 1      -914.189          40.000  
C03  34192902.996 1 178051385.048 1       441.631          37.000  
C01  34772143.901 1 181067645.753 1       393.096          38.000  
C02  34819012.097 4 181311702.74522       407.941          34.000  
C07  32558104.738 2 169538595.741 1        96.442          38.000  
C04  35596432.089 4 185359931.94022       398.853          34.000  
C11  18889014.836 1  98360001.645 1      -861.701          41.000  
G19  18569620.362 1  97584014.104 1      2666.612          41.000  
G06  20111304.155 2 105685666.201 1      3525.011          38.000  
C05  36644796.411 9               9       425.781          31.000  
C10  32444825.218 1 168948697.809 1       496.698          38.000  
C13  34424807.683 2 179258939.853 1      1381.757          37.000  
G22  18942082.260 1  99541347.212 1      -516.915          43.000  
C12  22399990.915 8 116642583.427 3     -2082.554          30.000  
G21  20765962.999 2 109125857.342 1     -2611.306          38.000  
G14  16830487.793 1  88444862.203 1        75.317          41.000  
G28  17363320.873 1  91244871.602 1      1437.758          40.000  
G03  18320369.671 1  96274192.167 1      1341.091          42.000  
> 2021 08 05 00 39 05.7890000  0 26                     
C25  21671379.531 2 112848508.991 1     -2849.808          37.000  
G30  20691798.369 2 108736168.863 1     -2795.390          36.000  
C08  33395047.840 1 173896752.530 1      1014.872          39.000  
G17  17596920.952 1  92472446.774 1      1276.923          42.000  
C14  21882896.256 4 113949966.949 2      3350.990          33.000  
G01  18035432.395 1  94776868.968 1     -2415.352          40.000  
C21  21867811.450 2 113871382.031 1       609.277          38.000  
C28  20759730.319 1 108101282.007 1      2429.327          39.000  
C23  19781781.831 1 103008839.124 1      -914.076          40.000  
C03  34192886.209 1 178051296.694 1       441.518          37.000  
C01  34772128.824 1 181067567.145 1       393.132          38.000  
C02  34818996.497 4 181311621.21422       407.540          34.000  
C07  32558100.951 2 169538576.400 1        96.869          38.000  
C04  35596416.855 4 185359852.18622       398.645          34.000  
C11  18889047.852 1  98360174.016 1      -861.850          41.000  
G19  18569518.785 1  97583480.764 1      2666.800          41.000  
G06  20111169.963 2 105684961.173 1      3525.400          38.000  
C05  36644780.234 9               7       419.993          31.000  
C10  32444806.163 2 168948598.418 1       497.009          38.000  
C13  34424754.634 2 179258663.403 1      1382.365          37.000  
G22  18942101.769 1  99541450.574 1      -516.827          43.000  
C12  22400066.910 8 116642999.836 3     -2082.150          30.000  
G21  20766062.221 2 109126379.530 1     -2611.022          38.000  
G14  16830484.861 1  88444847.153 1        75.089          41.000  
G28  17363266.132 1  91244584.080 1      1437.406          40.000  
G03  18320318.647 1  96273923.944 1      1341.454          42.000  
> 2021 08 05 00 39 05.9890000  0 26                     
C25  21671489.084 2 112849078.939 1     -2849.235          37.000  
G30  20691904.519 2 108736727.934 1     -2795.154          36.000  
C08  33395008.909 1 173896549.525 1      1015.107          39.000  
G17  17596872.476 1  92472191.399 1      1276.880          42.000  
C14  21882767.543 4 113949296.665 2      3351.440          33.000  
G01  18035524.288 1  94777352.013 1     -2414.973          40.000  
C21  21867788.066 1 113871260.210 1       609.337          38.000  
C28  20759637.013 1 108100796.152 1      2429.200          39.000  
C23  19781816.923 1 103009021.958 1      -914.148          40.000  
C03  34192869.160 1 178051208.294 1       441.824          38.000  
C01  34772113.730 1 181067488.526 1       393.109          38.000  
C02  34818980.879 4 181311539.65222       408.125          34.000  
C07  32558097.182 2 169538557.064 1        96.497          38.000  
C04  35596401.568 4 185359772.36222       399.255          34.000  
C11  18889080.937 1  98360346.351 1      -861.739          41.000  
G19  18569417.364 1  97582947.397 1      2667.010          41.000  
G06  20111035.823 2 105684256.140 1      3525.363          38.000  
C05  36644763.918 9 190818871.46337       422.519          31.000  
C10  32444787.072 2 168948499.027 1       497.296          38.000  
C13  34424701.603 2 179258386.987 1      1382.186          37.000  
G22  18942121.418 1  99541553.945 1      -516.780          43.000  
C12  22400150.375 8 116643416.228 3     -2081.102          30.000  
G21  20766161.460 2 109126901.666 1     -2610.887          38.000  
G14  16830481.929 1  88444832.084 1        75.336          41.000  
G28  17363211.408 1  91244296.543 1      1437.763          40.000  
G03  18320267.675 1  96273655.740 1      1340.900          42.000  
> 2021 08 05 00 39 06.1890000  0 26                     
C25  21671598.514 2 112849648.914 1     -2849.824          37.000  
G30  20692010.965 2 108737287.023 1     -2795.826          36.000  
C08  33394969.838 1 173896346.550 1      1014.824          39.000  
G17  17596823.929 1  92471936.055 1      1276.581          42.000  
C14  21882638.847 4 113948626.359 2      3351.913          33.000  
G01  18035616.268 1  94777835.100 1     -2415.808          40.000  
C21  21867764.648 2 113871138.421 1       608.427          38.000  
C28  20759543.636 1 108100310.292 1      2429.153          39.000  
C23  19781851.911 1 103009204.819 1      -914.571          40.000  
C03  34192852.129 1 178051119.916 1       441.927          38.000  
C01  34772098.705 2 181067409.899 1       393.269          38.000  
C02  34818965.244 4 181311458.11422       407.910          34.000  
C07  32558093.377 2 169538537.717 1        96.252          38.000  
C04  35596386.247 2 185359692.61821       398.834          34.000  
C11  18889114.023 1  98360518.694 1      -861.712          40.000  
G19  18569315.909 1  97582414.069 1      2666.742          41.000  
G06  20110901.631 2 105683551.140 1      3525.118          38.000  
C05  36644747.690 9 190818787.06226       422.330          31.000  
C10  32444767.981 2 168948399.665 1       496.851          38.000  
C13  34424648.484 2 179258110.552 1      1382.036          37.000  
G22  18942140.980 1  99541657.351 1      -517.165          43.000  
C12  22400229.459 8 116643832.613 3     -2080.988          30.000  
G21  20766260.926 2 109127423.824 1     -2611.042          38.000  
G14  16830479.120 1  88444817.074 1        74.893          41.000  
G28  17363156.841 1  91244009.033 1      1437.599          40.000  
G03  18320216.615 1  96273387.551 1      1340.792          42.000  
> 2021 08 05 00 39 06.3890000  0 26                     
C25  21671707.979 2 112850218.894 1     -2849.825          37.000  
G30  20692117.324 2 108737846.106 1     -2795.470          36.000  
C08  33394930.767 1 173896143.597 1      1014.608          39.000  
G17  17596775.418 1  92471680.710 1      1276.654          42.000  
C14  21882510.257 4 113947956.112 2      3351.771          33.000  
G01  18035708.196 1  94778318.189 1     -2415.961          40.000  
C21  21867741.405 1 113871016.620 1       609.238          38.000  
C28  20759450.365 1 108099824.446 1      2429.162          39.000  
C23  19781887.108 1 103009387.704 1      -914.384          40.000  
C03  34192835.202 1 178051031.535 1       441.807          38.000  
C01  34772083.646 2 181067331.313 1       392.872          38.000  
C02  34818949.556 4 181311376.59032       407.462          34.000  
C07  32558089.783 2 169538518.368 1        96.826          38.000  
C04  35596370.716 4 185359611.86432       398.749          34.000  
C11  18889147.126 1  98360691.067 1      -861.878          40.000  
G19  18569214.383 1  97581880.744 1      2666.564          41.000  
G06  20110767.578 2 105682846.169 1      3524.563          38.000  
C05  36644731.444 9 190818702.68525       420.291          31.000  
C10  32444748.908 2 168948300.298 1       496.747          38.000  
C13  34424595.401 2 179257834.158 1      1381.686          37.000  
G22  18942160.838 1  99541760.795 1      -517.476          43.000  
C12  22400310.254 8 116644249.056 3     -2082.512          30.000  
G21  20766360.357 2 109127945.986 1     -2610.694          38.000  
G14  16830476.136 1  88444802.078 1        74.693          41.000  
G28  17363102.204 1  91243721.581 1      1437.156          40.000  
G03  18320165.521 1  96273119.411 1      1340.487          42.000  
> 2021 08 05 00 39 06.5890000  0 26                     
C25  21671817.410 2 112850788.886 1     -2850.099          37.000  
G30  20692223.753 2 108738405.218 1     -2795.751          36.000  
C08  33394891.748 1 173895940.600 1      1015.028          39.000  
G17  17596726.836 1  92471425.369 1      1276.837          42.000  
C14  21882381.544 4 113947285.868 2      3351.008          33.000  
G01  18035800.088 1  94778801.264 1     -2415.498          40.000  
C21  21867718.039 1 113870894.884 1       608.859          38.000  
C28  20759357.024 1 108099338.592 1      2429.325          39.000  
C23  19781922.253 1 103009570.607 1      -914.488          40.000  
C03  34192818.276 2 178050943.149 1       442.310          37.000  
C01  34772068.604 2 181067252.674 1       393.447          37.000  
C02  34818933.903 4 181311295.03722       407.596          34.000  
C07  32558086.083 2 169538499.055 1        96.655          38.000  
C04  35596355.465 2 185359532.06321       399.066          34.000  
C11  18889180.264 1  98360863.429 1      -861.752          41.000  
G19  18569112.893 1  97581347.412 1      2666.659          41.000  
G06  20110633.491 1 105682141.144 1      3525.041          38.000  
C05  36644715.215 9 190818618.11525       423.633          31.000  
C10  32444729.870 1 168948200.908 1       497.070          38.000  
C13  34424542.352 2 179257557.692 1      1382.509          37.000  
G22  18942180.557 1  99541864.237 1      -517.155          43.000  
C12  22400392.619 8 116644665.461 3     -2081.448          30.000  
G21  20766459.806 2 109128468.140 1     -2610.393          37.000  
G14  16830473.379 1  88444787.097 1        74.964          41.000  
G28  17363047.568 1  91243434.100 1      1437.470          40.000  
G03  18320114.636 1  96272851.265 1      1340.700          42.000  
> 2021 08 05 00 39 06.7890000  0 26                     
C25  21671926.892 2 112851358.851 1     -2849.792          37.000  
G30  20692330.060 2 108738964.291 1     -2795.860          36.000  
C08  33394852.660 1 173895737.635 1      1014.677          39.000  
G17  17596678.290 1  92471170.015 1      1276.813          42.000  
C14  21882252.796 4 113946615.584 2      3350.933          33.000  
G01  18035892.034 1  94779284.352 1     -2415.464          40.000  
C21  21867694.551 1 113870773.137 1       608.015          38.000  
C28  20759263.630 1 108098852.749 1      2429.224          39.000  
C23  19781957.485 1 103009753.516 1      -914.640          40.000  
C03  34192801.349 2 178050854.778 1       441.615          37.000  
C01  34772053.474 2 181067174.060 1       393.401          38.000  
C02  34818918.128 2 181311213.48022       407.641          34.000  
C07  32558082.332 2 169538479.698 1        96.667          38.000  
C04  35596340.039 2 185359452.27121       399.127          34.000  
C11  18889213.402 1  98361035.800 1      -861.721          41.000  
G19  18569011.402 1  97580814.071 1      2666.704          41.000  
G06  20110499.368 1 105681436.158 1      3524.796          38.000  
C05  36644698.899 9               9       426.563          30.000  
C10  32444710.745 1 168948101.524 1       497.150          38.000  
C13  34424489.199 2 179257281.296 1      1382.252          37.000  
G22  18942200.293 1  99541967.705 1      -517.454          43.000  
C12  22400472.785 8 116645081.916 3     -2082.632          30.000  
G21  20766559.238 2 109128990.300 1     -2610.721          37.000  
G14  16830470.500 1  88444772.130 1        74.811          41.000  
G28  17362992.948 1  91243146.633 1      1437.230          40.000  
G03  18320063.507 1  96272583.160 1      1340.402          42.000  
> 2021 08 05 00 39 06.9890000  0 26                     
C25  21672036.410 2 112851928.828 1     -2850.000          37.000  
G30  20692436.558 2 108739523.343 1     -2795.430          36.000  
C08  33394813.711 1 173895534.640 1      1015.010          39.000  
G17  17596629.673 1  92470914.665 1      1276.733          42.000  
C14  21882123.996 4 113945945.270 2      3351.021          33.000  
G01  18035983.857 1  94779767.439 1     -2415.558          40.000  
C21  21867671.167 2 113870651.366 1       608.613          38.000  
C28  20759170.289 1 108098366.900 1      2428.942          39.000  
C23  19781992.542 1 103009936.437 1      -914.862          40.000  
C03  34192784.387 2 178050766.364 1       442.085          37.000  
C01  34772038.240 1 181067095.419 1       393.014          37.000  
C02  34818902.423 4 181311130.89832       408.024          34.000  
C07  32558078.562 1 169538460.362 1        96.600          38.000  
C04  35596324.665 4 185359372.47922       398.694          34.000  
C11  18889246.470 1  98361208.165 1      -862.201          40.000  
G19  18568909.825 1  97580280.729 1      2666.608          41.000  
G06  20110365.333 1 105680731.152 1      3524.955          38.000  
C05  36644682.618 9               7       424.468          31.000  
C10  32444691.759 1 168948002.158 1       496.869          38.000  
C13  34424436.133 1 179257004.880 1      1382.007          37.000  
G22  18942219.977 1  99542071.183 1      -517.539          43.000  
C12  22400551.573 8 116645498.220 4     -2081.456          30.000  
G21  20766658.582 2 109129512.431 1     -2610.490          37.000  
G14  16830467.707 1  88444757.184 1        74.718          41.000  
G28  17362938.277 1  91242859.175 1      1437.057          40.000  
G03  18320012.483 1  96272315.062 1      1340.182          42.000  
> 2021 08 05 00 39 07.1890000  0 26                     
C25  21672145.840 2 112852498.810 1     -2850.011          37.000  
G30  20692542.830 2 108740082.448 1     -2795.592          36.000  
C08  33394774.745 1 173895331.715 1      1014.572          39.000  
G17  17596581.109 1  92470659.369 1      1276.508          42.000  
C14  21881995.458 4 113945274.999 2      3351.727          33.000  
G01  18036075.872 1  94780250.576 1     -2415.709          40.000  
C21  21867647.767 2 113870529.672 1       608.585          37.000  
C28  20759077.070 1 108097881.071 1      2429.154          39.000  
C23  19782027.652 1 103010119.403 1      -914.877          40.000  
C03  34192767.408 2 178050678.016 1       441.703          38.000  
C01  34772023.093 2 181067016.813 1       392.944          38.000  
C02  34818886.735 4 181311049.35322       407.367          34.000  
C07  32558074.828 2 169538441.046 1        96.844          38.000  
C04  35596309.396 2 185359292.70221       398.999          34.000  
C11  18889279.591 1  98361380.567 1      -862.182          40.000  
G19  18568808.474 1  97579747.432 1      2666.695          41.000  
G06  20110231.106 1 105680026.216 1      3524.879          38.000  
C05  36644666.424 9 190818362.77036       422.451          31.000  
C10  32444672.564 1 168947902.812 1       496.576          38.000  
C13  34424383.066 1 179256728.466 1      1382.158          37.000  
G22  18942239.696 1  99542174.732 1      -517.911          43.000  
C12  22400630.203 8 116645914.669 3     -2082.052          30.000  
G21  20766757.891 1 109130034.613 1     -2610.859          37.000  
G14  16830464.863 1  88444742.283 1        74.528          41.000  
G28  17362883.640 1  91242571.776 1      1436.806          40.000  
G03  18319961.511 1  96272047.014 1      1339.898          42.000  
> 2021 08 05 00 39 07.3890000  0 26                     
C25  21672255.271 2 112853068.853 1     -2850.036          37.000  
G30  20692649.207 2 108740641.591 1     -2795.501          36.000  
C08  33394735.708 1 173895128.820 1      1014.157          39.000  
G17  17596532.633 1  92470404.093 1      1276.343          42.000  
C14  21881866.920 4 113944604.794 2      3351.348          33.000  
G01  18036167.834 1  94780733.744 1     -2415.784          40.000  
C21  21867624.383 2 113870408.053 1       608.366          37.000  
C28  20758983.816 1 108097395.282 1      2429.369          39.000  
C23  19782062.745 1 103010302.421 1      -915.253          40.000  
C03  34192750.482 2 178050589.658 1       441.586          38.000  
C01  34772007.947 2 181066938.234 1       392.861          38.000  
C02  34818871.082 4 181310967.84422       407.500          34.000  
C07  32558071.163 2 169538421.797 1        96.484          38.000  
C04  35596294.127 4 185359212.97622       398.730          34.000  
C11  18889312.763 1  98361552.997 1      -862.311          40.000  
G19  18568706.896 1  97579214.181 1      2666.154          41.000  
G06  20110096.949 2 105679321.306 1      3524.722          38.000  
C05  36644650.300 9 190818278.36825       422.580          31.000  
C10  32444653.543 1 168947803.488 1       496.509          38.000  
C13  34424329.983 2 179256452.111 1      1381.953          37.000  
G22  18942259.449 1  99542278.318 1      -518.145          43.000  
C12  22400710.317 8 116646331.095 3     -2081.764          30.000  
G21  20766857.270 1 109130556.796 1     -2610.480          37.000  
G14  16830462.001 1  88444727.464 1        74.108          41.000  
G28  17362829.021 1  91242284.429 1      1436.682          40.000  
G03  18319910.504 1  96271779.021 1      1340.133          42.000  
> 2021 08 05 00 39 07.5890000  0 26                     
C25  21672364.718 2 112853638.905 1     -2850.647          37.000  
G30  20692755.636 2 108741200.747 1     -2796.046          37.000  
C08  33394696.759 1 173894925.921 1      1014.276          39.000  
G17  17596484.051 1  92470148.841 1      1276.062          42.000  
C14  21881738.120 4 113943934.575 2      3351.121          33.000  
G01  18036259.762 1  94781216.964 1     -2416.241          40.000  
C21  21867600.983 2 113870286.456 1       607.661          38.000  
C28  20758890.545 1 108096909.542 1      2428.608          39.000  
C23  19782097.907 1 103010485.470 1      -915.443          40.000  
C03  34192733.485 2 178050501.354 1       441.401          37.000  
C01  34771992.887 2 181066859.679 1       392.786          38.000  
C02  34818855.464 4 181310886.35522       407.054          33.000  
C07  32558067.446 2 169538402.537 1        96.112          38.000  
C04  35596278.806 4 185359133.22322       399.384          34.000  
C11  18889345.797 1  98361725.430 1      -862.322          40.000  
G19  18568605.510 1  97578680.932 1      2665.999          41.000  
G06  20109962.791 2 105678616.426 1      3524.013          38.000  
C05  36644633.967 9 190818193.98935       421.423          31.000  
C10  32444634.505 1 168947704.183 1       496.362          38.000  
C13  34424276.899 2 179256175.790 1      1381.310          37.000  
G22  18942279.273 1  99542381.940 1      -518.479          43.000  
C12  22400789.297 8 116646747.583 3     -2082.128          30.000  
G21  20766956.649 1 109131079.030 1     -2611.451          37.000  
G14  16830459.192 1  88444712.663 1        73.603          41.000  
G28  17362774.332 1  91241997.099 1      1436.337          40.000  
G03  18319859.549 1  96271511.082 1      1339.470          42.000  
> 2021 08 05 00 39 07.7890000  0 26                     
C25  21672474.218 2 112854208.963 1     -2850.287          37.000  
G30  20692861.995 2 108741759.919 1     -2795.962          36.000  
C08  33394657.741 1 173894723.050 1      1014.345          39.000  
G17  17596435.348 1  92469893.596 1      1276.440          42.000  
C14  21881609.407 4 113943264.401 2      3351.460          33.000  
G01  18036351.690 1  94781700.192 1     -2416.201          40.000  
C21  21867577.617 2 113870164.881 1       607.903          37.000  
C28  20758797.308 1 108096423.795 1      2428.466          39.000  
C23  19782132.964 1 103010668.563 1      -915.514          40.000  
C03  34192716.489 2 178050413.035 1       441.224          37.000  
C01  34771977.740 2 181066781.118 1       393.173          38.000  
C02  34818839.829 4 181310804.85122       407.688          34.000  
C07  32558063.817 2 169538383.291 1        96.338          38.000  
C04  35596263.502 4 185359053.55622       398.834          34.000  
C11  18889378.865 1  98361897.902 1      -862.336          40.000  
G19  18568504.107 1  97578147.709 1      2666.152          41.000  
G06  20109828.652 1 105677911.563 1      3524.236          38.000  
C05  36644617.703 9 190818109.58324       422.232          31.000  
C10  32444615.414 1 168947604.892 1       496.582          38.000  
C13  34424223.816 1 179255899.452 1      1381.567          37.000  
G22  18942299.061 1  99542485.614 1      -518.479          43.000  
C12  22400870.318 8 116647164.029 3     -2082.325          30.000  
G21  20767055.975 2 109131601.253 1     -2611.210          37.000  
G14  16830456.435 1  88444697.912 1        73.605          41.000  
G28  17362719.608 1  91241709.794 1      1436.690          40.000  
G03  18319808.682 1  96271243.173 1      1339.410          42.000  
> 2021 08 05 00 39 07.9890000  0 26                     
C25  21672583.858 2 112854779.082 1     -2850.563          37.000  
G30  20692968.476 2 108742319.153 1     -2796.467          36.000  
C08  33394618.757 1 173894520.238 1      1013.901          39.000  
G17  17596386.819 1  92469638.452 1      1275.684          42.000  
C14  21881480.746 4 113942594.249 2      3350.427          33.000  
G01  18036443.653 1  94782183.492 1     -2416.613          40.000  
C21  21867554.338 2 113870043.397 1       606.878          37.000  
C28  20758703.967 1 108095938.114 1      2428.148          39.000  
C23  19782168.057 1 103010851.725 1      -915.944          40.000  
C03  34192699.597 2 178050324.769 1       441.362          37.000  
C01  34771962.593 2 181066702.634 1       392.500          38.000  
C02  34818824.193 4 181310723.45622       406.748          33.000  
C07  32558060.170 2 169538364.124 1        95.856          38.000  
C04  35596248.320 4 185358973.88022       398.676          34.000  
C11  18889412.003 1  98362070.443 1      -862.906          40.000  
G19  18568402.582 1  97577614.554 1      2665.581          41.000  
G06  20109694.599 1 105677206.759 1      3523.882          38.000  
C05  36644601.509 8 190818025.24724       421.847          30.000  
C10  32444596.394 2 168947505.686 1       496.124          38.000  
C13  34424170.767 1 179255623.180 1      1381.245          37.000  
G22  18942318.850 1  99542589.357 1      -518.773          43.000  
C12  22400949.717 8 116647580.634 3     -2083.873          30.000  
G21  20767155.407 2 109132123.560 1     -2611.714          37.000  
G14  16830453.643 1  88444683.211 1        73.350          41.000  
G28  17362664.972 1  91241422.590 1      1435.831          40.000  
G03  18319757.762 1  96270975.357 1      1338.824          42.000  
> 2021 08 05 00 39 08.1890000  0 26                     
C25  21672693.323 2 112855349.261 1     -2851.079          37.000  
G30  20693074.887 2 108742878.379 1     -2796.657          37.000  
C08  33394579.930 1 173894317.454 1      1013.752          39.000  
G17  17596338.307 1  92469383.286 1      1275.757          42.000  
C14  21881352.068 4 113941924.153 2      3350.039          34.000  
G01  18036535.668 1  94782666.821 1     -2417.001          40.000  
C21  21867530.990 2 113869921.931 1       606.973          38.000  
C28  20758610.573 1 108095452.425 1      2428.561          39.000  
C23  19782203.236 1 103011034.911 1      -915.916          40.000  
C03  34192682.513 2 178050236.544 1       441.004          37.000  
C01  34771947.516 1 181066624.151 1       392.388          38.000  
C02  34818808.471 4 181310642.00432       406.900          34.000  
C07  32558056.575 2 169538344.959 1        95.825          37.000  
C04  35596233.017 4 185358894.22622       398.175          34.000  
C11  18889445.106 1  98362242.986 1      -862.923          40.000  
G19  18568301.178 1  97577081.401 1      2665.694          41.000  
G06  20109560.424 1 105676501.982 1      3523.642          38.000  
C05  36644585.333 8 190817940.92234       422.531          30.000  
C10  32444577.338 1 168947406.469 1       495.990          38.000  
C13  34424117.788 1 179255346.928 1      1381.369          37.000  
G22  18942338.673 1  99542693.153 1      -519.152          43.000  
C12  22401030.250 8 116647997.083 3     -2082.469          30.000  
G21  20767254.733 2 109132645.844 1     -2612.279          37.000  
G14  16830450.746 1  88444668.571 1        73.079          41.000  
G28  17362610.283 1  91241135.399 1      1435.969          40.000  
G03  18319706.790 1  96270707.558 1      1338.860          42.000  
> 2021 08 05 00 39 08.3890000  0 26                     
C25  21672802.806 2 112855919.442 1     -2851.263          37.000  
G30  20693181.421 2 108743437.637 1     -2796.146          37.000  
C08  33394541.016 1 173894114.702 1      1013.568          39.000  
G17  17596289.761 1  92469128.187 1      1275.531          42.000  
C14  21881223.425 4 113941254.038 2      3350.569          34.000  
G01  18036627.770 1  94783150.192 1     -2417.061          40.000  
C21  21867507.537 2 113869800.533 1       606.916          37.000  
C28  20758517.319 1 108094966.811 1      2428.251          39.000  
C23  19782238.451 1 103011218.171 1      -916.519          40.000  
C03  34192665.639 2 178050148.313 1       441.422          37.000  
C01  34771932.405 1 181066545.709 1       392.137          38.000  
C02  34818792.835 4 181310560.61922       406.992          34.000  
C07  32558052.910 2 169538325.855 1        95.074          38.000  
C04  35596217.800 4 185358814.65422       397.833          34.000  
C11  18889478.174 1  98362415.578 1      -863.091          40.000  
G19  18568199.740 1  97576548.314 1      2665.442          41.000  
G06  20109426.389 1 105675797.248 1      3523.453          38.000  
C05  36644569.122 8 190817856.67424       421.426          30.000  
C10  32444558.247 1 168947307.321 1       495.264          38.000  
C13  34424064.879 2 179255070.741 1      1380.851          37.000  
G22  18942358.409 1  99542796.999 1      -519.534          43.000  
C12  22401111.463 8 116648413.679 3     -2083.193          30.000  
G21  20767354.147 2 109133168.173 1     -2611.466          38.000  
G14  16830448.059 1  88444653.987 1        72.782          41.000  
G28  17362555.663 1  91240848.278 1      1435.416          40.000  
G03  18319655.731 1  96270439.846 1      1338.279          42.000  
> 2021 08 05 00 39 08.5890000  0 26                     
C25  21672912.289 2 112856489.626 1     -2851.153          37.000  
G30  20693287.902 2 108743996.940 1     -2796.402          37.000  
C08  33394502.102 1 173893911.959 1      1013.678          39.000  
G17  17596241.249 1  92468873.090 1      1275.446          42.000  
C14  21881094.643 4 113940583.961 2      3350.267          34.000  
G01  18036719.767 1  94783633.574 1     -2417.036          40.000  
C21  21867484.171 2 113869679.138 1       607.085          38.000  
C28  20758423.961 1 108094481.215 1      2427.710          39.000  
C23  19782273.648 1 103011401.426 1      -916.249          40.000  
C03  34192648.625 2 178050060.122 1       440.719          38.000  
C01  34771917.310 1 181066467.263 1       392.053          38.000  
C02  34818777.270 4 181310479.26822       406.463          34.000  
C07  32558049.228 2 169538306.727 1        95.453          37.000  
C04  35596202.479 4 185358735.04722       397.644          34.000  
C11  18889511.312 1  98362588.188 1      -863.149          40.000  
G19  18568098.494 1  97576015.238 1      2665.235          41.000  
G06  20109292.284 1 105675092.521 1      3523.588          38.000  
C05  36644552.875 8 190817772.33524       422.252          31.000  
C10  32444539.122 2 168947208.114 1       496.082          38.000  
C13  34424011.830 2 179254794.542 1      1380.548          37.000  
G22  18942378.233 1  99542900.872 1      -519.706          43.000  
C12  22401191.141 8 116648830.257 3     -2083.075          30.000  
G21  20767453.509 2 109133690.483 1     -2611.337          37.000  
G14  16830445.336 1  88444639.438 1        72.378          41.000  
G28  17362501.027 1  91240561.167 1      1435.120          40.000  
G03  18319604.776 1  96270172.147 1      1338.321          42.000  
> 2021 08 05 00 39 08.7890000  0 26                     
C25  21673021.806 2 112857059.824 1     -2850.463          37.000  
G30  20693394.296 1 108744556.229 1     -2796.089          36.000  
C08  33394463.188 1 173893709.239 1      1014.031          39.000  
G17  17596192.720 1  92468618.015 1      1275.928          42.000  
C14  21880965.947 4 113939913.870 2      3351.058          33.000  
G01  18036811.782 1  94784116.978 1     -2416.783          40.000  
C21  21867460.945 1 113869557.812 1       606.976          38.000  
C28  20758330.689 1 108093995.591 1      2428.447          39.000  
C23  19782308.915 1 103011584.744 1      -916.060          40.000  
C03  34192631.750 2 178049971.927 1       441.259          38.000  
C01  34771902.251 1 181066388.853 1       391.977          38.000  
C02  34818761.722 4 181310397.86922       407.241          33.000  
C07  32558045.494 2 169538287.622 1        96.094          38.000  
C04  35596187.140 2 185358656.44531       398.364          34.000  
C11  18889544.520 1  98362760.805 1      -862.806          40.000  
G19  18567996.899 1  97575482.152 1      2665.718          41.000  
G06  20109158.267 1 105674387.836 1      3523.925          38.000  
C05  36644536.542 8 190817688.16824       420.921          31.000  
C10  32444519.944 2 168947108.970 1       496.265          38.000  
C13  34423958.817 2 179254518.354 1      1381.199          37.000  
G22  18942398.126 1  99543004.771 1      -519.085          43.000  
C12  22401269.859 8 116649246.843 3     -2082.861          30.000  
G21  20767552.905 2 109134212.847 1     -2611.518          37.000  
G14  16830442.509 1  88444624.910 1        72.750          41.000  
G28  17362446.495 1  91240274.065 1      1435.843          40.000  
G03  18319554.031 1  96269904.484 1      1338.612          42.000  
> 2021 08 05 00 39 08.9890000  0 26                     
C25  21673131.306 2 112857630.045 1     -2851.080          37.000  
G30  20693500.865 1 108745115.544 1     -2796.370          37.000  
C08  33394424.431 1 173893506.530 1      1013.636          39.000  
G17  17596144.086 1  92468362.943 1      1275.476          42.000  
C14  21880837.304 4 113939243.821 2      3350.438          33.000  
G01  18036903.832 1  94784600.376 1     -2416.658          40.000  
C21  21867437.579 2 113869436.473 1       606.366          38.000  
C28  20758237.435 1 108093510.000 1      2428.122          39.000  
C23  19782344.129 1 103011768.058 1      -916.372          40.000  
C03  34192614.771 2 178049883.733 1       440.857          38.000  
C01  34771887.174 1 181066310.385 1       392.316          38.000  
C02  34818746.086 4 181310316.50022       406.659          33.000  
C07  32558041.812 2 169538268.533 1        95.483          38.000  
C04  35596171.906 2 185358576.85521       397.943          34.000  
C11  18889577.623 1  98362933.418 1      -863.015          40.000  
G19  18567895.565 1  97574949.099 1      2665.230          41.000  
G06  20109024.231 1 105673683.154 1      3523.110          38.000  
C05  36644520.488 8 190817603.85724       421.172          31.000  
C10  32444500.836 1 168947009.829 1       495.831          38.000  
C13  34423905.733 2 179254242.151 1      1380.961          37.000  
G22  18942417.827 1  99543108.706 1      -519.630          43.000  
C12  22401349.309 8 116649663.422 3     -2082.931          30.000  
G21  20767652.249 2 109134735.180 1     -2611.329          37.000  
G14  16830439.839 1  88444610.409 1        72.327          41.000  
G28  17362391.928 1  91239987.005 1      1435.426          40.000  
G03  18319503.111 1  96269636.829 1      1338.572          42.000  
> 2021 08 05 00 39 09.1890000  0 26                     
C25  21673240.754 2 112858200.256 1     -2851.378          37.000  
G30  20693607.363 1 108745674.823 1     -2796.591          37.000  
C08  33394385.500 1 173893303.794 1      1013.790          39.000  
G17  17596095.505 1  92468107.881 1      1275.293          42.000  
C14  21880708.574 4 113938573.728 2      3350.486          33.000  
G01  18036995.830 1  94785083.802 1     -2416.904          40.000  
C21  21867414.300 1 113869315.149 1       606.900          38.000  
C28  20758144.251 1 108093024.393 1      2428.116          39.000  
C23  19782379.361 1 103011951.398 1      -916.629          40.000  
C03  34192597.810 2 178049795.496 1       441.433          38.000  
C01  34771872.149 1 181066231.935 1       392.505          38.000  
C02  34818730.503 4 181310235.09622       407.010          33.000  
C07  32558038.025 2 169538249.425 1        95.447          38.000  
C04  35596156.567 2 185358497.26721       397.992          34.000  
C11  18889610.709 1  98363106.042 1      -863.165          40.000  
G19  18567794.145 1  97574416.027 1      2665.211          41.000  
G06  20108890.179 1 105672978.433 1      3523.627          38.000  
C05  36644504.242 8 190817519.53224       421.693          30.000  
C10  32444481.693 2 168946910.662 1       495.691          38.000  
C13  34423852.667 2 179253965.982 1      1380.916          37.000  
G22  18942437.564 1  99543212.656 1      -519.895          43.000  
C12  22401428.917 8 116650079.998 3     -2082.944          30.000  
G21  20767751.524 2 109135257.521 1     -2611.663          37.000  
G14  16830437.100 1  88444595.918 1        72.393          41.000  
G28  17362337.379 1  91239699.946 1      1435.260          40.000  
G03  18319452.296 1  96269369.233 1      1338.183          42.000  
> 2021 08 05 00 39 09.3890000  0 26                     
C25  21673350.289 2 112858770.433 1     -2851.049          37.000  
G30  20693713.810 1 108746234.109 1     -2796.433          37.000  
C08  33394346.516 1 173893101.085 1      1013.203          39.000  
G17  17596046.976 1  92467852.807 1      1275.238          42.000  
C14  21880579.949 4 113937903.678 2      3350.254          34.000  
G01  18037087.775 1  94785567.232 1     -2417.169          40.000  
C21  21867391.022 2 113869193.872 1       606.260          38.000  
C28  20758050.997 1 108092538.828 1      2427.524          39.000  
C23  19782414.558 1 103012134.748 1      -916.954          40.000  
C03  34192580.918 2 178049707.301 1       440.919          38.000  
C01  34771857.089 1 181066153.488 1       392.445          38.000  
C02  34818714.885 4 181310154.72932       406.683          33.000  
C07  32558034.343 2 169538230.328 1        95.361          38.000  
C04  35596141.159 2 185358417.63021       397.809          34.000  
C11  18889643.951 1  98363278.675 1      -863.626          40.000  
G19  18567692.759 1  97573882.954 1      2665.255          41.000  
G06  20108756.109 1 105672273.768 1      3523.214          38.000  
C05  36644488.118 8 190817435.27623       421.086          30.000  
C10  32444462.672 1 168946811.498 1       495.709          38.000  
C13  34423799.583 2 179253689.797 1      1380.923          37.000  
G22  18942457.492 1  99543316.623 1      -520.129          43.000  
C12  22401506.658 8 116650496.550 3     -2082.928          30.000  
G21  20767850.938 2 109135779.862 1     -2611.893          37.000  
G14  16830434.465 1  88444581.460 1        71.902          41.000  
G28  17362282.759 1  91239412.913 1      1434.765          40.000  
G03  18319401.411 1  96269101.637 1      1337.787          42.000  
> 2021 08 05 00 39 09.5890000  0 26                     
C25  21673459.824 2 112859340.655 1     -2851.134          37.000  
G30  20693820.186 2 108746793.418 1     -2796.560          37.000  
C08  33394307.550 1 173892898.378 1      1013.269          39.000  
G17  17595998.429 1  92467597.740 1      1275.433          42.000  
C14  21880451.253 4 113937233.596 2      3350.014          34.000  
G01  18037179.755 1  94786050.677 1     -2417.162          40.000  
C21  21867367.883 1 113869072.600 1       606.221          38.000  
C28  20757957.708 1 108092053.210 1      2427.794          39.000  
C23  19782449.703 1 103012318.121 1      -916.968          40.000  
C03  34192563.886 2 178049619.100 1       440.850          38.000  
C01  34771841.960 2 181066075.052 1       392.151          38.000  
C02  34818699.320 4 181310073.33722       406.856          34.000  
C07  32558030.853 2 169538211.231 1        95.245          38.000  
C04  35596125.942 4 185358338.04022       397.723          34.000  
C11  18889677.002 1  98363451.297 1      -863.114          40.000  
G19  18567591.426 1  97573349.899 1      2665.365          41.000  
G06  20108622.109 1 105671569.104 1      3523.105          38.000  
C05  36644471.837 8 190817350.97023       421.321          30.000  
C10  32444443.512 1 168946712.365 1       495.776          38.000  
C13  34423746.500 2 179253413.622 1      1381.061          37.000  
G22  18942477.333 1  99543420.613 1      -520.027          43.000  
C12  22401588.936 8 116650913.128 3     -2082.513          30.000  
G21  20767950.369 2 109136302.181 1     -2611.575          37.000  
G14  16830431.655 1  88444567.010 1        72.086          41.000  
G28  17362228.210 1  91239125.884 1      1435.076          40.000  
G03  18319350.474 1  96268834.067 1      1337.929          42.000  
> 2021 08 05 00 39 09.7890000  0 26                     
C25  21673569.255 2 112859910.855 1     -2850.783          37.000  
G30  20693926.493 1 108747352.734 1     -2796.836          37.000  
C08  33394268.671 1 173892695.650 1      1013.881          39.000  
G17  17595949.918 1  92467342.700 1      1275.098          42.000  
C14  21880322.471 4 113936563.483 2      3350.818          33.000  
G01  18037271.648 1  94786534.123 1     -2417.162          40.000  
C21  21867344.569 2 113868951.341 1       606.167          38.000  
C28  20757864.472 1 108091567.607 1      2428.179          39.000  
C23  19782484.953 1 103012501.501 1      -916.927          40.000  
C03  34192547.012 2 178049530.915 1       440.694          38.000  
C01  34771826.813 2 181065996.593 1       392.491          38.000  
C02  34818683.580 4 181309991.96522       406.688          33.000  
C07  32558027.049 2 169538192.133 1        95.404          38.000  
C04  35596110.551 4 185358258.41822       398.029          34.000  
C11  18889710.087 1  98363623.923 1      -863.231          40.000  
G19  18567490.075 1  97572816.839 1      2665.410          41.000  
G06  20108487.969 2 105670864.450 1      3522.858          38.000  
C05  36644455.660 8 190817266.67324       422.146          30.000  
C10  32444424.491 1 168946613.214 1       495.551          38.000  
C13  34423693.434 2 179253137.460 1      1380.588          37.000  
G22  18942497.104 1  99543524.635 1      -520.036          43.000  
C12  22401670.865 8 116651329.698 3     -2082.830          30.000  
G21  20768049.818 2 109136824.520 1     -2611.640          38.000  
G14  16830428.846 1  88444552.600 1        71.965          41.000  
G28  17362173.539 1  91238838.870 1      1434.984          40.000  
G03  18319299.554 1  96268566.535 1      1337.754          42.000  
> 2021 08 05 00 39 09.9890000  0 26                     
C25  21673678.824 2 112860481.088 1     -2851.232          37.000  
G30  20694032.939 2 108747912.004 1     -2796.646          37.000  
C08  33394229.635 1 173892492.966 1      1013.343          39.000  
G17  17595901.406 1  92467087.659 1      1274.799          42.000  
C14  21880193.758 4 113935893.421 2      3350.408          34.000  
G01  18037363.645 1  94787017.610 1     -2417.555          40.000  
C21  21867321.343 2 113868830.110 1       605.861          38.000  
C28  20757771.165 1 108091082.032 1      2427.816          39.000  
C23  19782520.132 1 103012684.918 1      -917.264          40.000  
C03  34192529.981 2 178049442.673 1       441.242          38.000  
C01  34771811.632 2 181065918.158 1       392.033          38.000  
C02  34818667.840 4 181309909.54432       407.434          34.000  
C07  32558023.280 2 169538173.028 1        95.331          38.000  
C04  35596095.265 4 185358178.82522       398.163          34.000  
C11  18889743.208 1  98363796.555 1      -862.884          40.000  
G19  18567388.637 1  97572283.810 1      2665.020          41.000  
G06  20108353.846 2 105670159.780 1      3522.993          38.000  
C05  36644439.379 8 190817180.44034       420.733          31.000  
C10  32444405.418 1 168946514.068 1       495.825          38.000  
C13  34423640.437 2 179252861.272 1      1381.016          37.000  
G22  18942516.892 1  99543628.678 1      -520.480          43.000  
C12  22401752.270 8 116651746.239 3     -2082.992          30.000  
G21  20768149.284 2 109137346.873 1     -2612.450          38.000  
G14  16830426.141 1  88444538.201 1        71.958          41.000  
G28  17362118.937 1  91238551.881 1      1434.985          40.000  
G03  18319248.687 1  96268299.025 1      1337.354          42.000  
> 2021 08 05 00 39 10.1890000  0 26                     
C25  21673788.290 2 112861051.276 1     -2850.938          37.000  
G30  20694139.473 2 108748471.299 1     -2796.076          37.000  
C08  33394190.790 1 173892290.251 1      1013.452          39.000  
G17  17595852.877 1  92466832.600 1      1275.214          42.000  
C14  21880065.080 4 113935223.330 2      3351.291          34.000  
G01  18037455.643 1  94787501.075 1     -2417.224          40.000  
C21  21867298.047 1 113868708.871 1       606.228          38.000  
C28  20757677.807 1 108090596.445 1      2428.324          39.000  
C23  19782555.469 1 103012868.338 1      -917.038          40.000  
C03  34192513.071 2 178049354.463 1       441.158          38.000  
C01  34771796.590 2 181065839.691 1       392.443          38.000  
C02  34818652.274 4 181309828.17522       407.479          34.000  
C07  32558019.633 2 169538153.920 1        96.173          38.000  
C04  35596079.978 2 185358099.19921       398.138          34.000  
C11  18889776.433 1  98363969.203 1      -863.107          40.000  
G19  18567287.233 1  97571750.757 1      2665.210          41.000  
G06  20108219.794 1 105669455.114 1      3523.685          38.000  
C05  36644423.273 8 190817096.16524       421.160          30.000  
C10  32444386.502 1 168946414.911 1       495.856          38.000  
C13  34423587.371 2 179252585.098 1      1381.176          37.000  
G22  18942536.943 1  99543732.721 1      -519.958          43.000  
C12  22401828.859 8 116652162.822 3     -2082.067          30.000  
G21  20768248.663 2 109137869.148 1     -2611.151          38.000  
G14  16830423.384 1  88444523.817 1        72.092          41.000  
G28  17362064.353 1  91238264.918 1      1434.868          40.000  
G03  18319197.662 1  96268031.512 1      1337.747          42.000  
> 2021 08 05 00 39 10.3890000  0 26                     
C25  21673897.807 2 112861621.496 1     -2850.908          37.000  
G30  20694245.972 2 108749030.593 1     -2796.504          37.000  
C08  33394151.911 1 173892087.558 1      1013.531          39.000  
G17  17595804.313 1  92466577.561 1      1275.128          42.000  
C14  21879936.402 4 113934553.275 2      3350.538          34.000  
G01  18037547.675 1  94787984.569 1     -2417.828          40.000  
C21  21867274.925 2 113868587.668 1       606.111          38.000  
C28  20757584.535 1 108090110.867 1      2427.782          39.000  
C23  19782590.753 1 103013051.794 1      -917.625          40.000  
C03  34192496.127 2 178049266.239 1       441.280          38.000  
C01  34771781.513 2 181065761.244 1       392.166          38.000  
C02  34818636.761 4 181309746.78822       407.068          34.000  
C07  32558016.056 2 169538134.832 1        95.703          38.000  
C04  35596064.692 2 185358019.57721       398.114          34.000  
C11  18889809.589 1  98364141.851 1      -863.417          40.000  
G19  18567185.760 1  97571217.701 1      2665.572          41.000  
G06  20108085.619 1 105668750.489 1      3523.089          38.000  
C05  36644407.131 8 190817011.81323       421.446          30.000  
C10  32444367.412 1 168946315.770 1       495.825          38.000  
C13  34423534.270 2 179252308.940 1      1380.935          37.000  
G22  18942556.679 1  99543836.817 1      -520.446          43.000  
C12  22401907.542 8 116652579.355 3     -2082.723          30.000  
G21  20768348.077 2 109138391.511 1     -2611.861          37.000  
G14  16830420.574 1  88444509.477 1        71.741          41.000  
G28  17362009.821 1  91237977.940 1      1434.975          40.000  
G03  18319146.655 1  96267764.054 1      1337.207          42.000  
