     3.03           OBSERVATION DATA    M                   RINEX VERSION / TYPE
JPS2RIN v.2.0.112   JAVAD GNSS          20150911 051123 UTC PGM / RUN BY / DATE
Kai Borre           SSAU                                    OBSERVER / AGENCY
log_m_2015_09_03_07.45.26                                   MARKER NAME
1QCCGLDYFE1PY0QYWF01JAVAD TRE_3         3.6.0b0 Apr,08,2014 REC # / TYPE / VERS
  2451421.3763  2939955.4494  5084823.3251                  APPROX POSITION XYZ
-Unknown-           -Unknown-                               ANT # / TYPE
        0.0000        0.0000        0.0000                  ANTENNA: DELTA H/E/N
G   20 C1C L1C D1C S1C C1W L1W D1W S1W C2X L2X D2X S2X C2W  SYS / # / OBS TYPES
       L2W D2W S2W C5X L5X D5X S5X                          SYS / # / OBS TYPES
     1.000                                                  INTERVAL
  2015     9     3     7    45   26.0000000     GPS         TIME OF FIRST OBS
  2015     9     3     7    59   59.0000000     GPS         TIME OF LAST OBS
    17                                                      LEAP SECONDS
G L1C  0.00000  08 G02 G05 G06 G12 G24 G25 G29 G31          SYS / PHASE SHIFT
G L1W -0.25000  08 G02 G05 G06 G12 G24 G25 G29 G31          SYS / PHASE SHIFT
G L2X  0.25000  07 G05 G06 G12 G24 G25 G29 G31              SYS / PHASE SHIFT
G L2W  0.00000  08 G02 G05 G06 G12 G24 G25 G29 G31          SYS / PHASE SHIFT
G L5X  0.00000  03 G06 G24 G25                              SYS / PHASE SHIFT
     8                                                      # OF SATELLITES
   G02   874   874   874   874   874   874   874   874     0PRN / # OF OBS
           0     0     0   874   874   874   874     0     0PRN / # OF OBS
           0     0                                          PRN / # OF OBS
   G05   874   874   874   874   874   874   874   874   874PRN / # OF OBS
         874   874   874   874   874   874   874     0     0PRN / # OF OBS
           0     0                                          PRN / # OF OBS
   G06   874   874   874   874   874   874   874   874   874PRN / # OF OBS
         874   874   874   874   874   874   874   874   874PRN / # OF OBS
         874   874                                          PRN / # OF OBS
   G12   874   874   874   874   874   874   874   874   874PRN / # OF OBS
         874   874   874   874   874   874   874     0     0PRN / # OF OBS
           0     0                                          PRN / # OF OBS
   G24   874   874   874   874   874   874   874   874   874PRN / # OF OBS
         874   874   874   874   874   874   874   874   874PRN / # OF OBS
         874   874                                          PRN / # OF OBS
   G25   874   874   874   874   874   874   874   874   874PRN / # OF OBS
         874   874   874   874   874   874   874   874   874PRN / # OF OBS
         874   874                                          PRN / # OF OBS
   G29   874   874   874   874   874   874   874   874   874PRN / # OF OBS
         874   874   874   874   874   874   874     0     0PRN / # OF OBS
           0     0                                          PRN / # OF OBS
   G31   874   874   874   874   874   874   874   874   874PRN / # OF OBS
         874   874   874   874   874   874   874     0     0PRN / # OF OBS
           0     0                                          PRN / # OF OBS
                                                            END OF HEADER
> 2015 09 03 07 45 26.0000000  0  8      -0.000125551060
G02  20734406.264   108960039.017 8       -64.091          50.500    20734405.544   108960039.017 7       -64.091          45.250                                                                    20734401.854    84903926.112 7       -49.957          45.250
G05  24355160.043   127987228.441 7      3512.207          44.250    24355160.483   127987228.443 5      3512.207          32.500    24355162.033    99730309.065 7      2736.750          42.000    24355162.113    99730308.060 5      2736.729          32.500
G06  21968700.491   115446298.210 8     -2394.171          50.500    21968700.841   115446298.207 6     -2394.171          41.500    21968703.091    89958154.471 8     -1865.576          48.750    21968702.701    89958155.468 6     -1865.552          41.500    21968702.601    86209898.344 9     -1787.845          54.750
G31  23644527.045   124252828.893 8      2065.519          49.000    23644527.195   124252826.888 6      2065.519          39.250    23644526.515    96820386.915 7      1609.536          46.250    23644526.365    96820384.914 6      1609.537          39.250
G24  24587911.073   129210344.683 6     -3656.554          39.250    24587911.803   129210341.674 4     -3656.554          27.000    24587914.973   100683384.357 7     -2849.292          42.750    24587916.073   100683383.370 4     -2849.296          27.000    24587916.103    96488243.962 8     -2730.564          50.750
G25  20655921.006   108547597.026 8      1417.748          53.500    20655920.636   108547598.027 7      1417.748          46.000    20655922.276    84582543.453 8      1104.747          52.750    20655922.406    84582543.453 7      1104.744          46.000    20655921.666    81058270.618 9      1058.718          58.500
G12  20340652.350   106890849.064 8     -1309.303          53.750    20340652.400   106890849.060 7     -1309.303          46.750    20340650.210    83291570.667 8     -1020.226          51.250    20340650.090    83291570.668 7     -1020.222          46.750
G29  22467350.329   118066725.009 8      2952.504          48.250    22467350.449   118066724.007 6      2952.504          41.250    22467349.559    92000045.734 7      2300.668          47.000    22467349.359    92000044.742 6      2300.674          41.250
> 2015 09 03 07 45 27.0000000  0  8      -0.000125577200
G02  20734418.490   108960103.377 8       -64.624          50.500    20734417.820   108960103.372 7       -64.624          45.000                                                                    20734414.180    84903976.259 7       -50.357          45.000
G05  24354491.481   127983716.323 7      3512.107          44.000    24354492.181   127983716.322 5      3512.107          32.250    24354494.141    99727572.355 7      2736.666          42.000    24354493.411    99727571.352 5      2736.668          32.250
G06  21969155.990   115448692.624 8     -2394.579          50.500    21969156.430   115448692.621 6     -2394.579          41.500    21969158.750    89960020.248 8     -1865.931          48.750    21969158.280    89960021.244 6     -1865.945          41.500    21969158.310    86211686.378 9     -1788.172          54.750
G31  23644134.107   124250763.639 8      2065.021          49.000    23644134.127   124250761.641 6      2065.021          39.250    23644133.737    96818777.626 7      1609.085          46.250    23644133.497    96818775.625 6      1609.058          39.250
G24  24588606.904   129214001.334 6     -3656.545          39.000    24588607.634   129213998.329 4     -3656.545          26.250    24588610.494   100686233.704 7     -2849.310          42.500    24588611.414   100686232.702 4     -2849.307          26.250    24588612.074    96490974.576 8     -2730.585          50.750
G25  20655651.331   108546179.520 8      1417.261          53.500    20655650.811   108546180.517 7      1417.261          46.000    20655652.591    84581438.901 8      1104.323          52.750    20655652.481    84581438.901 7      1104.322          46.000    20655651.901    81057212.090 9      1058.314          58.500
G12  20340901.520   106892158.626 8     -1309.818          53.750    20340901.710   106892158.621 7     -1309.818          47.000    20340899.360    83292591.102 8     -1020.651          51.250    20340899.180    83292591.102 7     -1020.655          47.000
G29  22466788.299   118063772.618 8      2952.354          48.500    22466788.509   118063771.617 6      2952.354          41.500    22466787.569    91997745.166 7      2300.512          47.000    22466787.449    91997744.176 6      2300.503          41.500
> 2015 09 03 07 45 28.0000000  0  8      -0.000125603251
G02  20734430.652   108960168.401 8       -65.320          50.500    20734430.272   108960168.398 7       -65.320          45.000                                                                    20734426.482    84904026.930 7       -50.914          45.000
G05  24353823.448   127980204.452 7      3511.783          44.250    24353823.998   127980204.446 5      3511.783          32.250    24353825.158    99724835.831 7      2736.476          42.000    24353825.348    99724834.825 5      2736.545          32.250
G06  21969611.779   115451087.613 8     -2395.222          50.500    21969612.269   115451087.610 6     -2395.222          41.500    21969614.319    89961886.471 8     -1866.409          49.000    21969614.229    89961887.466 6     -1866.393          41.500    21969614.039    86213474.843 9     -1788.632          54.750
G31  23643741.396   124248699.030 8      2064.323          49.250    23643741.356   124248697.031 6      2064.323          39.250    23643740.606    96817168.839 7      1608.567          46.250    23643740.376    96817166.846 6      1608.545          39.250
G24  24589302.650   129217658.162 6     -3656.987          39.000    24589303.500   129217655.150 4     -3656.987          26.250    24589305.780   100689083.174 7     -2849.531          42.500    24589306.970   100689082.157 4     -2849.502          26.250    24589307.870    96493705.317 8     -2730.807          51.000
G25  20655381.815   108544762.671 8      1416.644          53.500    20655381.265   108544763.664 7      1416.644          46.000    20655382.925    84580334.859 8      1103.876          52.750    20655382.935    84580334.858 7      1103.880          46.000    20655382.275    81056154.049 9      1057.875          58.500
G12  20341150.878   106893468.865 9     -1310.543          54.000    20341151.018   106893468.862 7     -1310.543          47.000    20341148.748    83293612.068 8     -1021.210          51.250    20341148.588    83293612.069 7     -1021.209          47.000
G29  22466226.557   118060820.564 8      2951.938          48.500    22466226.777   118060819.555 6      2951.938          41.250    22466226.047    91995444.868 7      2300.218          47.000    22466225.707    91995443.873 6      2300.252          41.250
> 2015 09 03 07 45 29.0000000  0  8      -0.000125629278
G02  20734443.055   108960234.002 8       -66.136          50.250    20734442.595   108960233.996 7       -66.136          45.250                                                                    20734438.975    84904078.046 7       -51.542          45.250
G05  24353155.163   127976692.722 7      3511.416          44.000    24353155.373   127976692.720 5      3511.416          32.250    24353157.323    99722099.424 7      2736.175          42.000    24353157.033    99722098.434 5      2736.140          32.250
G06  21970067.776   115453483.079 8     -2395.944          50.500    21970067.906   115453483.076 6     -2395.944          41.500    21970070.496    89963753.065 8     -1866.977          49.000    21970069.826    89963754.066 6     -1866.972          41.500    21970069.896    86215263.665 9     -1789.191          55.000
G31  23643348.291   124246634.979 8      2063.525          49.250    23643348.411   124246632.974 6      2063.525          39.250    23643347.831    96815560.490 7      1607.961          46.000    23643347.641    96815558.488 6      1607.967          39.250
G24  24589999.038   129221315.043 6     -3657.198          39.000    24589999.388   129221312.026 4     -3657.198          26.250    24590002.658   100691932.689 7     -2849.812          42.500    24590002.788   100691931.681 4     -2849.767          26.250    24590003.818    96496436.096 8     -2731.066          50.750
G25  20655112.271   108543346.408 8      1415.748          53.500    20655111.691   108543347.406 7      1415.748          45.750    20655113.471    84579231.279 8      1103.165          52.750    20655113.401    84579231.279 7      1103.170          45.750    20655112.791    81055096.453 9      1057.208          58.500
G12  20341400.396   106894779.691 9     -1311.391          54.000    20341400.446   106894779.684 7     -1311.391          47.000    20341398.236    83294633.487 8     -1021.844          51.250    20341398.026    83294633.489 7     -1021.847          47.000
G29  22465664.980   118057868.778 8      2951.436          48.250    22465665.110   118057867.767 6      2951.436          41.250    22465664.440    91993144.773 7      2299.784          47.000    22465663.960    91993143.785 6      2299.776          41.250
> 2015 09 03 07 45 30.0000000  0  8      -0.000125655234
G02  20734455.604   108960300.250 8       -66.706          50.250    20734455.174   108960300.246 7       -66.706          45.250                                                                    20734451.474    84904129.669 7       -51.994          45.250
G05  24352487.006   127973181.232 7      3511.265          43.750    24352486.966   127973181.235 5      3511.265          32.250    24352489.266    99719363.211 7      2736.038          42.000    24352488.656    99719362.213 5      2736.003          32.250
G06  21970523.328   115455879.101 8     -2396.397          50.250    21970524.028   115455879.097 6     -2396.397          41.750    21970526.218    89965620.089 8     -1867.349          48.750    21970525.898    89965621.091 6     -1867.355          41.750    21970525.918    86217052.898 9     -1789.547          55.000
G31  23642956.015   124244571.576 8      2062.969          49.250    23642956.165   124244569.565 6      2062.969          39.000    23642955.275    96813952.640 7      1607.513          46.000    23642955.175    96813950.643 6      1607.495          39.000
G24  24590695.024   129224972.055 6     -3657.151          39.500    24590695.334   129224969.041 4     -3657.151          26.750    24590698.974   100694782.308 7     -2849.805          42.750    24590699.324   100694781.289 4     -2849.803          26.750    24590699.574    96499166.976 8     -2731.061          51.000
G25  20654842.803   108541930.780 8      1415.192          53.500    20654842.413   108541931.775 7      1415.192          46.000    20654843.943    84578128.192 8      1102.744          52.750    20654844.093    84578128.195 7      1102.746          46.000    20654843.403    81054039.329 9      1056.803          58.500
G12  20341649.949   106896091.179 8     -1311.948          53.750    20341650.079   106896091.171 7     -1311.948          47.000    20341647.589    83295655.426 8     -1022.293          51.250    20341647.639    83295655.427 7     -1022.291          47.000
G29  22465103.445   118054917.309 8      2951.231          48.250    22465103.445   118054916.302 6      2951.231          41.500    22465102.975    91990844.930 7      2299.651          47.250    22465102.255    91990843.937 6      2299.641          41.500
> 2015 09 03 07 45 31.0000000  0  8      -0.000125681082
G02  20734468.351   108960367.230 8       -67.474          50.500    20734468.031   108960367.228 7       -67.474          45.000                                                                    20734464.351    84904181.862 7       -52.552          45.000
G05  24351818.658   127969670.049 7      3510.878          44.000    24351818.918   127969670.045 5      3510.878          32.500    24351821.288    99716627.232 7      2735.728          42.000    24351820.788    99716626.234 5      2735.729          32.500
G06  21970979.732   115458275.763 8     -2397.141          50.250    21970979.992   115458275.760 6     -2397.141          41.750    21970981.952    89967487.619 8     -1867.936          48.750    21970982.012    89967488.619 6     -1867.931          41.750    21970981.942    86218842.613 9     -1790.103          55.000
G31  23642562.930   124242508.876 8      2062.236          49.000    23642563.270   124242506.866 6      2062.236          39.000    23642562.530    96812345.342 7      1606.991          46.000    23642562.680    96812343.334 6      1606.990          39.000
G24  24591390.659   129228629.296 6     -3657.482          39.750    24591390.849   129228626.274 4     -3657.482          26.500    24591394.179   100697632.100 7     -2850.075          43.000    24591394.329   100697631.095 4     -2850.050          26.500    24591395.469    96501898.026 8     -2731.323          51.000
G25  20654573.391   108540515.879 8      1414.401          53.500    20654573.151   108540516.875 7      1414.401          46.000    20654574.821    84577025.670 8      1102.161          52.750    20654574.671    84577025.674 7      1102.150          46.000    20654574.151    81052982.747 9      1056.229          58.500
G12  20341899.709   106897403.406 8     -1312.726          53.750    20341899.739   106897403.399 7     -1312.726          47.000    20341897.329    83296677.944 8     -1022.907          51.000    20341897.339    83296677.943 7     -1022.891          47.000
G29  22464541.894   118051966.261 8      2950.718          48.250    22464541.884   118051965.248 6      2950.718          41.500    22464541.284    91988545.413 7      2299.269          47.000    22464540.724    91988544.420 6      2299.278          41.500
> 2015 09 03 07 45 32.0000000  0  8      -0.000125706809
G02  20734481.329   108960434.961 8       -68.003          50.500    20734480.849   108960434.956 7       -68.003          45.000                                                                    20734477.129    84904234.643 7       -53.006          45.000
G05  24351150.870   127966159.166 7      3510.833          43.500    24351151.050   127966159.165 5      3510.833          32.500    24351153.150    99713891.485 7      2735.747          42.000    24351153.120    99713890.479 5      2735.780          32.500
G06  21971435.783   115460673.056 8     -2397.471          50.250    21971436.203   115460673.055 6     -2397.471          41.750    21971438.203    89969355.641 8     -1868.216          48.750    21971438.183    89969356.637 6     -1868.206          41.750    21971438.193    86220632.798 9     -1790.363          54.750
G31  23642170.553   124240446.907 8      2061.729          48.500    23642170.703   124240444.895 6      2061.729          39.000    23642170.083    96810738.613 7      1606.548          46.000    23642170.233    96810736.613 6      1606.519          39.000
G24  24592086.697   129232286.744 6     -3657.391          39.500    24592087.037   129232283.740 4     -3657.391          27.000    24592090.407   100700482.059 7     -2849.984          42.750    24592090.577   100700481.056 4     -2850.026          27.000    24592091.537    96504629.233 8     -2731.230          50.750
G25  20654304.286   108539101.719 8      1413.960          53.500    20654304.026   108539102.715 7      1413.960          45.750    20654305.726    84575923.729 8      1101.769          52.750    20654305.676    84575923.733 7      1101.759          45.750    20654305.066    81051926.719 9      1055.857          58.500
G12  20342149.601   106898716.383 8     -1313.210          53.750    20342149.691   106898716.375 7     -1313.210          47.000    20342147.171    83297701.040 8     -1023.311          51.000    20342147.111    83297701.040 7     -1023.311          47.000
G29  22463980.338   118049015.621 8      2950.634          48.500    22463980.408   118049014.617 6      2950.634          41.500    22463979.758    91986246.212 7      2299.177          47.250    22463979.288    91986245.219 6      2299.161          41.500
> 2015 09 03 07 45 33.0000000  0  8      -0.000125732541
G02  20734494.190   108960503.239 8       -68.746          50.250    20734493.900   108960503.232 7       -68.746          45.000                                                                    20734490.210    84904287.843 7       -53.599          45.000
G05  24350482.753   127962648.441 7      3510.433          43.750    24350482.363   127962648.440 5      3510.433          32.500    24350484.583    99711155.854 7      2735.436          42.250    24350484.763    99711154.864 5      2735.433          32.500
G06  21971891.956   115463070.812 8     -2398.181          50.250    21971892.556   115463070.809 6     -2398.181          41.500    21971894.626    89971224.022 8     -1868.737          48.750    21971894.396    89971225.019 6     -1868.732          41.500    21971894.386    86222423.329 9     -1790.863          54.750
G31  23641778.298   124238385.482 8      2060.954          48.250    23641778.688   124238383.472 6      2060.954          39.000    23641778.018    96809132.308 7      1605.900          45.750    23641777.858    96809130.302 6      1605.929          39.000
G24  24592782.833   129235944.239 6     -3657.575          39.750    24592782.713   129235941.230 4     -3657.575          26.500    24592786.523   100703332.066 7     -2850.125          42.500    24592787.033   100703331.043 4     -2850.070          26.500    24592787.463    96507360.477 8     -2731.350          50.750
G25  20654035.249   108537688.117 8      1413.161          53.250    20654035.139   108537689.115 7      1413.161          45.750    20654036.729    84574822.222 8      1101.145          52.750    20654036.669    84574822.223 7      1101.152          45.750    20654036.069    81050871.109 9      1055.266          58.500
G12  20342399.580   106900029.928 8     -1314.028          53.750    20342399.520   106900029.922 7     -1314.028          46.750    20342397.030    83298724.583 8     -1023.935          51.000    20342397.030    83298724.582 7     -1023.924          46.750
G29  22463418.707   118046065.223 8      2950.158          48.250    22463418.917   118046064.207 6      2950.158          41.500    22463418.327    91983947.200 7      2298.820          47.000    22463417.787    91983946.206 6      2298.828          41.500
> 2015 09 03 07 45 34.0000000  0  8      -0.000125758247
G02  20734507.432   108960572.094 8       -69.076          50.250    20734507.052   108960572.092 7       -69.076          45.000                                                                    20734503.302    84904341.497 7       -53.813          45.000
G05  24349814.827   127959137.858 7      3510.644          44.000    24349814.747   127959137.864 5      3510.644          32.250    24349816.417    99708420.337 7      2735.586          42.250    24349816.177    99708419.343 5      2735.580          32.250
G06  21972348.267   115465469.052 8     -2398.365          50.000    21972348.787   115465469.044 6     -2398.365          41.500    21972350.887    89973092.778 8     -1868.875          48.500    21972350.737    89973093.773 6     -1868.887          41.500    21972350.867    86224214.221 9     -1791.023          54.750
G31  23641386.257   124236324.600 8      2060.707          48.000    23641386.467   124236322.596 6      2060.707          39.000    23641385.547    96807526.428 7      1605.750          46.000    23641385.877    96807524.434 6      1605.708          39.000
G24  24593478.702   129239601.840 6     -3657.476          39.500    24593478.272   129239598.835 4     -3657.476          27.000    24593482.882   100706182.138 7     -2849.962          42.750    24593483.062   100706181.129 4     -2849.989          27.000    24593483.432    96510091.795 8     -2731.232          50.750
G25  20653766.500   108536275.080 8      1412.871          53.250    20653766.100   108536276.078 7      1412.871          45.750    20653767.790    84573721.156 8      1100.921          52.750    20653767.760    84573721.156 7      1100.928          45.750    20653767.190    81049815.920 9      1055.051          58.500
G12  20342649.547   106901344.058 8     -1314.325          53.750    20342649.597   106901344.054 7     -1314.325          46.750    20342647.397    83299748.581 8     -1024.165          51.250    20342647.207    83299748.579 7     -1024.167          46.750
G29  22462857.531   118043115.080 8      2950.125          48.500    22462857.611   118043114.069 6      2950.125          41.500    22462856.861    91981648.393 7      2298.793          47.000    22462856.521    91981647.396 6      2298.800          41.500
> 2015 09 03 07 45 35.0000000  0  8      -0.000125783918
G02  20734520.710   108960641.550 8       -69.755          50.250    20734520.240   108960641.541 7       -69.755          45.000                                                                    20734516.440    84904395.617 7       -54.344          45.000
G05  24349146.733   127955627.464 7      3510.276          44.250    24349146.993   127955627.461 5      3510.276          32.750    24349149.123    99705684.975 7      2735.279          42.250    24349148.453    99705683.984 5      2735.280          32.750
G06  21972804.806   115467867.793 8     -2399.012          49.750    21972805.286   115467867.791 6     -2399.012          41.500    21972807.366    89974961.920 8     -1869.341          48.750    21972807.296    89974962.919 6     -1869.347          41.500    21972807.276    86226005.486 9     -1791.467          54.750
G31  23640993.948   124234264.321 7      2059.979          47.750    23640994.188   124234262.310 6      2059.979          39.000    23640993.818    96805921.017 7      1605.169          46.000    23640993.508    96805919.016 6      1605.165          39.000
G24  24594174.691   129243259.527 6     -3657.711          39.750    24594174.761   129243256.510 4     -3657.711          26.750    24594179.111   100709032.286 7     -2850.138          42.750    24594178.701   100709031.265 4     -2850.105          26.750    24594179.451    96512823.184 8     -2731.372          50.750
G25  20653497.667   108534862.646 8      1412.142          53.500    20653497.257   108534863.644 7      1412.142          46.000    20653498.877    84572620.559 8      1100.385          52.750    20653498.957    84572620.560 7      1100.382          46.000    20653498.387    81048761.179 9      1054.536          58.500
G12  20342899.727   106902658.801 8     -1315.078          53.750    20342899.767   106902658.796 7     -1315.078          46.750    20342897.657    83300773.054 8     -1024.734          51.250    20342897.387    83300773.055 7     -1024.750          46.750
G29  22462296.122   118040165.221 8      2949.648          48.500    22462296.192   118040164.220 6      2949.648          41.500    22462295.312    91979349.799 7      2298.446          47.000    22462295.042    91979348.813 6      2298.436          41.500
> 2015 09 03 07 45 36.0000000  0  8      -0.000125809508
G02  20734534.015   108960711.665 8       -70.518          50.250    20734533.465   108960711.660 7       -70.518          45.000                                                                    20734529.755    84904450.255 7       -54.970          45.000
G05  24348478.475   127952117.285 7      3510.000          44.000    24348478.985   127952117.287 5      3510.000          32.750    24348480.305    99702949.777 7      2735.038          42.500    24348480.575    99702948.780 5      2735.057          32.750
G06  21973261.336   115470267.090 8     -2399.662          50.000    21973261.836   115470267.087 6     -2399.662          41.500    21973264.206    89976831.505 8     -1869.877          48.750    21973263.886    89976832.502 6     -1869.884          41.500    21973263.876    86227797.167 9     -1791.967          54.750
G31  23640602.063   124232204.664 7      2059.230          47.750    23640602.593   124232202.663 6      2059.230          38.750    23640601.963    96804316.090 7      1604.622          46.000    23640601.823    96804314.094 6      1604.619          38.750
G24  24594870.902   129246917.377 6     -3658.038          39.500    24594871.272   129246914.373 4     -3658.038          26.500    24594875.022   100711882.554 7     -2850.419          43.000    24594874.752   100711881.529 4     -2850.411          26.500    24594875.522    96515554.691 8     -2731.660          50.500
G25  20653228.972   108533450.861 8      1411.408          53.250    20653228.672   108533451.857 7      1411.408          46.000    20653230.312    84571520.465 8      1099.805          52.750    20653230.322    84571520.467 7      1099.801          46.000    20653229.732    81047706.924 9      1053.981          58.500
G12  20343150.023   106903974.210 8     -1315.842          53.750    20343150.113   106903974.202 7     -1315.842          46.750    20343147.913    83301798.044 8     -1025.325          51.250    20343147.603    83301798.045 7     -1025.325          46.750
G29  22461734.928   118037215.689 8      2949.263          48.250    22461734.868   118037214.678 6      2949.263          41.500    22461734.348    91977051.465 7      2298.159          47.000    22461733.878    91977050.472 6      2298.169          41.500
> 2015 09 03 07 45 37.0000000  0  8      -0.000125835050
G02  20734547.499   108960782.405 8       -70.828          50.500    20734547.029   108960782.398 7       -70.828          45.000                                                                    20734543.359    84904505.374 7       -55.183          45.000
G05  24347810.846   127948607.307 7      3510.162          44.250    24347810.956   127948607.318 5      3510.162          32.500    24347812.746    99700214.736 7      2735.177          42.500    24347812.706    99700213.749 5      2735.159          32.500
G06  21973718.010   115472666.921 8     -2399.910          50.250    21973718.390   115472666.910 6     -2399.910          41.500    21973721.010    89978701.503 8     -1870.067          48.750    21973720.510    89978702.496 6     -1870.058          41.500    21973720.490    86229589.244 9     -1792.139          54.750
G31  23640209.892   124230145.625 7      2059.006          47.500    23640210.172   124230143.628 6      2059.006          39.000    23640210.152    96802711.647 7      1604.434          46.000    23640209.922    96802709.644 6      1604.427          39.000
G24  24595567.263   129250575.328 6     -3657.727          39.750    24595567.493   129250572.316 4     -3657.727          27.250    24595571.313   100714732.891 7     -2850.277          43.250    24595570.413   100714731.884 4     -2850.262          27.250    24595571.643    96518286.269 8     -2731.519          50.500
G25  20652960.589   108532039.701 8      1411.109          53.250    20652960.209   108532040.699 7      1411.109          46.000    20652961.969    84570420.861 8      1099.558          52.750    20652961.779    84570420.862 7      1099.553          46.000    20652961.199    81046653.137 9      1053.745          58.500
G12  20343400.485   106905290.257 8     -1316.136          53.750    20343400.545   106905290.251 7     -1316.136          46.750    20343398.235    83302823.534 8     -1025.568          51.250    20343398.045    83302823.537 7     -1025.571          46.750
G29  22461173.858   118034266.464 8      2949.280          48.500    22461173.788   118034265.463 6      2949.280          41.500    22461172.828    91974753.370 7      2298.172          47.250    22461172.798    91974752.385 6      2298.170          41.500
> 2015 09 03 07 45 38.0000000  0  8      -0.000125860574
G02  20734561.113   108960853.709 8       -71.895          50.250    20734560.623   108960853.708 7       -71.895          45.000                                                                    20734556.803    84904560.936 7       -56.037          45.000
G05  24347142.954   127945097.479 7      3509.424          44.250    24347143.414   127945097.484 5      3509.424          32.250    24347145.424    99697479.810 7      2734.646          42.500    24347144.584    99697478.808 5      2734.730          32.250
G06  21974174.731   115475067.203 8     -2400.823          50.250    21974175.311   115475067.198 6     -2400.823          41.750    21974177.511    89980571.850 8     -1870.740          49.000    21974177.401    89980572.845 6     -1870.742          41.750    21974177.271    86231381.660 9     -1792.794          54.750
G31  23639818.276   124228087.132 7      2057.952          47.500    23639818.316   124228085.133 6      2057.952          38.750    23639818.436    96801107.629 7      1603.607          46.000    23639818.416    96801105.633 6      1603.588          38.750
G24  24596263.051   129254233.315 6     -3658.252          40.000    24596263.731   129254230.303 4     -3658.252          27.750    24596267.331   100717583.269 7     -2850.595          43.250    24596266.851   100717582.268 4     -2850.623          27.750    24596267.661    96521017.885 8     -2731.842          50.500
G25  20652691.966   108530629.102 8      1410.047          53.250    20652691.786   108530630.098 7      1410.047          46.000    20652693.266    84569321.695 8      1098.722          52.750    20652693.306    84569321.693 7      1098.729          46.000    20652692.836    81045599.767 9      1052.939          58.500
G12  20343651.240   106906606.868 8     -1317.204          53.750    20343651.080   106906606.864 7     -1317.204          46.750    20343648.830    83303849.468 8     -1026.391          51.250    20343648.660    83303849.468 7     -1026.396          46.750
G29  22460612.652   118031317.483 8      2948.503          48.250    22460612.482   118031316.479 6      2948.503          41.750    22460611.972    91972455.461 7      2297.605          47.250    22460611.562    91972454.472 6      2297.605          41.750
> 2015 09 03 07 45 39.0000000  0  8      -0.000125885946
G02  20734574.877   108960925.801 8       -72.460          50.250    20734574.327   108960925.798 7       -72.460          45.250                                                                    20734570.667    84904617.115 7       -56.470          45.250
G05  24346474.890   127941588.008 7      3509.343          44.000    24346475.350   127941587.999 5      3509.343          32.250    24346476.900    99694745.156 7      2734.556          42.500    24346476.650    99694744.170 5      2734.527          32.250
G06  21974631.633   115477468.192 8     -2401.304          50.250    21974632.443   115477468.184 6     -2401.304          41.500    21974634.653    89982442.751 8     -1871.166          48.750    21974634.283    89982443.743 6     -1871.148          41.500    21974634.153    86233174.606 9     -1793.191          54.750
G31  23639426.583   124226029.425 7      2057.334          47.750    23639426.923   124226027.427 6      2057.334          38.750    23639426.863    96799504.222 7      1603.141          46.000    23639426.683    96799502.223 6      1603.144          38.750
G24  24596960.003   129257891.610 6     -3658.383          40.000    24596959.423   129257888.595 4     -3658.383          27.500    24596963.223   100720433.886 7     -2850.692          43.250    24596963.023   100720432.874 4     -2850.639          27.500    24596963.673    96523749.719 8     -2731.898          50.500
G25  20652423.670   108529219.288 8      1409.485          53.250    20652423.420   108529220.283 7      1409.485          46.250    20652425.100    84568223.135 8      1098.314          52.750    20652425.030    84568223.136 7      1098.322          46.250    20652424.520    81044546.983 9      1052.558          58.500
G12  20343901.885   106907924.292 8     -1317.800          53.750    20343901.805   106907924.289 7     -1317.800          46.750    20343899.305    83304876.033 8     -1026.887          51.250    20343899.335    83304876.033 7     -1026.894          46.750
G29  22460051.570   118028368.969 8      2948.363          48.250    22460051.440   118028367.973 6      2948.363          41.500    22460050.650    91970157.923 7      2297.424          47.250    22460050.450    91970156.935 6      2297.421          41.500
> 2015 09 03 07 45 40.0000000  0  8      -0.000125911230
G02  20734588.856   108960998.601 8       -73.162          50.500    20734588.106   108960998.599 7       -73.162          45.000                                                                    20734584.406    84904673.841 7       -57.021          45.000
G05  24345806.842   127938078.811 7      3509.101          43.750    24345807.242   127938078.803 5      3509.101          32.500    24345809.352    99692010.728 7      2734.338          42.500    24345808.982    99692009.726 5      2734.365          32.500
G06  21975088.697   115479869.778 8     -2401.879          50.500    21975089.397   115479869.772 6     -2401.879          41.500    21975091.517    89984314.114 8     -1871.610          48.750    21975091.207    89984315.108 6     -1871.619          41.500    21975091.157    86234967.995 9     -1793.620          54.750
G31  23639035.272   124223972.400 7      2056.708          47.750    23639035.252   124223970.393 6      2056.708          38.500    23639035.312    96797901.345 7      1602.657          46.000    23639035.062    96797899.351 6      1602.639          38.500
G24  24597655.797   129261550.080 6     -3658.602          40.500    24597656.257   129261547.075 4     -3658.602          27.750    24597659.517   100723284.640 7     -2850.820          43.250    24597658.877   100723283.630 4     -2850.843          27.750    24597659.917    96526481.690 8     -2732.051          50.250
G25  20652155.352   108527810.174 8      1408.794          53.250    20652155.362   108527811.171 7      1408.794          46.000    20652156.942    84567125.127 8      1097.757          52.750    20652157.052    84567125.127 7      1097.773          46.000    20652156.402    81043494.724 9      1052.018          58.500
G12  20344152.508   106909242.419 8     -1318.448          53.750    20344152.638   106909242.415 7     -1318.448          46.750    20344150.458    83305903.146 8     -1027.367          51.250    20344150.118    83305903.147 7     -1027.373          46.750
G29  22459490.086   118025420.843 8      2948.002          48.250    22459490.336   118025419.849 6      2948.002          41.500    22459489.676    91967860.684 7      2297.096          47.250    22459489.466    91967859.699 6      2297.099          41.500
> 2015 09 03 07 45 41.0000000  0  8      -0.000125936490
G02  20734602.967   108961071.974 8       -73.676          50.500    20734602.097   108961071.969 7       -73.676          45.250                                                                    20734598.427    84904731.015 7       -57.382          45.250
G05  24345139.264   127934569.763 7      3508.995          43.750    24345140.064   127934569.759 5      3508.995          32.500    24345141.704    99689276.416 7      2734.264          42.500    24345140.844    99689275.418 5      2734.233          32.500
G06  21975546.057   115482271.846 8     -2402.410          50.500    21975546.297   115482271.838 6     -2402.410          41.750    21975548.497    89986185.856 8     -1871.987          48.750    21975548.237    89986186.850 6     -1871.995          41.750    21975548.257    86236761.748 9     -1793.989          54.750
G31  23638644.148   124221915.942 7      2056.253          47.750    23638643.938   124221913.933 6      2056.253          38.750    23638643.988    96796298.907 7      1602.263          46.000    23638644.018    96796296.910 6      1602.266          38.750
G24  24598352.239   129265208.600 6     -3658.542          40.500    24598352.639   129265205.589 4     -3658.542          27.500    24598355.509   100726135.439 7     -2850.808          43.000    24598355.739   100726134.428 4     -2850.785          27.500    24598355.829    96529213.698 8     -2732.010          50.250
G25  20651887.251   108526401.639 8      1408.288          53.250    20651887.311   108526402.640 7      1408.288          46.000    20651889.041    84566027.566 8      1097.387          52.750    20651888.821    84566027.568 7      1097.375          46.000    20651888.361    81042442.897 9      1051.660          58.500
G12  20344403.363   106910561.147 8     -1319.015          53.500    20344403.533   106910561.142 7     -1319.015          47.000    20344401.223    83306930.724 8     -1027.796          51.250    20344401.133    83306930.722 7     -1027.784          47.000
G29  22458929.432   118022472.969 8      2947.801          48.500    22458929.442   118022471.974 6      2947.801          41.500    22458928.462    91965563.642 7      2296.991          47.250    22458928.612    91965562.653 6      2297.004          41.500
> 2015 09 03 07 45 42.0000000  0  8      -0.000125961665
G02  20734616.775   108961145.994 8       -74.392          50.500    20734616.225   108961145.989 7       -74.392          45.000                                                                    20734612.595    84904788.693 7       -57.972          45.000
G05  24344471.671   127931060.944 7      3508.659          44.000    24344471.851   127931060.948 5      3508.659          32.250    24344474.251    99686542.269 7      2734.050          42.500    24344474.031    99686541.280 5      2734.038          32.250
G06  21976003.327   115484674.454 8     -2402.938          50.500    21976003.597   115484674.448 6     -2402.938          41.750    21976005.807    89988058.017 8     -1872.446          48.750    21976005.637    89988059.010 6     -1872.438          41.750    21976005.477    86238555.902 9     -1794.421          54.750
G31  23638252.850   124219860.118 7      2055.473          47.750    23638252.650   124219858.106 6      2055.473          38.750    23638253.000    96794696.963 7      1601.678          46.000    23638252.780    96794694.968 6      1601.668          38.750
G24  24599048.591   129268867.294 6     -3658.754          40.500    24599048.131   129268864.284 4     -3658.754          27.750    24599052.121   100728986.367 7     -2850.999          43.500    24599052.101   100728985.350 4     -2850.961          27.750    24599052.071    96531945.837 8     -2732.217          50.000
G25  20651619.470   108524993.750 8      1407.511          53.250    20651619.280   108524994.747 7      1407.511          46.000    20651620.950    84564930.511 8      1096.777          53.000    20651620.990    84564930.512 7      1096.774          46.000    20651620.420    81041391.552 9      1051.074          58.500
G12  20344654.640   106911880.527 8     -1319.765          53.500    20344654.650   106911880.524 7     -1319.765          46.750    20344652.650    83307958.812 8     -1028.375          51.250    20344652.170    83307958.814 7     -1028.380          46.750
G29  22458368.715   118019525.435 8      2947.327          48.750    22458368.755   118019524.432 6      2947.327          41.750    22458367.415    91963266.862 7      2296.629          47.250    22458367.695    91963265.877 6      2296.618          41.750
> 2015 09 03 07 45 43.0000000  0  8      -0.000125986786
G02  20734630.893   108961220.634 8       -75.074          50.750    20734630.463   108961220.628 7       -75.074          45.000                                                                    20734626.713    84904846.855 7       -58.513          45.000
G05  24343803.976   127927552.305 7      3508.431          44.000    24343804.346   127927552.302 5      3508.431          32.000    24343806.536    99683808.280 7      2733.872          42.250    24343805.676    99683807.275 5      2733.861          32.000
G06  21976460.505   115487077.590 8     -2403.558          50.500    21976460.855   115487077.584 6     -2403.558          41.750    21976463.085    89989930.589 8     -1872.892          48.750    21976462.845    89989931.584 6     -1872.880          41.750    21976462.805    86240350.449 9     -1794.852          54.750
G31  23637861.618   124217804.896 7      2054.819          47.500    23637861.948   124217802.883 6      2054.819          38.750    23637861.378    96793095.494 7      1601.129          46.250    23637861.778    96793093.505 6      1601.125          38.750
G24  24599744.856   129272526.109 6     -3658.899          40.500    24599744.956   129272523.105 4     -3658.899          27.500    24599748.346   100731837.389 7     -2851.123          43.500    24599748.556   100731836.370 4     -2851.087          27.500    24599748.326    96534678.069 8     -2732.360          50.000
G25  20651351.816   108523586.477 8      1406.793          53.500    20651351.506   108523587.474 7      1406.793          46.250    20651353.256    84563833.934 8      1096.197          52.750    20651353.286    84563833.932 7      1096.214          46.250    20651352.626    81040340.667 9      1050.526          58.500
G12  20344905.815   106913200.537 8     -1320.469          53.750    20344905.835   106913200.533 7     -1320.469          46.750    20344903.445    83308987.390 8     -1028.933          51.250    20344903.355    83308987.390 7     -1028.929          46.750
G29  22457807.737   118016578.184 8      2946.978          49.000    22457807.637   118016577.188 6      2946.978          41.750    22457806.877    91960970.307 7      2296.348          47.250    22457806.847    91960969.323 6      2296.328          41.750
> 2015 09 03 07 45 44.0000000  0  8      -0.000126011825
G02  20734645.046   108961295.966 8       -75.690          50.500    20734644.776   108961295.962 7       -75.690          45.250                                                                    20734641.006    84904905.556 7       -58.984          45.250
G05  24343137.157   127924043.954 7      3508.312          44.000    24343136.937   127924043.952 5      3508.312          32.250    24343138.277    99681074.504 7      2733.744          42.000    24343138.137    99681073.509 5      2733.665          32.250
G06  21976917.808   115489481.319 8     -2403.990          50.500    21976918.308   115489481.310 6     -2403.990          41.750    21976920.648    89991803.623 8     -1873.251          48.750    21976920.058    89991804.618 6     -1873.269          41.750    21976920.178    86242145.441 9     -1795.200          54.750
G31  23637470.584   124215750.345 7      2054.258          47.500    23637470.854   124215748.330 6      2054.258          38.750    23637471.064    96791494.547 7      1600.753          46.500    23637470.584    96791492.545 6      1600.753          38.750
G24  24600441.373   129276185.093 6     -3658.984          40.500    24600441.223   129276182.081 4     -3658.984          27.750    24600444.363   100734688.544 7     -2851.096          43.500    24600444.733   100734687.529 4     -2851.131          27.750    24600444.603    96537410.424 8     -2732.306          49.750
G25  20651084.062   108522179.879 8      1406.281          53.500    20651083.752   108522180.876 7      1406.281          46.250    20651085.712    84562737.883 8      1095.815          53.000    20651085.552    84562737.887 7      1095.812          46.250    20651084.952    81039290.286 9      1050.158          58.500
G12  20345157.155   106914521.243 8     -1321.022          53.750    20345157.165   106914521.241 7     -1321.022          47.000    20345154.965    83310016.512 8     -1029.379          51.250    20345154.705    83310016.514 7     -1029.388          47.000
G29  22457246.859   118013631.301 8      2946.767          48.750    22457246.999   118013630.310 6      2946.767          41.500    22457245.959    91958674.038 7      2296.186          47.250    22457245.959    91958673.055 6      2296.180          41.500
> 2015 09 03 07 45 45.0000000  0  8      -0.000126036655
G02  20734659.670   108961372.173 8       -76.625          50.500    20734659.240   108961372.166 7       -76.625          45.250                                                                    20734655.560    84904964.940 7       -59.720          45.250
G05  24342469.453   127920536.036 7      3507.823          44.500    24342469.033   127920536.043 5      3507.823          32.500    24342470.773    99678341.074 6      2733.343          41.750    24342470.283    99678340.063 5      2733.402          32.500
G06  21977375.334   115491885.816 8     -2404.785          50.500    21977375.784   115491885.811 6     -2404.785          41.750    21977378.234    89993677.253 8     -1873.847          49.000    21977377.644    89993678.254 6     -1873.858          41.750    21977377.744    86243941.006 9     -1795.778          55.000
G31  23637079.720   124213696.650 7      2053.375          47.250    23637079.970   124213694.641 6      2053.375          38.500    23637080.490    96789894.266 7      1600.067          46.500    23637080.120    96789892.275 6      1600.046          38.500
G24  24601137.491   129279844.482 6     -3659.481          40.500    24601137.951   129279841.460 4     -3659.481          28.000    24601140.971   100737540.007 7     -2851.536          43.750    24601141.201   100737538.989 4     -2851.571          28.000    24601140.901    96540143.083 8     -2732.739          49.750
G25  20650816.461   108520774.161 8      1405.372          53.500    20650816.291   108520775.155 7      1405.372          46.000    20650818.061    84561642.517 8      1095.115          53.000    20650817.981    84561642.519 7      1095.112          46.000    20650817.451    81038240.560 9      1049.479          58.500
G12  20345408.690   106915842.837 8     -1322.005          53.750    20345408.680   106915842.835 7     -1322.005          46.750    20345406.400    83311046.326 8     -1030.116          51.250    20345406.200    83311046.324 7     -1030.113          46.750
G29  22456686.313   118010684.983 8      2946.122          48.500    22456686.463   118010683.984 6      2946.122          41.750    22456685.483    91956378.200 7      2295.719          47.250    22456685.323    91956377.215 6      2295.719          41.750
> 2015 09 03 07 45 46.0000000  0  8      -0.000126061427
G02  20734674.405   108961449.033 8       -77.173          50.500    20734673.955   108961449.028 7       -77.173          45.000                                                                    20734670.225    84905024.831 7       -60.163          45.000
G05  24341802.232   127917028.361 7      3507.659          44.750    24341801.672   127917028.369 5      3507.659          32.750    24341803.642    99675607.818 7      2733.229          42.000    24341803.502    99675606.821 5      2733.199          32.750
G06  21977833.150   115494290.881 8     -2405.309          50.500    21977833.440   115494290.875 6     -2405.309          41.500    21977835.830    89995551.329 8     -1874.270          48.750    21977835.610    89995552.330 6     -1874.266          41.500    21977835.410    86245736.995 9     -1796.169          54.750
G31  23636688.920   124211643.603 7      2052.805          47.250    23636689.090   124211641.587 6      2052.805          38.500    23636689.340    96788294.502 7      1599.574          46.500    23636689.050    96788292.492 6      1599.588          38.500
G24  24601833.870   129283504.005 6     -3659.519          40.250    24601833.130   129283500.989 4     -3659.519          28.250    24601837.530   100740391.581 7     -2851.586          43.750    24601837.850   100740390.570 4     -2851.609          28.250    24601837.160    96542875.838 8     -2732.793          49.750
G25  20650549.196   108519369.099 8      1404.789          53.250    20650548.986   108519370.096 7      1404.789          46.000    20650550.846    84560547.665 8      1094.619          53.000    20650550.686    84560547.667 7      1094.620          46.000    20650550.116    81037191.327 9      1049.015          58.500
G12  20345660.254   106917165.100 9     -1322.562          54.000    20345660.314   106917165.095 7     -1322.562          46.750    20345657.954    83312076.657 8     -1030.563          51.250    20345657.804    83312076.661 7     -1030.571          46.750
G29  22456125.692   118007739.005 8      2945.873          48.750    22456125.812   118007738.007 6      2945.873          41.750    22456124.832    91954082.636 7      2295.456          47.250    22456124.832    91954081.651 6      2295.456          41.750
> 2015 09 03 07 45 47.0000000  0  8      -0.000126086164
G02  20734689.286   108961526.490 8       -77.683          50.500    20734688.686   108961526.488 7       -77.683          45.250                                                                    20734684.936    84905085.188 7       -60.539          45.250
G05  24341134.459   127913520.868 7      3507.455          44.750    24341134.499   127913520.870 5      3507.455          32.500    24341136.139    99672874.711 7      2733.101          42.250    24341135.879    99672873.713 5      2733.076          32.500
G06  21978291.008   115496696.443 8     -2405.742          50.500    21978291.258   115496696.438 6     -2405.742          41.750    21978293.338    89997425.795 8     -1874.621          48.750    21978293.118    89997426.793 6     -1874.620          41.750    21978293.168    86247533.357 9     -1796.502          54.750
G31  23636298.176   124209591.141 7      2052.187          47.000    23636298.366   124209589.136 6      2052.187          38.500    23636299.076    96786695.190 7      1599.118          46.500    23636298.816    96786693.185 6      1599.125          38.500
G24  24602530.288   129287163.623 6     -3659.689          40.250    24602530.128   129287160.615 4     -3659.689          28.250    24602533.718   100743243.224 7     -2851.758          43.750    24602533.778   100743242.206 4     -2851.769          28.250    24602533.588    96545608.667 8     -2732.948          49.750
G25  20650282.183   108517964.633 8      1404.272          53.250    20650281.713   108517965.624 7      1404.272          46.000    20650283.393    84559453.275 8      1094.229          53.250    20650283.513    84559453.277 7      1094.236          46.000    20650282.853    81036142.538 9      1048.643          58.500
G12  20345911.990   106918487.973 9     -1323.129          54.000    20345912.000   106918487.968 7     -1323.129          46.750    20345909.520    83313107.468 8     -1031.002          51.250    20345909.590    83313107.469 7     -1031.017          46.750
G29  22455564.999   118004793.291 8      2945.676          48.750    22455565.329   118004792.290 6      2945.676          41.750    22455563.999    91951787.272 7      2295.365          47.250    22455564.209    91951786.288 6      2295.365          41.750
> 2015 09 03 07 45 48.0000000  0  8      -0.000126110850
G02  20734704.012   108961604.591 8       -78.459          50.500    20734703.432   108961604.589 7       -78.459          45.250                                                                    20734699.812    84905146.046 7       -61.165          45.250
G05  24340466.747   127910013.566 7      3507.160          45.000    24340467.107   127910013.572 5      3507.160          32.750    24340468.687    99670141.760 7      2732.850          42.250    24340467.807    99670140.752 5      2732.869          32.750
G06  21978748.674   115499102.521 8     -2406.360          50.500    21978749.264   115499102.522 6     -2406.360          41.500    21978751.294    89999300.659 8     -1875.090          48.750    21978751.144    89999301.659 6     -1875.111          41.500    21978751.014    86249330.102 9     -1796.963          54.750
G31  23635908.233   124207539.278 7      2051.580          47.000    23635908.053   124207537.272 6      2051.580          38.500    23635908.573    96785096.338 7      1598.649          46.500    23635908.093    96785094.329 6      1598.681          38.500
G24  24603225.890   129290823.306 6     -3659.757          40.750    24603226.550   129290820.289 4     -3659.757          28.000    24603230.390   100746094.919 7     -2851.692          43.750    24603230.180   100746093.916 4     -2851.726          28.000    24603230.040    96548341.543 8     -2732.870          50.000
G25  20650014.846   108516560.780 8      1403.570          53.500    20650014.656   108516561.778 7      1403.570          46.250    20650016.536    84558359.365 8      1093.684          53.250    20650016.376    84558359.368 7      1093.679          46.250    20650015.716    81035094.207 9      1048.112          58.500
G12  20346163.957   106919811.474 9     -1323.860          54.000    20346163.957   106919811.472 7     -1323.860          46.750    20346161.567    83314138.771 8     -1031.597          51.250    20346161.427    83314138.771 7     -1031.601          46.750
G29  22455004.777   118001847.897 8      2945.227          49.000    22455004.907   118001846.897 6      2945.227          41.750    22455003.647    91949492.162 7      2294.979          47.250    22455003.827    91949491.181 6      2294.971          41.750
> 2015 09 03 07 45 49.0000000  0  8      -0.000126135518
G02  20734719.074   108961683.243 8       -78.757          50.750    20734718.524   108961683.240 7       -78.757          45.250                                                                    20734714.784    84905207.337 7       -61.381          45.250
G05  24339799.441   127906506.404 7      3507.348          45.000    24339799.901   127906506.403 5      3507.348          32.750    24339800.621    99667408.909 7      2732.982          42.250    24339801.031    99667407.910 5      2733.007          32.750
G06  21979206.709   115501509.075 8     -2406.618          50.500    21979206.959   115501509.067 6     -2406.618          41.500    21979209.029    90001175.894 8     -1875.269          48.750    21979209.099    90001176.893 6     -1875.286          41.500    21979208.939    86251127.202 9     -1797.137          54.750
G31  23635517.517   124205487.978 7      2051.227          47.000    23635517.837   124205485.973 6      2051.227          38.750    23635517.997    96783497.924 7      1598.387          46.750    23635517.887    96783495.921 6      1598.372          38.750
G24  24603922.941   129294483.082 6     -3659.550          40.500    24603923.001   129294480.067 4     -3659.550          28.000    24603927.011   100748946.684 7     -2851.593          44.000    24603926.741   100748945.671 4     -2851.553          28.000    24603926.621    96551074.493 8     -2732.771          50.000
G25  20649747.842   108515157.499 8      1403.236          53.250    20649747.612   108515158.490 7      1403.236          46.000    20649749.552    84557265.901 8      1093.430          53.250    20649749.232    84557265.904 7      1093.427          46.000    20649748.662    81034046.304 9      1047.869          58.500
G12  20346415.902   106921135.549 9     -1324.162          54.000    20346415.812   106921135.544 7     -1324.162          46.750    20346413.532    83315170.516 8     -1031.817          51.250    20346413.422    83315170.515 7     -1031.834          46.750
G29  22454444.102   117998902.737 8      2945.276          49.250    22454444.372   117998901.736 7      2945.276          42.000    22454443.252    91947197.238 7      2295.014          47.250    22454443.182    91947196.249 7      2295.035          42.000
> 2015 09 03 07 45 50.0000000  0  8      -0.000126160134
G02  20734734.264   108961762.515 8       -79.767          50.750    20734733.514   108961762.509 7       -79.767          45.250                                                                    20734729.844    84905269.103 7       -62.160          45.250
G05  24339131.990   127902999.435 7      3506.684          45.000    24339132.380   127902999.441 5      3506.684          33.000    24339133.810    99664676.223 7      2732.439          42.250    24339133.470    99664675.221 5      2732.394          33.000
G06  21979664.735   115503916.141 8     -2407.535          50.500    21979665.205   115503916.136 6     -2407.535          41.750    21979667.325    90003051.529 8     -1875.995          48.750    21979667.015    90003052.527 6     -1876.003          41.750    21979667.025    86252924.684 9     -1797.830          54.750
G31  23635127.472   124203437.272 7      2050.233          47.250    23635127.412   124203435.269 6      2050.233          38.500    23635127.792    96781899.973 7      1597.589          46.500    23635127.712    96781897.978 6      1597.543          38.500
G24  24604620.141   129298142.957 6     -3660.198          40.500    24604619.301   129298139.948 4     -3660.198          27.500    24604623.141   100751798.531 7     -2852.014          44.000    24604623.431   100751797.523 4     -2852.020          27.500    24604623.131    96553807.511 8     -2733.192          50.000
G25  20649480.895   108513754.819 8      1402.203          53.250    20649480.675   108513755.816 7      1402.203          46.250    20649482.685    84556172.909 8      1092.635          53.250    20649482.295    84556172.907 7      1092.639          46.250    20649481.735    81032998.851 9      1047.112          58.500
G12  20346668.007   106922460.245 9     -1325.214          54.250    20346667.957   106922460.240 7     -1325.214          46.750    20346665.567    83316202.748 8     -1032.623          51.250    20346665.537    83316202.745 7     -1032.624          46.750
G29  22453883.706   117995957.873 8      2944.520          49.000    22453883.856   117995956.869 6      2944.520          41.750    22453882.966    91944902.537 7      2294.454          47.250    22453882.906    91944901.548 6      2294.457          41.750
> 2015 09 03 07 45 51.0000000  0  8      -0.000126184608
G02  20734749.380   108961842.580 8       -80.220          50.750    20734748.750   108961842.578 7       -80.220          45.250                                                                    20734744.970    84905331.492 7       -62.492          45.250
G05  24338464.858   127899492.850 7      3506.687          45.000    24338465.218   127899492.851 5      3506.687          32.750    24338466.608    99661943.819 7      2732.441          42.000    24338466.008    99661942.805 5      2732.475          32.750
G06  21980122.695   115506323.911 8     -2407.932          50.500    21980123.155   115506323.911 6     -2407.932          41.750    21980125.465    90004927.713 8     -1876.305          48.750    21980125.335    90004928.710 6     -1876.300          41.750    21980125.175    86254722.693 9     -1798.128          54.750
G31  23634737.427   124201387.348 7      2049.787          47.250    23634737.597   124201385.347 6      2049.787          38.750    23634737.617    96780302.636 7      1597.274          46.500    23634737.687    96780300.629 6      1597.291          38.750
G24  24605315.770   129301803.115 6     -3660.084          40.000    24605315.860   129301800.111 4     -3660.084          27.250    24605319.870   100754650.607 7     -2852.054          44.000    24605319.900   100754649.592 4     -2852.074          27.250    24605319.910    96556540.750 8     -2733.197          50.250
G25  20649213.927   108512352.948 8      1401.712          53.250    20649213.857   108512353.943 7      1401.712          46.250    20649216.017    84555080.543 8      1092.240          53.250    20649215.587    84555080.542 7      1092.252          46.250    20649214.987    81031952.000 9      1046.740          58.500
G12  20346920.258   106923785.763 9     -1325.709          54.250    20346920.178   106923785.760 7     -1325.709          46.750    20346917.968    83317235.616 8     -1033.012          51.250    20346917.708    83317235.615 7     -1033.015          46.750
G29  22453323.403   117993013.496 8      2944.329          49.000    22453323.683   117993012.491 6      2944.329          41.750    22453322.653    91942608.220 7      2294.303          47.250    22453322.693    91942607.232 6      2294.319          41.750
> 2015 09 03 07 45 52.0000000  0  8      -0.000126209030
G02  20734764.861   108961923.268 8       -81.046          50.750    20734764.091   108961923.267 7       -81.046          45.250                                                                    20734760.411    84905394.368 7       -63.134          45.250
G05  24337797.853   127895986.458 7      3506.248          45.000    24337797.733   127895986.458 5      3506.248          32.750    24337799.643    99659211.565 7      2732.103          42.000    24337799.033    99659210.562 5      2732.126          32.750
G06  21980581.077   115508732.191 8     -2408.564          50.500    21980581.407   115508732.188 6     -2408.564          41.750    21980583.817    90006804.294 8     -1876.792          48.750    21980583.497    90006805.292 6     -1876.787          41.750    21980583.437    86256521.083 9     -1798.594          54.750
G31  23634347.361   124199338.035 7      2049.008          47.250    23634347.551   124199336.040 6      2049.008          38.500    23634347.771    96778705.772 7      1596.617          46.500    23634347.641    96778703.773 6      1596.617          38.500
G24  24606011.604   129305463.369 6     -3660.310          40.000    24606011.944   129305460.359 4     -3660.310          27.000    24606016.424   100757502.741 7     -2852.156          44.000    24606016.394   100757501.719 4     -2852.120          27.000    24606016.364    96559274.050 8     -2733.324          50.250
G25  20648947.393   108510951.686 8      1400.941          53.250    20648947.263   108510952.684 7      1400.941          46.250    20648949.153    84553988.650 8      1091.675          53.250    20648948.783    84553988.650 7      1091.678          46.250    20648948.313    81030905.603 9      1046.186          58.500
G12  20347172.668   106925111.900 9     -1326.453          54.250    20347172.478   106925111.892 7     -1326.453          47.000    20347170.098    83318268.967 8     -1033.605          51.500    20347170.178    83318268.968 7     -1033.612          47.000
G29  22452763.064   117990069.407 8      2943.968          49.000    22452763.494   117990068.408 6      2943.968          41.500    22452762.624    91940314.124 7      2293.962          47.250    22452761.994    91940313.139 6      2293.971          41.500
> 2015 09 03 07 45 53.0000000  0  8      -0.000126233416
G02  20734780.294   108962004.560 8       -81.643          50.750    20734779.434   108962004.559 7       -81.643          45.250                                                                    20734775.844    84905457.715 7       -63.625          45.250
G05  24337130.164   127892480.237 7      3506.098          45.000    24337130.984   127892480.239 5      3506.098          32.500    24337131.504    99656479.449 7      2732.038          42.000    24337131.664    99656478.439 5      2732.018          32.500
G06  21981039.490   115511140.980 8     -2409.033          50.500    21981039.880   115511140.975 6     -2409.033          41.500    21981042.070    90008681.269 8     -1877.192          48.750    21981042.070    90008682.265 6     -1877.195          41.500    21981041.760    86258319.852 9     -1798.976          54.750
G31  23633957.807   124197289.305 7      2048.396          47.250    23633957.557   124197287.314 6      2048.396          38.500    23633957.627    96777109.365 7      1596.168          46.500    23633957.477    96777107.361 6      1596.152          38.500
G24  24606707.977   129309123.747 6     -3660.331          39.500    24606708.347   129309120.742 4     -3660.331          27.000    24606712.847   100760354.980 7     -2852.158          44.000    24606713.047   100760353.973 4     -2852.170          27.000    24606712.907    96562007.438 8     -2733.294          50.500
G25  20648681.043   108509551.034 8      1400.316          53.250    20648680.743   108509552.034 7      1400.316          46.250    20648682.523    84552897.234 8      1091.129          53.250    20648682.393    84552897.234 7      1091.135          46.250    20648681.783    81029859.663 9      1045.672          58.500
G12  20347425.232   106926438.653 9     -1327.110          54.250    20347424.972   106926438.649 7     -1327.110          47.000    20347422.732    83319302.802 8     -1034.109          51.250    20347422.602    83319302.802 7     -1034.110          47.000
G29  22452202.883   117987125.605 8      2943.630          48.750    22452203.153   117987124.598 6      2943.630          41.500    22452202.263    91938020.259 7      2293.738          47.250    22452201.953    91938019.270 6      2293.734          41.500
> 2015 09 03 07 45 54.0000000  0  8      -0.000126257632
G02  20734795.988   108962086.669 8       -82.478          50.750    20734795.298   108962086.663 7       -82.478          45.250                                                                    20734791.498    84905521.690 7       -64.238          45.250
G05  24336462.898   127888974.419 7      3505.645          45.000    24336463.418   127888974.419 5      3505.645          32.750    24336464.518    99653747.642 6      2731.706          41.750    24336464.568    99653746.642 5      2731.686          32.750
G06  21981498.125   115513550.497 8     -2409.896          50.500    21981498.485   115513550.488 6     -2409.896          41.750    21981500.765    90010558.812 8     -1877.817          48.750    21981500.545    90010559.809 6     -1877.805          41.750    21981500.265    86260119.163 9     -1799.578          54.750
G31  23633568.263   124195241.386 7      2047.625          47.250    23633567.873   124195239.388 6      2047.625          38.500    23633568.223    96775513.583 7      1595.508          46.500    23633567.853    96775511.583 6      1595.512          38.500
G24  24607404.322   129312784.453 6     -3660.824          39.500    24607404.952   129312781.456 4     -3660.824          27.250    24607409.482   100763207.469 7     -2852.543          44.000    24607409.462   100763206.468 4     -2852.571          27.250    24607409.752    96564741.078 8     -2733.662          50.500
G25  20648414.707   108508151.192 8      1399.480          53.250    20648414.317   108508152.190 7      1399.480          46.250    20648416.157    84551806.447 8      1090.529          53.250    20648416.057    84551806.449 7      1090.521          46.250    20648415.387    81028814.326 9      1045.091          58.500
G12  20347677.726   106927766.235 9     -1327.979          54.250    20347677.656   106927766.230 7     -1327.979          46.750    20347675.326    83320337.279 8     -1034.776          51.250    20347675.206    83320337.280 7     -1034.777          46.750
G29  22451642.805   117984182.306 8      2943.077          48.750    22451643.015   117984181.300 6      2943.077          41.500    22451641.985    91935726.780 7      2293.315          47.250    22451641.945    91935725.789 6      2293.324          41.500
> 2015 09 03 07 45 55.0000000  0  8      -0.000126281796
G02  20734811.527   108962169.388 8       -83.064          51.000    20734811.057   108962169.383 7       -83.064          45.250                                                                    20734807.277    84905586.149 7       -64.712          45.250
G05  24335796.124   127885468.774 7      3505.554          45.000    24335796.164   127885468.767 5      3505.554          32.750    24335797.484    99651015.971 6      2731.657          41.750    24335797.374    99651014.972 5      2731.635          32.750
G06  21981956.816   115515960.506 8     -2410.305          50.500    21981957.106   115515960.499 6     -2410.305          41.750    21981959.056    90012436.743 8     -1878.153          48.750    21981959.136    90012437.740 6     -1878.152          41.750    21981958.846    86261918.847 9     -1799.899          54.500
G31  23633178.281   124193194.058 7      2047.037          47.500    23633178.621   124193192.065 6      2047.037          38.500    23633178.571    96773918.268 7      1595.087          46.500    23633178.441    96773916.264 6      1595.083          38.500
G24  24608101.703   129316445.229 6     -3660.611          39.250    24608101.893   129316442.216 4     -3660.611          27.250    24608105.863   100766060.008 7     -2852.514          44.000    24608105.973   100766059.000 4     -2852.508          27.250    24608106.383    96567474.756 8     -2733.609          50.750
G25  20648148.410   108506751.948 8      1398.954          53.250    20648148.030   108506752.946 7      1398.954          46.250    20648149.870    84550716.128 8      1090.131          53.000    20648149.810    84550716.128 7      1090.136          46.250    20648149.140    81027769.436 9      1044.713          58.500
G12  20347930.538   106929094.420 9     -1328.449          54.250    20347930.358   106929094.418 7     -1328.449          47.000    20347927.888    83321372.228 8     -1035.131          51.250    20347927.828    83321372.228 7     -1035.127          47.000
G29  22451082.865   117981239.281 8      2942.929          48.750    22451082.795   117981238.273 6      2942.929          41.500    22451082.165    91933433.515 7      2293.194          47.250    22451081.995    91933432.523 6      2293.217          41.500
> 2015 09 03 07 45 56.0000000  0  8      -0.000126305905
G02  20734827.443   108962252.732 8       -83.759          51.000    20734826.803   108962252.725 7       -83.759          45.000                                                                    20734823.133    84905651.094 7       -65.270          45.000
G05  24335128.927   127881963.347 7      3505.364          45.000    24335129.507   127881963.336 5      3505.364          33.250    24335130.777    99648284.472 6      2731.424          41.750    24335130.607    99648283.470 5      2731.457          33.250
G06  21982415.438   115518371.054 8     -2410.929          50.750    21982415.738   115518371.047 6     -2410.929          41.750    21982417.788    90014315.091 8     -1878.622          48.750    21982417.828    90014316.085 6     -1878.634          41.750    21982417.538    86263718.929 9     -1800.353          54.500
G31  23632789.088   124191147.341 7      2046.334          47.500    23632789.178   124191145.331 6      2046.334          38.250    23632789.128    96772323.415 7      1594.619          46.500    23632789.038    96772321.412 6      1594.607          38.250
G24  24608798.028   129320106.156 6     -3661.161          39.500    24608798.318   129320103.162 4     -3661.161          27.250    24608802.508   100768912.674 7     -2852.848          44.000    24608802.908   100768911.665 4     -2852.865          27.250    24608803.198    96570208.566 8     -2733.982          50.750
G25  20647882.102   108505353.352 8      1398.188          53.250    20647881.832   108505354.349 7      1398.188          46.250    20647883.462    84549626.314 8      1089.493          53.000    20647883.512    84549626.316 7      1089.475          46.250    20647882.982    81026725.031 9      1044.096          58.500
G12  20348183.155   106930423.269 9     -1329.250          54.250    20348183.275   106930423.264 7     -1329.250          47.000    20348181.035    83322407.696 8     -1035.798          51.250    20348180.815    83322407.696 7     -1035.788          47.000
G29  22450522.807   117978296.584 8      2942.463          49.000    22450523.167   117978295.571 6      2942.463          41.500    22450522.107    91931140.502 7      2292.810          47.250    22450522.207    91931139.519 6      2292.780          41.500
> 2015 09 03 07 45 57.0000000  0  8      -0.000126329822
G02  20734843.239   108962336.916 8       -84.445          50.750    20734842.749   108962336.912 7       -84.445          45.000                                                                    20734839.099    84905716.694 7       -65.840          45.000
G05  24334461.748   127878458.352 7      3505.000          44.750    24334462.768   127878458.345 5      3505.000          33.000    24334463.988    99645553.313 7      2731.166          42.000    24334463.178    99645552.314 5      2731.146          33.000
G06  21982874.397   115520782.353 8     -2411.526          50.500    21982874.707   115520782.351 6     -2411.526          41.750    21982876.837    90016194.024 8     -1879.136          48.750    21982876.567    90016195.022 6     -1879.143          41.750    21982876.407    86265519.574 9     -1800.846          54.500
G31  23632399.723   124189101.483 7      2045.631          47.500    23632399.863   124189099.482 6      2045.631          38.500    23632399.183    96770729.245 7      1593.934          46.500    23632399.703    96770727.244 6      1593.942          38.500
G24  24609494.490   129323767.403 6     -3661.316          39.500    24609495.270   129323764.406 4     -3661.316          27.500    24609499.220   100771765.581 7     -2853.038          44.000    24609499.030   100771764.586 4     -2853.076          27.500    24609499.960    96572942.604 8     -2734.150          50.750
G25  20647616.231   108503955.592 8      1397.490          53.250    20647615.891   108503956.590 7      1397.490          46.250    20647617.691    84548537.151 8      1088.942          53.000    20647617.631    84548537.150 7      1088.950          46.250    20647617.021    81025681.250 9      1043.568          58.500
G12  20348436.489   106931752.968 9     -1329.983          54.250    20348436.309   106931752.963 7     -1329.983          47.000    20348433.819    83323443.824 8     -1036.370          51.250    20348433.789    83323443.825 7     -1036.385          47.000
G29  22449963.077   117975354.405 8      2942.095          49.000    22449963.157   117975353.400 6      2942.095          41.750    22449962.067    91928847.900 7      2292.539          47.250    22449961.987    91928846.911 6      2292.530          41.750
> 2015 09 03 07 45 58.0000000  0  8      -0.000126353844
G02  20734859.413   108962421.491 8       -84.768          50.750    20734858.953   108962421.487 7       -84.768          45.250                                                                    20734855.253    84905782.597 7       -66.083          45.250
G05  24333794.617   127874953.316 7      3505.078          44.750    24333795.357   127874953.308 5      3505.078          32.750    24333796.427    99642822.127 7      2731.197          42.000    24333796.257    99642821.131 5      2731.199          32.750
G06  21983333.241   115523193.933 8     -2411.766          50.500    21983333.641   115523193.930 6     -2411.766          41.500    21983335.691    90018073.176 8     -1879.297          48.750    21983335.471    90018074.172 6     -1879.300          41.500    21983335.281    86267320.431 9     -1801.004          54.500
G31  23632010.886   124187055.967 7      2045.380          47.250    23632010.166   124187053.973 6      2045.380          38.500    23632010.236    96769135.340 7      1593.799          46.500    23632010.336    96769133.339 6      1593.797          38.500
G24  24610191.718   129327428.521 6     -3661.182          39.750    24610191.398   129327425.516 4     -3661.182          27.750    24610196.148   100774618.401 7     -2852.779          44.000    24610195.618   100774617.395 4     -2852.767          27.750    24610196.708    96575676.555 8     -2733.937          50.750
G25  20647350.129   108502558.210 8      1397.210          53.250    20647349.969   108502559.212 7      1397.210          46.250    20647351.759    84547448.288 8      1088.690          53.000    20647351.659    84547448.285 7      1088.701          46.250    20647351.099    81024637.753 9      1043.334          58.500
G12  20348689.606   106933083.051 9     -1330.285          54.250    20348689.446   106933083.049 7     -1330.285          47.000    20348687.246    83324480.255 8     -1036.605          51.500    20348686.906    83324480.256 7     -1036.625          47.000
G29  22449403.289   117972412.297 8      2942.101          48.750    22449403.269   117972411.286 6      2942.101          41.500    22449402.009    91926555.350 7      2292.553          47.250    22449402.379    91926554.354 6      2292.562          41.500
> 2015 09 03 07 45 59.0000000  0  8      -0.000126377927
G02  20734875.763   108962506.515 8       -85.410          50.750    20734875.113   108962506.508 7       -85.410          45.250                                                                    20734871.343    84905848.847 7       -66.573          45.250
G05  24333127.695   127871448.309 7      3504.907          44.750    24333128.635   127871448.302 5      3504.907          32.500    24333129.495    99640090.944 7      2731.014          42.000    24333129.395    99640089.956 5      2730.970          32.500
G06  21983792.142   115525605.863 8     -2412.262          50.500    21983792.462   115525605.859 6     -2412.262          41.500    21983794.762    90019952.598 8     -1879.695          48.750    21983794.732    90019953.600 6     -1879.703          41.500    21983794.302    86269121.542 9     -1801.374          54.500
G31  23631621.222   124185010.913 7      2044.741          47.250    23631621.452   124185008.910 6      2044.741          38.250    23631621.212    96767541.798 7      1593.245          46.250    23631621.032    96767539.790 6      1593.238          38.250
G24  24610888.468   129331089.588 6     -3661.052          40.000    24610888.338   129331086.578 4     -3661.052          27.750    24610892.418   100777471.158 7     -2852.786          43.750    24610893.088   100777470.164 4     -2852.825          27.750    24610893.358    96578410.448 8     -2733.934          50.750
G25  20647084.357   108501161.277 8      1396.564          53.250    20647084.197   108501162.277 7      1396.564          46.250    20647085.737    84546359.764 8      1088.241          53.000    20647085.857    84546359.766 7      1088.236          46.250    20647085.237    81023594.590 9      1042.899          58.500
G12  20348942.757   106934413.601 9     -1330.935          54.250    20348942.627   106934413.600 7     -1330.935          47.000    20348940.227    83325517.046 8     -1037.113          51.500    20348940.137    83325517.046 7     -1037.115          47.000
G29  22448843.343   117969470.324 8      2941.771          48.750    22448843.383   117969469.313 6      2941.771          41.750    22448842.403    91924262.903 7      2292.257          47.250    22448842.393    91924261.913 6      2292.246          41.750
> 2015 09 03 07 46  0.0000000  0  8      -0.000126401968
G02  20734891.913   108962592.155 8       -85.916          50.750    20734891.343   108962592.151 7       -85.916          45.250                                                                    20734887.593    84905915.578 7       -66.944          45.250
G05  24332460.579   127867943.508 7      3504.739          44.500    24332461.109   127867943.505 5      3504.739          32.500    24332462.389    99637359.940 7      2730.954          42.000    24332462.049    99637358.944 5      2730.974          32.500
G06  21984251.302   115528018.318 8     -2412.659          50.250    21984251.482   115528018.313 6     -2412.659          41.500    21984253.692    90021832.435 8     -1880.015          48.750    21984253.852    90021833.432 6     -1880.009          41.500    21984253.262    86270923.050 9     -1801.669          54.500
G31  23631231.966   124182966.469 7      2044.163          47.250    23631232.206   124182964.473 6      2044.163          38.750    23631232.606    96765948.719 7      1592.866          46.250    23631232.256    96765946.717 6      1592.849          38.750
G24  24611584.811   129334750.759 6     -3661.230          40.000    24611584.991   129334747.755 4     -3661.230          28.000    24611588.791   100780324.022 7     -2852.924          43.500    24611589.541   100780323.016 4     -2852.942          28.000    24611590.011    96581144.443 8     -2734.057          50.750
G25  20646818.756   108499764.967 8      1396.078          53.250    20646818.426   108499765.967 7      1396.078          46.250    20646820.176    84545271.732 8      1087.864          53.000    20646820.076    84545271.732 7      1087.862          46.250    20646819.576    81022551.891 9      1042.541          58.500
G12  20349195.977   106935744.782 9     -1331.451          54.000    20349195.937   106935744.780 7     -1331.451          47.000    20349193.577    83326554.327 8     -1037.501          51.500    20349193.487    83326554.328 7     -1037.494          47.000
G29  22448283.571   117966528.646 8      2941.598          48.750    22448283.501   117966527.635 6      2941.598          41.750    22448282.791    91921970.688 7      2292.135          47.250    22448282.501    91921969.694 6      2292.159          41.750
> 2015 09 03 07 46  1.0000000  0  8      -0.000126425936
G02  20734908.219   108962678.468 8       -86.430          50.750    20734907.769   108962678.466 7       -86.430          45.250                                                                    20734904.119    84905982.839 7       -67.367          45.250
G05  24331793.625   127864438.945 7      3504.730          44.250    24331793.875   127864438.947 5      3504.730          32.500    24331796.115    99634629.112 7      2730.958          42.000    24331795.565    99634628.115 5      2730.995          32.500
G06  21984710.503   115530431.347 8     -2413.087          50.250    21984710.683   115530431.349 6     -2413.087          41.500    21984713.143    90023712.713 8     -1880.306          48.750    21984712.663    90023713.711 6     -1880.314          41.500    21984712.513    86272724.986 9     -1801.964          54.500
G31  23630843.186   124180922.661 7      2043.766          47.000    23630843.316   124180920.660 6      2043.766          38.500    23630843.156    96764356.146 7      1592.501          46.250    23630842.906    96764354.144 6      1592.517          38.500
G24  24612282.144   129338412.091 6     -3661.216          40.000    24612282.334   129338409.074 4     -3661.216          27.500    24612286.204   100783177.002 7     -2852.916          43.750    24612286.444   100783175.985 4     -2852.865          27.500    24612286.744    96583878.541 8     -2734.012          50.750
G25  20646553.188   108498369.331 8      1395.588          53.250    20646552.798   108498370.333 7      1395.588          46.250    20646554.518    84544184.223 8      1087.467          53.000    20646554.498    84544184.224 7      1087.459          46.250    20646553.968    81021509.698 9      1042.151          58.500
G12  20349449.355   106937076.640 9     -1331.896          54.000    20349449.435   106937076.639 7     -1331.896          47.000    20349447.205    83327592.135 8     -1037.847          51.250    20349446.835    83327592.141 7     -1037.865          47.000
G29  22447723.831   117963587.323 8      2941.437          48.750    22447723.991   117963586.312 6      2941.437          41.750    22447722.991    91919678.748 7      2292.037          47.250    22447722.911    91919677.762 6      2292.009          41.750
> 2015 09 03 07 46  2.0000000  0  8      -0.000126449906
G02  20734925.070   108962765.296 8       -87.258          51.000    20734924.380   108962765.292 7       -87.258          45.250                                                                    20734920.550    84906050.497 7       -68.003          45.250
G05  24331126.997   127860934.493 7      3504.240          44.250    24331126.857   127860934.493 5      3504.240          32.500    24331129.707    99631898.384 7      2730.530          42.250    24331128.637    99631897.394 5      2730.526          32.500
G06  21985169.791   115532844.793 8     -2413.813          50.500    21985170.121   115532844.792 6     -2413.813          41.500    21985172.531    90025593.321 8     -1880.899          49.000    21985172.191    90025594.321 6     -1880.900          41.500    21985171.711    86274527.235 9     -1802.527          54.500
G31  23630454.139   124178879.366 7      2042.891          47.000    23630454.509   124178877.366 6      2042.891          38.750    23630454.709    96762763.966 7      1591.857          46.500    23630454.529    96762761.969 6      1591.848          38.750
G24  24612978.621   129342073.416 6     -3661.396          40.000    24612979.121   129342070.397 4     -3661.396          27.750    24612982.501   100786029.978 7     -2853.074          43.750    24612983.241   100786028.969 4     -2853.079          27.750    24612983.451    96586612.642 8     -2734.182          51.000
G25  20646287.709   108496974.210 8      1394.745          53.250    20646287.339   108496975.208 7      1394.745          46.250    20646288.889    84543097.114 8      1086.821          53.000    20646289.039    84543097.115 7      1086.820          46.250    20646288.489    81020467.885 9      1041.531          58.500
G12  20349702.830   106938409.028 9     -1332.804          54.000    20349702.890   106938409.025 7     -1332.804          47.000    20349700.640    83328630.361 8     -1038.546          51.250    20349700.410    83328630.365 7     -1038.549          47.000
G29  22447164.173   117960646.193 8      2940.897          48.750    22447164.423   117960645.186 6      2940.897          41.750    22447163.503    91917386.963 7      2291.605          47.250    22447163.113    91917385.969 6      2291.616          41.750
> 2015 09 03 07 46  3.0000000  0  8      -0.000126473887
G02  20734941.625   108962852.686 8       -87.727          51.250    20734940.855   108962852.680 7       -87.727          45.250                                                                    20734937.175    84906118.592 7       -68.310          45.250
G05  24330460.106   127857430.167 7      3504.342          44.000    24330460.206   127857430.171 5      3504.342          32.500    24330461.946    99629167.738 7      2730.591          42.000    24330461.866    99629166.758 5      2730.531          32.500
G06  21985629.181   115535258.703 8     -2414.157          50.500    21985629.251   115535258.705 6     -2414.157          41.750    21985631.441    90027474.286 8     -1881.115          49.000    21985631.541    90027475.285 6     -1881.123          41.750    21985631.111    86276329.828 9     -1802.741          54.500
G31  23630065.488   124176836.620 7      2042.465          47.250    23630065.858   124176834.622 6      2042.465          38.750    23630065.988    96761172.216 7      1591.550          46.250    23630065.668    96761170.219 6      1591.560          38.750
G24  24613675.447   129345734.815 6     -3661.380          40.250    24613675.997   129345731.793 4     -3661.380          28.000    24613680.017   100788883.018 7     -2853.123          43.500    24613680.407   100788882.013 4     -2853.121          28.000    24613680.137    96589346.806 8     -2734.271          50.750
G25  20646022.222   108495579.656 8      1394.291          53.250    20646022.002   108495580.657 7      1394.291          46.250    20646023.762    84542010.451 8      1086.456          53.000    20646023.792    84542010.453 7      1086.449          46.250    20646023.112    81019426.497 9      1041.185          58.500
G12  20349956.577   106939741.988 9     -1333.251          54.000    20349956.637   106939741.986 7     -1333.251          47.000    20349954.127    83329669.030 8     -1038.888          51.250    20349954.137    83329669.034 7     -1038.899          47.000
G29  22446604.001   117957705.306 8      2940.751          48.500    22446604.611   117957704.291 6      2940.751          41.750    22446603.511    91915095.361 7      2291.540          47.000    22446603.451    91915094.367 6      2291.526          41.750
> 2015 09 03 07 46  4.0000000  0  8      -0.000126497913
G02  20734958.209   108962940.553 8       -88.150          51.000    20734957.709   108962940.548 7       -88.150          45.250                                                                    20734954.039    84906187.060 7       -68.701          45.250
G05  24329793.029   127853925.898 7      3504.198          44.000    24329793.739   127853925.892 5      3504.198          32.500    24329795.609    99626437.157 7      2730.446          42.250    24329795.199    99626436.153 5      2730.518          32.500
G06  21986088.532   115537672.983 8     -2414.548          50.750    21986088.802   115537672.985 6     -2414.548          41.750    21986090.712    90029355.544 8     -1881.475          49.000    21986090.742    90029356.545 6     -1881.483          41.750    21986090.552    86278132.699 9     -1803.082          54.500
G31  23629676.795   124174794.332 7      2042.064          47.250    23629677.285   124174792.329 6      2042.064          38.500    23629677.035    96759580.824 7      1591.209          46.250    23629677.215    96759578.820 6      1591.235          38.500
G24  24614371.772   129349396.167 6     -3661.426          40.000    24614372.062   129349393.141 4     -3661.426          28.000    24614375.392   100791736.004 7     -2853.024          43.250    24614375.892   100791735.004 4     -2853.029          28.000    24614376.822    96592080.922 8     -2734.158          51.000
G25  20645756.966   108494185.557 8      1393.890          53.250    20645756.706   108494186.556 7      1393.890          46.250    20645758.476    84540924.140 8      1086.137          53.000    20645758.406    84540924.139 7      1086.133          46.250    20645757.846    81018385.448 9      1040.880          58.500
G12  20350210.399   106941075.432 9     -1333.725          54.000    20350210.329   106941075.427 7     -1333.725          46.750    20350207.879    83330708.076 8     -1039.271          51.250    20350207.809    83330708.080 7     -1039.276          46.750
G29  22446044.607   117954764.569 8      2940.621          48.250    22446044.917   117954763.554 6      2940.621          41.750    22446044.257    91912803.881 7      2291.377          47.000    22446043.787    91912802.888 6      2291.366          41.750
> 2015 09 03 07 46  5.0000000  0  8      -0.000126521781
G02  20734974.980   108963029.191 8       -88.863          51.000    20734974.590   108963029.187 7       -88.863          45.250                                                                    20734970.870    84906256.129 7       -69.239          45.250
G05  24329126.164   127850421.972 7      3503.947          44.000    24329126.794   127850421.980 5      3503.947          32.250    24329128.804    99623706.845 7      2730.278          42.500    24329128.344    99623705.840 5      2730.314          32.250
G06  21986547.958   115540087.937 8     -2415.116          50.750    21986548.388   115540087.934 6     -2415.116          41.750    21986550.328    90031237.323 8     -1881.909          49.000    21986550.248    90031238.323 6     -1881.894          41.750    21986550.108    86279936.069 9     -1803.477          54.500
G31  23629288.102   124172752.820 7      2041.271          47.000    23629288.402   124172750.816 6      2041.271          38.750    23629289.122    96757990.035 7      1590.560          46.500    23629288.422    96757988.043 6      1590.567          38.750
G24  24615068.840   129353057.793 6     -3661.587          40.250    24615069.140   129353054.766 4     -3661.587          28.000    24615072.410   100794589.219 7     -2853.084          43.250    24615072.560   100794588.222 4     -2853.137          28.000    24615073.670    96594815.244 8     -2734.190          51.000
G25  20645492.078   108492792.246 8      1393.122          53.250    20645491.598   108492793.241 7      1393.122          46.250    20645493.458    84539838.440 8      1085.564          53.000    20645493.278    84539838.441 7      1085.568          46.250    20645492.678    81017344.989 9      1040.334          58.500
G12  20350464.045   106942409.664 9     -1334.451          54.000    20350464.175   106942409.658 7     -1334.451          47.000    20350462.005    83331747.738 8     -1039.830          51.250    20350461.735    83331747.740 7     -1039.837          47.000
G29  22445484.993   117951824.283 8      2940.206          48.250    22445485.593   117951823.272 6      2940.206          41.750    22445484.583    91910512.749 7      2291.106          47.000    22445484.363    91910511.765 6      2291.059          41.750
> 2015 09 03 07 46  6.0000000  0  8      -0.000126545623
G02  20734991.999   108963118.438 8       -89.511          51.000    20734991.529   108963118.433 7       -89.511          45.250                                                                    20734987.779    84906325.675 7       -69.758          45.250
G05  24328459.468   127846918.232 7      3503.711          44.250    24328460.278   127846918.226 5      3503.711          32.500    24328462.318    99620976.654 7      2730.205          42.500    24328461.848    99620975.656 5      2730.185          32.500
G06  21987007.656   115542503.397 8     -2415.663          50.750    21987008.106   115542503.395 6     -2415.663          41.750    21987009.956    90033119.496 8     -1882.341          48.750    21987010.006    90033120.499 6     -1882.345          41.750    21987009.736    86281739.825 9     -1803.920          54.500
G31  23628899.757   124170711.883 7      2040.632          47.000    23628900.177   124170709.885 6      2040.632          38.750    23628900.587    96756399.701 7      1590.098          46.250    23628900.047    96756397.708 6      1590.106          38.750
G24  24615766.089   129356719.557 6     -3661.807          40.000    24615766.499   129356716.526 4     -3661.807          28.000    24615769.169   100797442.543 7     -2853.317          43.000    24615770.019   100797441.536 4     -2853.334          28.000    24615770.369    96597549.672 8     -2734.421          51.000
G25  20645227.035   108491399.538 8      1392.455          53.250    20645226.495   108491400.534 7      1392.455          46.250    20645228.295    84538753.215 8      1085.038          53.000    20645228.225    84538753.215 7      1085.035          46.250    20645227.655    81016304.980 9      1039.822          58.500
G12  20350718.119   106943744.506 9     -1335.109          54.000    20350718.189   106943744.501 7     -1335.109          47.000    20350715.759    83332787.874 8     -1040.345          51.250    20350715.779    83332787.873 7     -1040.326          47.000
G29  22444925.248   117948884.288 8      2939.878          48.250    22444926.128   117948883.287 6      2939.878          41.750    22444924.738    91908221.853 7      2290.783          47.000    22444924.788    91908220.862 6      2290.790          41.750
> 2015 09 03 07 46  7.0000000  0  8      -0.000126569428
G02  20735009.090   108963208.276 8       -90.147          51.000    20735008.670   108963208.272 7       -90.147          45.250                                                                    20735004.950    84906395.680 7       -70.223          45.250
G05  24327792.822   127843414.659 7      3503.497          44.000    24327793.312   127843414.675 5      3503.497          32.250    24327794.902    99618246.609 7      2730.038          42.500    24327794.662    99618245.607 5      2730.075          32.250
G06  21987467.406   115544919.346 8     -2416.168          50.500    21987467.736   115544919.343 6     -2416.168          41.750    21987469.586    90035002.052 8     -1882.717          49.000    21987469.686    90035003.054 6     -1882.718          41.750    21987469.526    86283543.938 9     -1804.278          54.500
G31  23628511.670   124168671.518 7      2040.159          47.250    23628511.730   124168669.517 6      2040.159          38.750    23628512.230    96754809.809 7      1589.713          46.250    23628511.800    96754807.808 6      1589.733          38.750
G24  24616463.235   129360381.365 6     -3661.813          39.750    24616462.655   129360378.342 4     -3661.813          27.750    24616466.195   100800295.901 7     -2853.336          43.000    24616466.605   100800294.892 4     -2853.309          27.750    24616467.275    96600284.139 8     -2734.447          50.750
G25  20644962.075   108490007.408 8      1391.904          53.500    20644961.585   108490008.404 7      1391.904          46.250    20644963.535    84537668.439 8      1084.593          53.000    20644963.405    84537668.440 7      1084.580          46.250    20644962.755    81015265.403 9      1039.403          58.500
G12  20350972.346   106945079.942 9     -1335.653          54.000    20350972.356   106945079.936 7     -1335.653          46.750    20350969.996    83333828.472 8     -1040.777          51.250    20350969.806    83333828.473 7     -1040.768          46.750
G29  22444366.141   117945944.548 8      2939.725          48.000    22444366.321   117945943.544 6      2939.725          41.750    22444365.591    91905931.143 7      2290.677          47.000    22444365.381    91905930.155 6      2290.677          41.750
> 2015 09 03 07 46  8.0000000  0  8      -0.000126593174
G02  20735026.505   108963298.745 8       -90.737          51.000    20735025.795   108963298.738 7       -90.737          45.250                                                                    20735022.115    84906466.172 7       -70.721          45.250
G05  24327126.414   127839911.293 7      3503.349          44.250    24327126.454   127839911.296 5      3503.349          32.250    24327128.464    99615516.723 7      2729.879          42.500    24327128.374    99615515.736 5      2729.819          32.250
G06  21987927.321   115547335.813 8     -2416.677          50.500    21987927.461   115547335.812 6     -2416.677          41.750    21987929.461    90036885.014 8     -1883.134          48.750    21987929.601    90036886.012 6     -1883.127          41.750    21987929.341    86285348.444 9     -1804.657          54.500
G31  23628123.543   124166631.776 7      2039.516          47.250    23628124.033   124166629.770 6      2039.516          38.750    23628124.013    96753220.397 7      1589.237          46.500    23628123.843    96753218.399 6      1589.225          38.750
G24  24617159.377   129364043.296 6     -3661.965          39.750    24617159.617   129364040.280 4     -3661.965          27.250    24617163.177   100803149.357 7     -2853.470          43.000    24617163.557   100803148.341 4     -2853.496          27.250    24617164.167    96603018.701 8     -2734.597          51.000
G25  20644697.313   108488615.907 8      1391.265          53.500    20644696.793   108488616.906 7      1391.265          46.250    20644698.803    84536584.156 8      1084.106          53.000    20644698.573    84536584.154 7      1084.112          46.250    20644697.953    81014226.294 9      1038.940          58.500
G12  20351226.477   106946416.019 8     -1336.340          53.750    20351226.517   106946416.015 7     -1336.340          46.750    20351224.307    83334869.570 8     -1041.320          51.250    20351224.147    83334869.573 7     -1041.315          46.750
G29  22443806.707   117943005.129 7      2939.363          47.750    22443807.177   117943004.121 6      2939.363          41.750    22443806.177    91903640.690 7      2290.373          47.000    22443806.107    91903639.697 6      2290.391          41.750
> 2015 09 03 07 46  9.0000000  0  8      -0.000126616801
G02  20735043.809   108963389.909 8       -91.537          50.750    20735043.149   108963389.901 7       -91.537          45.250                                                                    20735039.519    84906537.208 7       -71.313          45.250
G05  24326459.570   127836408.214 7      3502.905          44.250    24326460.040   127836408.229 5      3502.905          32.250    24326462.040    99612787.055 7      2729.544          42.500    24326461.850    99612786.056 5      2729.558          32.250
G06  21988387.223   115549752.882 8     -2417.330          50.500    21988387.683   115549752.880 6     -2417.330          41.750    21988389.483    90038768.443 8     -1883.656          48.750    21988389.563    90038769.444 6     -1883.670          41.750    21988389.393    86287153.394 9     -1805.162          54.500
G31  23627735.600   124164592.724 7      2038.747          47.250    23627735.590   124164590.723 6      2038.747          38.500    23627735.850    96751631.529 7      1588.605          46.250    23627735.990    96751629.529 6      1588.621          38.500
G24  24617856.655   129367705.429 6     -3662.249          39.750    24617856.705   129367702.400 4     -3662.249          27.250    24617860.085   100806002.958 7     -2853.671          43.000    24617860.355   100806001.950 4     -2853.700          27.250    24617860.905    96605753.399 8     -2734.768          50.750
G25  20644432.633   108487225.100 8      1390.497          53.500    20644432.233   108487226.099 7      1390.497          46.250    20644433.893    84535500.412 8      1083.477          53.000    20644433.893    84535500.408 7      1083.486          46.250    20644433.293    81013187.706 9      1038.346          58.500
G12  20351480.932   106947752.804 8     -1337.150          53.750    20351481.002   106947752.798 7     -1337.150          47.000    20351478.642    83335911.220 8     -1041.940          51.250    20351478.552    83335911.223 7     -1041.948          47.000
G29  22443247.693   117940066.085 8      2938.917          48.000    22443247.793   117940065.086 6      2938.917          41.750    22443246.793    91901350.530 7      2290.024          47.250    22443246.883    91901349.539 6      2290.032          41.750
> 2015 09 03 07 46 10.0000000  0  8      -0.000126640376
G02  20735061.341   108963481.735 8       -92.205          50.750    20735060.641   108963481.732 7       -92.205          45.250                                                                    20735056.921    84906608.763 7       -71.857          45.250
G05  24325793.186   127832905.386 7      3502.663          44.500    24325793.636   127832905.396 5      3502.663          32.250    24325795.276    99610057.582 7      2729.268          42.250    24325795.226    99610056.584 5      2729.292          32.250
G06  21988847.219   115552170.511 8     -2417.949          50.750    21988847.629   115552170.507 6     -2417.949          41.750    21988849.919    90040652.306 8     -1884.114          48.750    21988849.729    90040653.308 6     -1884.112          41.750    21988849.399    86288958.767 9     -1805.625          54.500
G31  23627347.555   124162554.318 7      2038.070          47.500    23627347.895   124162552.319 6      2038.070          38.500    23627347.855    96750043.159 7      1588.111          46.250    23627347.675    96750041.157 6      1588.137          38.500
G24  24618553.856   129371367.662 6     -3662.211          40.000    24618553.706   129371364.640 4     -3662.211          27.250    24618557.186   100808856.647 7     -2853.637          43.250    24618557.466   100808855.641 4     -2853.619          27.250    24618557.756    96608488.183 8     -2734.732          51.000
G25  20644167.901   108485834.964 8      1389.797          53.500    20644167.571   108485835.965 7      1389.797          46.250    20644169.411    84534417.187 8      1082.932          53.000    20644169.401    84534417.185 7      1082.928          46.250    20644168.771    81012149.617 9      1037.810          58.500
G12  20351735.267   106949090.264 8     -1337.847          53.750    20351735.447   106949090.258 7     -1337.847          47.000    20351733.217    83336953.395 8     -1042.472          51.250    20351733.067    83336953.397 7     -1042.467          47.000
G29  22442688.457   117937127.401 8      2938.494          48.000    22442688.647   117937126.396 6      2938.494          41.500    22442687.447    91899060.647 7      2289.714          47.000    22442687.587    91899059.661 6      2289.722          41.500
> 2015 09 03 07 46 11.0000000  0  8      -0.000126663961
G02  20735078.858   108963574.071 8       -92.612          51.000    20735078.198   108963574.064 7       -92.612          45.000                                                                    20735074.608    84906680.711 7       -72.151          45.000
G05  24325127.044   127829402.630 7      3502.738          44.500    24325127.134   127829402.632 5      3502.738          32.250    24325128.564    99607328.172 7      2729.373          42.000    24325128.344    99607327.171 5      2729.333          32.250
G06  21989307.493   115554588.554 8     -2418.258          50.500    21989307.803   115554588.554 6     -2418.258          41.750    21989309.703    90042536.497 8     -1884.353          48.750    21989309.743    90042537.499 6     -1884.367          41.750    21989309.563    86290764.450 9     -1805.851          54.500
G31  23626960.028   124160516.416 7      2037.700          47.500    23626960.008   124160514.413 6      2037.700          38.500    23626960.298    96748455.183 7      1587.819          46.250    23626960.268    96748453.190 6      1587.802          38.500
G24  24619250.289   129375029.935 6     -3662.234          40.000    24619249.989   129375026.925 4     -3662.234          27.750    24619253.469   100811710.366 7     -2853.748          43.250    24619254.449   100811709.358 4     -2853.714          27.750    24619254.729    96611222.996 8     -2734.827          50.750
G25  20643903.559   108484445.339 8      1389.379          53.250    20643903.159   108484446.331 7      1389.379          46.250    20643904.729    84533334.361 8      1082.625          52.750    20643904.859    84533334.359 7      1082.629          46.250    20643904.319    81011111.910 9      1037.515          58.500
G12  20351989.833   106950428.249 8     -1338.269          53.750    20351990.123   106950428.241 7     -1338.269          46.750    20351987.753    83337995.981 8     -1042.826          51.250    20351987.643    83337995.983 7     -1042.823          46.750
G29  22442129.236   117934188.908 8      2938.410          48.000    22442129.576   117934187.903 6      2938.410          41.750    22442128.176    91896770.915 7      2289.661          47.000    22442128.366    91896769.923 6      2289.678          41.750
> 2015 09 03 07 46 12.0000000  0  8      -0.000126687564
G02  20735096.428   108963666.944 8       -93.197          51.250    20735095.938   108963666.936 7       -93.197          45.250                                                                    20735092.068    84906753.081 7       -72.627          45.250
G05  24324460.758   127825899.999 7      3502.510          44.750    24324460.308   127825900.004 5      3502.510          32.500    24324462.028    99604598.849 6      2729.275          41.750    24324461.948    99604597.841 5      2729.293          32.500
G06  21989767.759   115557007.031 8     -2418.729          50.250    21989768.069   115557007.029 6     -2418.729          41.500    21989770.089    90044421.024 8     -1884.766          48.500    21989769.819    90044422.028 6     -1884.766          41.500    21989769.859    86292570.454 9     -1806.228          54.500
G31  23626572.426   124158479.045 7      2037.057          47.250    23626572.396   124158477.049 6      2037.057          38.500    23626572.236    96746867.619 7      1587.297          46.250    23626572.356    96746865.624 6      1587.298          38.500
G24  24619946.725   129378692.179 6     -3662.218          39.500    24619946.385   129378689.170 4     -3662.218          27.000    24619951.245   100814564.057 7     -2853.685          43.250    24619951.255   100814563.052 4     -2853.684          27.000    24619951.645    96613957.782 8     -2734.775          50.750
G25  20643638.992   108483056.237 8      1388.837          53.250    20643638.902   108483057.231 7      1388.837          46.000    20643640.452    84532251.945 8      1082.207          52.750    20643640.492    84532251.943 7      1082.214          46.000    20643639.982    81010074.595 9      1037.116          58.750
G12  20352244.707   106951766.764 8     -1338.822          53.750    20352244.867   106951766.759 7     -1338.822          47.000    20352242.247    83339038.979 8     -1043.241          51.250    20352242.287    83339038.981 7     -1043.242          47.000
G29  22441570.441   117931250.624 8      2938.154          48.000    22441570.281   117931249.620 6      2938.154          41.500    22441569.361    91894481.340 7      2289.469          47.000    22441569.241    91894480.355 6      2289.469          41.500
> 2015 09 03 07 46 13.0000000  0  8      -0.000126711113
G02  20735114.302   108963760.437 8       -93.787          51.000    20735113.772   108963760.430 7       -93.787          45.000                                                                    20735110.052    84906825.931 7       -73.082          45.000
G05  24323794.377   127822397.570 7      3502.337          45.000    24323793.917   127822397.560 5      3502.337          32.000    24323795.477    99601869.682 7      2729.141          42.000    24323795.447    99601868.685 5      2729.142          32.000
G06  21990227.691   115559426.026 8     -2419.236          50.250    21990228.341   115559426.025 6     -2419.236          41.500    21990230.391    90046305.953 8     -1885.112          48.750    21990230.231    90046306.956 6     -1885.124          41.500    21990230.091    86294376.843 9     -1806.570          54.500
G31  23626184.816   124156442.264 7      2036.537          47.250    23626184.866   124156440.260 6      2036.537          38.500    23626184.886    96745280.525 7      1586.918          46.250    23626184.636    96745278.527 6      1586.907          38.500
G24  24620643.574   129382354.552 6     -3662.386          39.250    24620644.004   129382351.545 4     -3662.386          27.500    24620647.874   100817417.856 7     -2853.814          43.250    24620648.484   100817416.849 4     -2853.823          27.500    24620648.654    96616692.664 8     -2734.883          50.750
G25  20643374.845   108481667.771 8      1388.222          53.250    20643374.575   108481668.764 7      1388.222          46.000    20643376.345    84531170.022 8      1081.727          52.750    20643376.385    84531170.024 7      1081.713          46.000    20643375.755    81009037.753 9      1036.653          58.750
G12  20352499.405   106953105.920 8     -1339.435          53.750    20352499.655   106953105.915 7     -1339.435          47.000    20352497.205    83340082.480 8     -1043.730          51.250    20352497.255    83340082.480 7     -1043.728          47.000
G29  22441011.085   117928312.656 7      2937.861          47.750    22441011.125   117928311.658 6      2937.861          41.750    22441010.575    91892192.016 7      2289.274          47.250    22441010.205    91892191.030 6      2289.271          41.750
> 2015 09 03 07 46 14.0000000  0  8      -0.000126734550
G02  20735131.966   108963854.612 8       -94.377          51.000    20735131.646   108963854.606 7       -94.377          45.250                                                                    20735127.866    84906899.317 7       -73.540          45.250
G05  24323127.632   127818895.417 7      3502.069          45.000    24323127.012   127818895.412 5      3502.069          32.000    24323129.502    99599140.738 7      2728.875          42.250    24323129.012    99599139.735 5      2728.906          32.000
G06  21990688.283   115561845.616 8     -2419.740          50.250    21990688.633   115561845.615 6     -2419.740          41.750    21990690.733    90048191.344 8     -1885.512          48.750    21990690.643    90048192.349 6     -1885.531          41.750    21990690.553    86296183.679 9     -1806.946          54.250
G31  23625797.298   124154406.169 7      2035.942          47.250    23625797.518   124154404.161 6      2035.942          38.750    23625797.078    96743693.959 7      1586.479          46.250    23625797.228    96743691.963 6      1586.459          38.750
G24  24621340.876   129386017.102 6     -3662.514          39.250    24621340.596   129386014.096 4     -3662.514          27.250    24621344.986   100820271.782 7     -2853.807          43.250    24621345.436   100820270.769 4     -2853.753          27.250    24621345.656    96619427.679 8     -2734.895          50.750
G25  20643110.842   108480279.993 8      1387.544          53.250    20643110.492   108480280.990 7      1387.544          46.250    20643112.052    84530088.637 8      1081.201          52.750    20643112.172    84530088.635 7      1081.208          46.250    20643111.692    81008001.425 9      1036.158          58.750
G12  20352754.432   106954445.779 8     -1340.114          53.750    20352754.652   106954445.774 7     -1340.114          47.000    20352752.212    83341126.526 8     -1044.235          51.250    20352752.092    83341126.525 7     -1044.236          47.000
G29  22440452.350   117925375.061 7      2937.512          47.750    22440452.320   117925374.059 6      2937.512          41.750    22440451.400    91889902.981 7      2288.975          47.250    22440451.310    91889901.994 6      2288.991          41.750
> 2015 09 03 07 46 15.0000000  0  8      -0.000126757920
G02  20735150.286   108963949.448 8       -95.001          50.750    20735149.806   108963949.440 7       -95.001          45.250                                                                    20735146.006    84906973.214 7       -74.044          45.250
G05  24322460.978   127815393.480 7      3501.893          44.500    24322460.778   127815393.476 5      3501.893          32.250    24322462.778    99596411.956 7      2728.764          42.250    24322462.568    99596410.948 5      2728.802          32.250
G06  21991148.576   115564265.761 8     -2420.292          50.250    21991149.166   115564265.759 6     -2420.292          41.750    21991151.446    90050077.172 8     -1885.975          48.750    21991151.176    90050078.174 6     -1885.974          41.750    21991151.146    86297990.928 9     -1807.398          54.500
G31  23625410.032   124152370.728 7      2035.237          47.250    23625410.172   124152368.730 6      2035.237          38.500    23625410.222    96742107.905 7      1585.844          46.250    23625409.912    96742105.910 6      1585.821          38.500
G24  24622037.207   129389679.800 6     -3662.598          39.000    24622037.697   129389676.788 4     -3662.598          27.000    24622041.877   100823125.834 7     -2853.974          43.500    24622041.997   100823124.814 4     -2853.940          27.000    24622042.577    96622162.811 8     -2735.054          50.750
G25  20642846.632   108478892.856 8      1386.910          53.250    20642846.502   108478893.854 7      1386.910          46.250    20642848.252    84529007.752 8      1080.716          52.750    20642848.342    84529007.752 7      1080.711          46.250    20642847.712    81006965.577 9      1035.685          58.750
G12  20353009.295   106955786.297 8     -1340.769          53.750    20353009.625   106955786.290 7     -1340.769          47.000    20353007.275    83342171.083 8     -1044.747          51.250    20353007.185    83342171.085 7     -1044.763          47.000
G29  22439893.168   117922437.791 8      2937.201          48.000    22439893.378   117922436.782 6      2937.201          41.750    22439892.298    91887614.198 7      2288.735          47.250    22439892.258    91887613.209 6      2288.727          41.750
> 2015 09 03 07 46 16.0000000  0  8      -0.000126781312
G02  20735168.253   108964044.805 8       -95.630          50.750    20735167.713   108964044.805 7       -95.630          45.000                                                                    20735164.033    84907047.522 7       -74.512          45.000
G05  24321794.386   127811891.648 7      3501.766          44.500    24321794.626   127811891.649 5      3501.766          32.250    24321796.796    99593683.259 7      2728.714          42.250    24321796.806    99593682.269 5      2728.662          32.250
G06  21991609.267   115566686.328 8     -2420.780          50.000    21991610.017   115566686.331 6     -2420.780          41.750    21991612.257    90051963.324 8     -1886.302          49.000    21991611.837    90051964.328 6     -1886.318          41.750    21991611.797    86299798.493 9     -1807.708          54.500
G31  23625022.958   124150335.786 7      2034.702          47.250    23625023.058   124150333.788 6      2034.702          38.500    23625022.768    96740522.238 7      1585.471          46.250    23625022.908    96740520.241 6      1585.464          38.500
G24  24622734.947   129393342.508 6     -3662.764          38.750    24622734.897   129393339.509 4     -3662.764          27.000    24622738.657   100825979.892 7     -2854.058          43.500    24622738.987   100825978.885 4     -2854.066          27.000    24622739.627    96624897.948 8     -2735.131          50.750
G25  20642582.904   108477506.249 8      1386.319          53.250    20642582.674   108477507.247 7      1386.319          46.250    20642584.474    84527927.277 8      1080.273          52.750    20642584.434    84527927.278 7      1080.272          46.250    20642583.844    81005930.126 9      1035.257          58.750
G12  20353264.610   106957127.349 8     -1341.287          53.750    20353265.050   106957127.341 7     -1341.287          47.000    20353262.540    83343216.054 8     -1045.142          51.250    20353262.460    83343216.058 7     -1045.131          47.000
G29  22439334.466   117919500.717 7      2937.005          47.750    22439334.566   117919499.706 6      2937.005          41.750    22439333.476    91885325.576 7      2288.578          47.250    22439333.356    91885324.581 6      2288.588          41.750
> 2015 09 03 07 46 17.0000000  0  8      -0.000126804780
G02  20735186.657   108964140.613 8       -96.235          50.750    20735185.997   108964140.606 7       -96.235          45.000                                                                    20735182.347    84907122.176 7       -74.990          45.000
G05  24321128.157   127808389.847 7      3501.592          44.250    24321127.777   127808389.857 5      3501.592          32.500    24321130.397    99590954.596 7      2728.524          42.500    24321129.867    99590953.607 5      2728.546          32.500
G06  21992070.039   115569107.245 8     -2421.294          50.000    21992070.479   115569107.242 6     -2421.294          41.750    21992072.909    90053849.754 8     -1886.745          49.000    21992072.469    90053850.754 6     -1886.740          41.750    21992072.489    86301606.319 9     -1808.126          54.500
G31  23624635.260   124148301.279 7      2034.100          47.500    23624635.680   124148299.278 6      2034.100          38.500    23624635.890    96738936.911 7      1585.027          46.000    23624635.800    96738934.909 6      1585.035          38.500
G24  24623431.788   129397005.149 6     -3662.893          39.250    24623432.058   129397002.154 4     -3662.893          27.750    24623436.428   100828833.889 7     -2854.067          43.750    24623436.008   100828832.869 4     -2854.013          27.750    24623436.528    96627633.025 8     -2735.146          50.750
G25  20642319.132   108476120.091 8      1385.771          53.250    20642318.862   108476121.086 7      1385.771          46.000    20642320.602    84526847.157 8      1079.809          52.750    20642320.662    84526847.158 7      1079.799          46.000    20642320.052    81004895.007 9      1034.825          58.750
G12  20353519.967   106958468.870 8     -1341.944          53.500    20353520.207   106958468.861 7     -1341.944          47.000    20353517.837    83344261.397 8     -1045.652          51.250    20353517.707    83344261.399 7     -1045.652          47.000
G29  22438775.209   117916563.788 7      2936.640          47.750    22438775.699   117916562.779 6      2936.640          41.500    22438774.849    91883037.061 7      2288.300          47.250    22438774.379    91883036.075 6      2288.287          41.500
> 2015 09 03 07 46 18.0000000  0  8      -0.000126828062
G02  20735205.040   108964237.205 8       -97.042          51.000    20735204.380   108964237.200 7       -97.042          45.000                                                                    20735200.770    84907197.440 7       -75.623          45.000
G05  24320461.473   127804888.426 7      3501.182          44.000    24320461.663   127804888.421 5      3501.182          32.250    24320463.713    99588226.223 7      2728.232          42.500    24320463.453    99588225.228 5      2728.150          32.250
G06  21992530.958   115571528.855 8     -2421.975          49.750    21992531.568   115571528.850 6     -2421.975          41.500    21992533.698    90055736.722 8     -1887.249          48.750    21992533.338    90055737.723 6     -1887.253          41.500    21992533.268    86303414.661 9     -1808.615          54.500
G31  23624248.291   124146267.578 7      2033.266          47.500    23624248.721   124146265.581 6      2033.266          38.750    23624248.681    96737352.213 7      1584.329          46.250    23624248.871    96737350.219 6      1584.289          38.750
G24  24624128.371   129400668.101 6     -3663.147          39.250    24624128.451   129400665.093 4     -3663.147          28.250    24624132.771   100831688.134 7     -2854.387          43.750    24624132.911   100831687.117 4     -2854.378          28.250    24624133.731    96630368.345 8     -2735.462          50.750
G25  20642055.482   108474734.736 8      1384.934          53.250    20642055.212   108474735.734 7      1384.934          46.000    20642057.072    84525767.659 8      1079.163          52.750    20642056.952    84525767.660 7      1079.166          46.000    20642056.422    81003860.489 9      1034.196          58.750
G12  20353775.376   106959811.202 8     -1342.788          53.750    20353775.596   106959811.193 7     -1342.788          46.750    20353773.316    83345307.370 8     -1046.332          51.250    20353773.096    83345307.372 7     -1046.341          46.750
G29  22438216.708   117913627.330 8      2936.184          48.000    22438216.828   117913626.328 6      2936.184          41.750    22438215.958    91880748.913 7      2287.913          47.250    22438215.628    91880747.926 6      2287.915          41.750
> 2015 09 03 07 46 19.0000000  0  8      -0.000126851244
G02  20735223.376   108964334.532 8       -97.667          51.000    20735222.996   108964334.524 7       -97.667          45.250                                                                    20735219.276    84907273.283 7       -76.111          45.250
G05  24319795.262   127801387.324 7      3501.030          43.750    24319795.022   127801387.325 5      3501.030          32.500    24319797.562    99585498.104 7      2728.009          42.500    24319797.212    99585497.111 5      2727.975          32.500
G06  21992991.733   115573951.104 8     -2422.525          50.000    21992992.463   115573951.101 6     -2422.525          41.750    21992994.503    90057624.190 8     -1887.724          49.000    21992994.303    90057625.191 6     -1887.717          41.750    21992994.223    86305223.481 9     -1809.045          54.500
G31  23623861.703   124144234.568 7      2032.819          47.500    23623861.833   124144232.567 6      2032.819          38.750    23623862.023    96735768.050 7      1583.989          46.250    23623861.713    96735766.047 6      1583.983          38.750
G24  24624825.301   129404331.285 6     -3663.270          39.250    24624825.821   129404328.281 4     -3663.270          28.000    24624830.411   100834542.550 7     -2854.448          44.000    24624829.941   100834541.545 4     -2854.499          28.000    24624830.741    96633103.826 8     -2735.525          50.750
G25  20641792.265   108473350.110 8      1384.336          53.500    20641791.815   108473351.106 7      1384.336          46.250    20641793.445    84524688.732 8      1078.694          52.750    20641793.495    84524688.730 7      1078.689          46.250    20641792.945    81002826.517 9      1033.745          58.750
G12  20354030.907   106961154.264 8     -1343.369          53.750    20354031.187   106961154.256 7     -1343.369          46.750    20354028.877    83346353.913 8     -1046.788          51.250    20354028.717    83346353.914 7     -1046.806          46.750
G29  22437658.066   117910691.277 8      2935.961          48.250    22437658.336   117910690.269 6      2935.961          41.750    22437657.236    91878461.078 7      2287.725          47.250    22437656.876    91878460.092 6      2287.731          41.750
> 2015 09 03 07 46 20.0000000  0  8      -0.000126874406
G02  20735242.250   108964432.464 8       -98.460          51.250    20735241.550   108964432.461 7       -98.460          45.000                                                                    20735237.800    84907349.596 7       -76.703          45.000
G05  24319128.515   127797886.394 7      3500.731          43.750    24319129.365   127797886.395 5      3500.731          32.000    24319131.125    99582770.124 7      2727.783          42.250    24319130.785    99582769.115 5      2727.798          32.000
G06  21993452.828   115576373.850 8     -2423.212          50.000    21993453.318   115576373.849 6     -2423.212          41.500    21993455.568    90059512.043 8     -1888.224          49.000    21993455.428    90059513.041 6     -1888.233          41.500    21993455.278    86307032.676 9     -1809.546          54.500
G31  23623474.821   124142202.163 7      2031.956          47.500    23623474.951   124142200.169 6      2031.956          38.750    23623474.971    96734184.367 7      1583.339          46.250    23623474.781    96734182.361 6      1583.339          38.750
G24  24625522.861   129407994.533 6     -3663.293          39.250    24625523.181   129407991.531 4     -3663.293          28.000    24625527.431   100837397.026 7     -2854.493          44.250    24625527.301   100837396.013 4     -2854.504          28.000    24625527.881    96635839.369 8     -2735.576          50.750
G25  20641528.744   108471966.089 8      1383.561          53.500    20641528.464   108471967.090 7      1383.561          46.000    20641530.054    84523610.275 8      1078.103          52.750    20641530.144    84523610.276 7      1078.094          46.000    20641529.614    81001792.997 9      1033.182          58.500
G12  20354286.720   106962497.942 8     -1344.160          53.750    20354286.910   106962497.939 7     -1344.160          46.750    20354284.530    83347400.936 8     -1047.406          51.250    20354284.350    83347400.937 7     -1047.403          46.750
G29  22437099.432   117907755.508 8      2935.475          48.500    22437099.662   117907754.511 6      2935.475          41.750    22437098.352    91876173.476 7      2287.370          47.250    22437098.572    91876172.489 6      2287.367          41.750
> 2015 09 03 07 46 21.0000000  0  8      -0.000126897601
G02  20735260.706   108964530.867 8       -98.728          51.250    20735260.266   108964530.861 7       -98.728          45.000                                                                    20735256.696    84907426.276 7       -76.946          45.000
G05  24318462.475   127794385.532 7      3500.858          44.000    24318462.515   127794385.535 5      3500.858          32.750    24318464.865    99580042.180 7      2727.928          42.250    24318465.145    99580041.185 5      2727.936          32.750
G06  21993913.954   115578796.966 8     -2423.363          49.750    21993914.424   115578796.964 6     -2423.363          41.500    21993916.694    90061400.181 8     -1888.313          48.750    21993916.674    90061401.181 6     -1888.313          41.500    21993916.374    86308842.143 9     -1809.640          54.500
G31  23623088.088   124140170.224 7      2031.676          47.750    23623088.518   124140168.227 6      2031.676          38.750    23623088.538    96732601.036 7      1583.114          46.000    23623088.558    96732599.039 6      1583.111          38.750
G24  24626219.762   129411657.789 6     -3663.236          39.250    24626220.312   129411654.784 4     -3663.236          28.000    24626224.952   100840251.508 7     -2854.529          44.250    24626224.332   100840250.503 4     -2854.553          28.000    24626225.012    96638574.911 8     -2735.593          50.750
G25  20641265.529   108470582.541 8      1383.275          53.500    20641265.259   108470583.540 7      1383.275          46.250    20641266.809    84522532.187 8      1077.858          52.750    20641266.909    84522532.186 7      1077.857          46.250    20641266.309    81000759.829 9      1032.951          58.500
G12  20354542.610   106963842.115 9     -1344.481          54.000    20354542.770   106963842.110 7     -1344.481          46.750    20354540.490    83348448.342 8     -1047.658          51.250    20354540.170    83348448.343 7     -1047.664          46.750
G29  22436540.865   117904819.903 8      2935.498          48.750    22436541.025   117904818.901 6      2935.498          41.750    22436539.985    91873885.991 7      2287.411          47.500    22436539.625    91873885.010 6      2287.384          41.750
> 2015 09 03 07 46 22.0000000  0  8      -0.000126920748
G02  20735279.752   108964629.906 8       -99.188          51.250    20735279.192   108964629.901 7       -99.188          45.000                                                                    20735275.322    84907503.447 7       -77.306          45.000
G05  24317796.699   127790884.877 7      3500.796          43.750    24317796.629   127790884.876 5      3500.796          32.250    24317798.979    99577314.400 7      2727.944          42.000    24317799.029    99577313.403 5      2727.942          32.250
G06  21994375.080   115581220.628 8     -2423.769          50.000    21994375.580   115581220.626 6     -2423.769          41.500    21994377.900    90063288.747 8     -1888.653          48.750    21994377.610    90063289.746 6     -1888.648          41.500    21994377.590    86310652.019 9     -1809.964          54.500
G31  23622701.815   124138138.902 8      2031.206          48.000    23622702.105   124138136.900 6      2031.206          38.750    23622701.805    96731018.189 7      1582.796          46.000    23622701.665    96731016.182 6      1582.810          38.750
G24  24626916.189   129415321.124 6     -3663.184          39.000    24626917.179   129415318.113 4     -3663.184          28.000    24626921.499   100843106.045 7     -2854.361          44.250    24626921.679   100843105.048 4     -2854.363          28.000    24626922.199    96641310.519 8     -2735.441          51.000
G25  20641002.156   108469199.624 8      1382.804          53.500    20641001.996   108469200.623 7      1382.804          46.000    20641003.766    84521454.590 8      1077.530          52.750    20641003.766    84521454.590 7      1077.531          46.000    20641003.126    80999727.132 9      1032.632          58.500
G12  20354798.381   106965186.926 8     -1344.939          53.750    20354798.541   106965186.921 7     -1344.939          46.750    20354796.251    83349496.246 8     -1047.994          51.250    20354796.161    83349496.248 7     -1047.993          46.750
G29  22435982.439   117901884.612 8      2935.325          48.750    22435982.399   117901883.618 6      2935.325          41.750    22435981.699    91871598.754 7      2287.291          47.500    22435981.219    91871597.768 6      2287.290          41.750
> 2015 09 03 07 46 23.0000000  0  8      -0.000126943908
G02  20735298.510   108964729.430 8       -99.838          51.250    20735298.100   108964729.426 7       -99.838          45.000                                                                    20735294.400    84907580.999 7       -77.794          45.000
G05  24317130.467   127787384.292 7      3500.484          44.000    24317130.957   127787384.299 5      3500.484          32.750    24317132.827    99574586.691 7      2727.660          42.250    24317132.347    99574585.690 5      2727.656          32.750
G06  21994836.592   115583644.652 8     -2424.230          49.750    21994836.982   115583644.646 6     -2424.230          41.500    21994839.092    90065177.594 8     -1889.027          48.750    21994839.192    90065178.597 6     -1889.031          41.500    21994838.852    86312462.162 9     -1810.312          54.500
G31  23622315.331   124136108.053 8      2030.612          48.000    23622315.681   124136106.057 6      2030.612          38.750    23622315.341    96729435.709 7      1582.310          46.000    23622315.631    96729433.705 6      1582.310          38.750
G24  24627613.824   129418984.472 6     -3663.386          38.750    24627614.544   129418981.454 4     -3663.386          28.500    24627618.444   100845960.592 7     -2854.604          44.250    24627618.754   100845959.582 4     -2854.515          28.500    24627619.344    96644046.123 8     -2735.654          51.000
G25  20640739.151   108467817.198 8      1382.166          53.500    20640738.951   108467818.197 7      1382.166          46.250    20640740.611    84520377.375 8      1077.023          52.750    20640740.661    84520377.374 7      1077.016          46.250    20640740.081    80998694.799 9      1032.147          58.500
G12  20355054.524   106966532.237 9     -1345.603          54.000    20355054.614   106966532.235 7     -1345.603          47.000    20355052.184    83350544.541 8     -1048.511          51.000    20355052.074    83350544.541 7     -1048.512          47.000
G29  22435424.075   117898949.483 8      2935.051          49.250    22435423.715   117898948.483 6      2935.051          41.750    22435423.265    91869311.639 7      2287.053          47.500    22435422.485    91869310.654 6      2287.042          41.750
> 2015 09 03 07 46 24.0000000  0  8      -0.000126967012
G02  20735317.693   108964829.614 8      -100.545          51.250    20735317.123   108964829.604 7      -100.545          45.000                                                                    20735313.503    84907659.058 7       -78.313          45.000
G05  24316464.253   127783883.940 7      3500.310          44.000    24316465.013   127783883.958 5      3500.310          32.500    24316466.673    99571859.147 7      2727.512          42.000    24316466.553    99571858.149 5      2727.511          32.500
G06  21995297.850   115586069.250 8     -2424.876          50.000    21995298.310   115586069.248 6     -2424.876          41.500    21995300.190    90067066.890 8     -1889.525          48.750    21995300.270    90067067.890 6     -1889.528          41.500    21995300.230    86314272.738 9     -1810.786          54.500
G31  23621929.073   124134077.856 8      2029.921          48.000    23621929.143   124134075.854 6      2029.921          38.750    23621928.743    96727853.738 7      1581.779          46.000    23621928.703    96727851.744 6      1581.742          38.750
G24  24628310.745   129422647.950 6     -3663.635          38.750    24628311.765   129422644.938 4     -3663.635          28.000    24628315.715   100848815.248 7     -2854.803          44.250    24628316.285   100848814.247 4     -2854.814          28.000    24628316.395    96646781.834 8     -2735.857          51.000
G25  20640476.269   108466435.433 8      1381.449          53.500    20640475.939   108466436.435 7      1381.449          46.000    20640477.689    84519300.674 8      1076.463          52.750    20640477.719    84519300.676 7      1076.448          46.000    20640477.139    80997662.962 9      1031.612          58.500
G12  20355310.841   106967878.216 9     -1346.335          54.000    20355310.651   106967878.212 7     -1346.335          46.750    20355308.471    83351593.358 8     -1049.073          51.000    20355308.231    83351593.358 7     -1049.084          46.750
G29  22434865.466   117896014.695 8      2934.682          49.500    22434865.476   117896013.695 6      2934.682          41.750    22434864.606    91867024.795 7      2286.765          47.500    22434864.216    91867023.805 6      2286.780          41.750
> 2015 09 03 07 46 25.0000000  0  8      -0.000126990044
G02  20735336.952   108964930.440 8      -101.129          51.500    20735336.232   108964930.437 7      -101.129          45.000                                                                    20735332.652    84907737.627 7       -78.806          45.000
G05  24315798.579   127780383.828 7      3500.078          44.250    24315798.529   127780383.836 5      3500.078          32.500    24315800.609    99569131.790 7      2727.313          42.000    24315800.669    99569130.800 5      2727.282          32.500
G06  21995759.462   115588494.381 8     -2425.354          50.250    21995759.802   115588494.377 6     -2425.354          41.500    21995761.782    90068956.602 8     -1889.883          48.500    21995762.062    90068957.604 6     -1889.912          41.500    21995761.672    86316083.711 9     -1811.141          54.500
G31  23621542.847   124132048.304 8      2029.309          48.000    23621543.367   124132046.299 6      2029.309          38.750    23621542.777    96726272.263 7      1581.281          46.000    23621542.507    96726270.267 6      1581.271          38.750
G24  24629008.218   129426311.544 6     -3663.662          39.000    24629008.878   129426308.539 4     -3663.662          28.750    24629012.758   100851669.994 7     -2854.757          44.250    24629013.418   100851669.002 4     -2854.802          28.750    24629013.578    96649517.628 8     -2735.812          51.000
G25  20640213.620   108465054.309 8      1380.838          53.500    20640213.260   108465055.308 7      1380.838          46.000    20640214.900    84518224.474 8      1075.981          52.750    20640214.920    84518224.472 7      1075.976          46.000    20640214.290    80996631.603 9      1031.145          58.500
G12  20355566.983   106969224.843 9     -1346.889          54.000    20355567.013   106969224.843 7     -1346.889          46.750    20355564.633    83352642.676 8     -1049.530          51.250    20355564.493    83352642.677 7     -1049.518          46.750
G29  22434306.949   117893080.241 8      2934.353          49.500    22434307.119   117893079.239 6      2934.353          41.750    22434306.029    91864738.207 7      2286.514          47.500    22434305.789    91864737.217 6      2286.530          41.750
> 2015 09 03 07 46 26.0000000  0  8      -0.000127013037
G02  20735356.241   108965031.846 8      -101.601          51.500    20735355.551   108965031.841 7      -101.601          45.000                                                                    20735351.911    84907816.648 7       -79.176          45.000
G05  24315132.839   127776883.878 7      3499.922          44.500    24315133.229   127776883.897 5      3499.922          33.000    24315134.509    99566404.564 7      2727.199          42.000    24315134.239    99566403.566 5      2727.197          33.000
G06  21996221.007   115590920.001 8     -2425.791          50.000    21996221.377   115590920.001 6     -2425.791          41.500    21996223.297    90070846.693 8     -1890.212          48.750    21996223.287    90070847.696 6     -1890.223          41.500    21996223.257    86317895.050 9     -1811.465          54.500
G31  23621156.607   124130019.309 8      2028.805          48.000    23621156.777   124130017.307 6      2028.805          38.750    23621156.257    96724691.227 7      1580.888          46.000    23621156.637    96724689.230 6      1580.887          38.750
G24  24629705.623   129429975.224 6     -3663.517          39.000    24629705.933   129429972.216 4     -3663.517          28.000    24629710.163   100854524.803 7     -2854.704          44.250    24629710.353   100854523.809 4     -2854.739          28.000    24629710.703    96652253.489 8     -2735.764          50.750
G25  20639950.732   108463673.769 8      1380.340          53.500    20639950.512   108463674.770 7      1380.340          46.000    20639952.342    84517148.731 8      1075.573          53.000    20639952.202    84517148.730 7      1075.564          46.000    20639951.602    80995600.681 9      1030.762          58.250
G12  20355823.456   106970572.069 9     -1347.481          54.000    20355823.386   106970572.066 7     -1347.481          46.750    20355821.146    83353692.463 8     -1049.972          51.250    20355820.946    83353692.460 7     -1049.969          46.750
G29  22433748.835   117890146.051 8      2934.104          49.500    22433748.595   117890145.053 6      2934.104          41.750    22433747.715    91862451.825 7      2286.310          47.750    22433747.545    91862450.837 6      2286.304          41.750
> 2015 09 03 07 46 27.0000000  0  8      -0.000127035961
G02  20735375.535   108965133.893 8      -102.220          51.500    20735375.075   108965133.888 7      -102.220          45.000                                                                    20735371.355    84907896.165 7       -79.655          45.000
G05  24314466.994   127773384.145 7      3499.770          44.750    24314467.294   127773384.167 5      3499.770          33.000    24314468.554    99563677.509 6      2727.099          41.750    24314467.874    99563676.515 5      2727.072          33.000
G06  21996682.553   115593346.158 8     -2426.280          50.000    21996683.083   115593346.154 6     -2426.280          41.500    21996685.133    90072737.203 8     -1890.596          48.500    21996685.143    90072738.204 6     -1890.604          41.500    21996684.923    86319706.788 9     -1811.829          54.500
G31  23620770.822   124127990.959 7      2028.194          47.750    23620771.072   124127988.953 6      2028.194          38.750    23620770.602    96723110.696 7      1580.378          46.000    23620770.712    96723108.699 6      1580.367          38.750
G24  24630402.892   129433639.054 6     -3663.752          39.000    24630402.942   129433636.052 4     -3663.752          27.750    24630407.522   100857379.729 7     -2854.890          44.250    24630408.002   100857378.739 4     -2854.905          27.750    24630407.852    96654989.460 8     -2735.951          50.750
G25  20639688.186   108462293.871 8      1379.703          53.500    20639688.096   108462294.869 7      1379.703          46.000    20639689.746    84516073.486 8      1075.079          53.000    20639689.666    84516073.483 7      1075.084          46.000    20639689.026    80994570.237 9      1030.292          58.500
G12  20356079.619   106971919.941 9     -1348.049          54.000    20356079.839   106971919.937 7     -1348.049          46.750    20356077.749    83354742.752 8     -1050.433          51.250    20356077.389    83354742.753 7     -1050.432          46.750
G29  22433190.795   117887212.180 8      2933.851          49.250    22433190.265   117887211.171 6      2933.851          41.750    22433189.405    91860165.693 7      2286.120          47.750    22433189.265    91860164.701 6      2286.122          41.750
> 2015 09 03 07 46 28.0000000  0  8      -0.000127058924
G02  20735395.154   108965236.420 8      -102.756          51.500    20735394.614   108965236.418 7      -102.756          45.000                                                                    20735390.794    84907976.059 7       -80.094          45.000
G05  24313801.074   127769884.498 7      3499.655          45.000    24313801.184   127769884.513 5      3499.655          33.250    24313802.274    99560950.511 7      2726.932          42.000    24313802.304    99560949.514 5      2726.913          33.250
G06  21997144.596   115595772.699 8     -2426.738          50.250    21997144.716   115595772.696 6     -2426.738          41.500    21997147.056    90074628.011 8     -1890.955          48.750    21997146.756    90074629.018 6     -1890.970          41.500    21997146.636    86321518.814 9     -1812.171          54.500
G31  23620384.758   124125963.064 7      2027.631          47.750    23620385.288   124125961.053 6      2027.631          38.750    23620384.618    96721530.522 7      1579.968          46.000    23620384.828    96721528.529 6      1579.967          38.750
G24  24631100.488   129437302.840 6     -3663.900          39.000    24631100.248   129437299.833 4     -3663.900          28.500    24631104.618   100860234.628 7     -2855.020          44.500    24631105.478   100860233.626 4     -2855.061          28.500    24631105.088    96657725.406 8     -2736.077          50.750
G25  20639425.751   108460914.455 8      1379.161          53.500    20639425.421   108460915.453 7      1379.161          46.000    20639427.181    84514998.615 8      1074.664          53.000    20639427.091    84514998.615 7      1074.653          46.000    20639426.531    80993540.156 9      1029.880          58.500
G12  20356336.347   106973268.311 9     -1348.645          54.250    20356336.477   106973268.307 7     -1348.645          46.750    20356334.157    83355793.425 8     -1050.879          51.250    20356333.967    83355793.428 7     -1050.878          46.750
G29  22432632.147   117884278.475 8      2933.615          49.250    22432631.977   117884277.473 6      2933.615          41.750    22432631.097    91857879.693 7      2285.900          47.750    22432630.977    91857878.696 6      2285.920          41.750
> 2015 09 03 07 46 29.0000000  0  8      -0.000127081933
G02  20735414.763   108965339.432 8      -103.292          51.500    20735414.273   108965339.432 7      -103.292          45.000                                                                    20735410.553    84908056.328 7       -80.522          45.000
G05  24313135.262   127766384.900 7      3499.510          45.500    24313135.612   127766384.905 5      3499.510          33.250    24313136.002    99558223.549 6      2726.906          41.750    24313136.502    99558222.557 5      2726.912          33.250
G06  21997606.159   115598199.621 8     -2427.154          50.250    21997606.589   115598199.616 6     -2427.154          41.500    21997608.829    90076519.118 8     -1891.312          48.750    21997608.649    90076520.119 6     -1891.300          41.500    21997608.499    86323331.125 9     -1812.509          54.250
G31  23619998.775   124123935.649 7      2027.149          47.500    23619999.525   124123933.641 6      2027.149          38.750    23619998.915    96719950.718 7      1579.639          46.000    23619999.205    96719948.716 6      1579.633          38.750
G24  24631796.633   129440966.592 6     -3663.951          38.500    24631797.233   129440963.591 4     -3663.951          28.250    24631802.133   100863089.499 7     -2854.975          44.500    24631802.253   100863088.494 4     -2854.940          28.250    24631802.193    96660461.318 8     -2736.028          50.750
G25  20639163.423   108459535.528 8      1378.683          53.500    20639163.013   108459536.528 7      1378.683          46.250    20639164.863    84513924.129 8      1074.262          53.000    20639164.793    84513924.125 7      1074.264          46.250    20639164.113    80992510.438 9      1029.494          58.500
G12  20356593.134   106974617.174 9     -1349.150          54.250    20356593.054   106974617.170 7     -1349.150          47.000    20356590.734    83356844.491 8     -1051.314          51.250    20356590.634    83356844.491 7     -1051.311          47.000
G29  22432073.709   117881344.929 8      2933.469          49.000    22432073.689   117881343.918 6      2933.469          41.750    22432073.219    91855593.815 7      2285.805          47.750    22432072.659    91855592.826 6      2285.802          41.750
> 2015 09 03 07 46 30.0000000  0  8      -0.000127104816
G02  20735434.624   108965443.219 8      -103.937          51.500    20735433.944   108965443.216 7      -103.937          45.000                                                                    20735430.264    84908137.200 7       -80.997          45.000
G05  24312469.006   127762885.667 7      3499.334          45.500    24312469.756   127762885.667 5      3499.334          33.500    24312470.956    99555496.869 6      2726.771          41.750    24312470.586    99555495.878 5      2726.740          33.500
G06  21998068.130   115600627.220 8     -2427.748          50.250    21998068.590   115600627.214 6     -2427.748          41.500    21998070.850    90078410.747 8     -1891.700          48.750    21998070.670    90078411.752 6     -1891.725          41.500    21998070.380    86325143.938 9     -1812.896          54.250
G31  23619612.888   124121909.010 7      2026.533          47.250    23619613.608   124121907.001 6      2026.533          38.750    23619613.288    96718371.520 7      1579.124          46.250    23619613.278    96718369.519 6      1579.137          38.750
G24  24632493.426   129444630.610 6     -3663.962          38.750    24632494.286   129444627.613 4     -3663.962          28.500    24632498.956   100865944.572 7     -2855.057          44.500    24632499.506   100865943.564 4     -2855.066          28.500    24632499.316    96663197.434 8     -2736.106          50.750
G25  20638900.961   108458157.389 8      1377.932          53.500    20638900.641   108458158.384 7      1377.932          46.250    20638902.401    84512850.251 8      1073.731          53.000    20638902.501    84512850.248 7      1073.733          46.250    20638901.901    80991481.307 9      1028.985          58.500
G12  20356850.059   106975966.826 9     -1349.840          54.250    20356849.909   106975966.821 7     -1349.840          47.000    20356847.639    83357896.165 8     -1051.807          51.000    20356847.589    83357896.165 7     -1051.805          47.000
G29  22431515.315   117878411.866 8      2932.985          48.750    22431515.535   117878410.859 6      2932.985          41.750    22431514.585    91853308.312 7      2285.461          47.750    22431514.525    91853307.315 6      2285.479          41.750
> 2015 09 03 07 46 31.0000000  0  8      -0.000127127634
G02  20735454.489   108965547.638 8      -104.745          51.750    20735453.869   108965547.633 7      -104.745          45.000                                                                    20735450.049    84908218.564 7       -81.598          45.000
G05  24311803.662   127759386.638 7      3498.988          45.500    24311803.922   127759386.637 5      3498.988          33.500    24311804.462    99552770.367 6      2726.452          41.750    24311804.372    99552769.367 5      2726.455          33.500
G06  21998530.311   115603055.346 8     -2428.402          50.250    21998530.601   115603055.338 6     -2428.402          41.250    21998532.731    90080302.797 8     -1892.270          48.750    21998532.651    90080303.798 6     -1892.276          41.250    21998532.431    86326957.150 9     -1813.430          54.250
G31  23619227.592   124119882.987 7      2025.747          47.250    23619227.752   124119880.982 6      2025.747          38.750    23619227.852    96716792.808 7      1578.474          46.250    23619227.572    96716790.814 6      1578.450          38.750
G24  24633191.465   129448294.756 6     -3664.192          38.500    24633191.875   129448291.751 4     -3664.192          28.000    24633196.255   100868799.740 7     -2855.209          44.250    24633196.455   100868798.733 4     -2855.206          28.000    24633196.635    96665933.638 8     -2736.251          50.750
G25  20638638.811   108456779.863 8      1377.245          53.500    20638638.601   108456780.864 7      1377.245          46.250    20638640.441    84511776.856 8      1073.161          53.000    20638640.301    84511776.853 7      1073.167          46.250    20638639.751    80990452.637 9      1028.444          58.500
G12  20357106.915   106977317.118 9     -1350.569          54.250    20357106.835   106977317.116 7     -1350.569          46.750    20357104.585    83358948.341 8     -1052.418          51.000    20357104.485    83358948.341 7     -1052.428          46.750
G29  22430957.533   117875479.086 8      2932.660          48.750    22430957.373   117875478.078 6      2932.660          41.500    22430956.693    91851023.029 7      2285.178          47.500    22430956.243    91851022.041 6      2285.164          41.500
> 2015 09 03 07 46 32.0000000  0  8      -0.000127150486
G02  20735474.485   108965652.539 8      -105.336          51.750    20735473.785   108965652.534 7      -105.336          45.250                                                                    20735469.945    84908300.308 7       -82.075          45.250
G05  24311137.858   127755887.686 7      3498.758          45.500    24311138.258   127755887.675 5      3498.758          33.250    24311139.398    99550043.908 6      2726.364          41.750    24311138.348    99550042.904 5      2726.362          33.250
G06  21998992.615   115605483.860 8     -2428.930          50.500    21998992.635   115605483.854 6     -2428.930          41.500    21998995.075    90082195.144 8     -1892.679          48.750    21998994.875    90082196.146 6     -1892.719          41.500    21998994.545    86328770.649 9     -1813.827          54.250
G31  23618842.257   124117857.431 7      2025.128          47.500    23618842.357   124117855.420 6      2025.128          38.750    23618842.627    96715214.453 7      1578.022          46.250    23618842.237    96715212.452 6      1578.008          38.750
G24  24633888.177   129451958.855 6     -3664.308          38.000    24633888.227   129451955.861 4     -3664.308          27.000    24633893.847   100871654.879 7     -2855.243          44.250    24633893.807   100871653.887 4     -2855.210          27.000    24633893.667    96668669.813 8     -2736.279          50.500
G25  20638376.843   108455402.837 8      1376.595          53.500    20638376.523   108455403.835 7      1376.595          46.250    20638378.443    84510703.850 8      1072.657          53.000    20638378.363    84510703.847 7      1072.669          46.250    20638377.663    80989424.341 9      1027.965          58.750
G12  20357363.900   106978667.899 9     -1351.205          54.250    20357363.940   106978667.896 7     -1351.205          46.750    20357361.610    83360000.898 8     -1052.885          51.000    20357361.490    83360000.898 7     -1052.886          46.750
G29  22430399.056   117872546.480 8      2932.355          48.500    22430399.436   117872545.478 6      2932.355          41.500    22430398.336    91848737.886 7      2284.968          47.500    22430398.236    91848736.897 6      2284.959          41.500
> 2015 09 03 07 46 33.0000000  0  8      -0.000127173311
G02  20735494.601   108965758.014 8      -105.655          51.500    20735493.971   108965758.009 7      -105.655          45.250                                                                    20735490.061    84908382.494 7       -82.356          45.250
G05  24310472.352   127752388.885 7      3498.826          45.500    24310471.882   127752388.880 5      3498.826          33.500    24310472.862    99547317.568 6      2726.412          41.750    24310473.172    99547316.579 5      2726.404          33.500
G06  21999454.515   115607912.826 8     -2429.109          50.500    21999455.035   115607912.821 6     -2429.109          41.250    21999456.975    90084087.842 8     -1892.793          48.750    21999456.895    90084088.846 6     -1892.808          41.250    21999456.735    86330584.485 9     -1813.938          54.250
G31  23618457.065   124115832.440 7      2024.786          47.500    23618457.155   124115830.441 6      2024.786          38.750    23618457.285    96713636.546 7      1577.728          46.250    23618456.595    96713634.540 6      1577.759          38.750
G24  24634586.052   129455623.020 6     -3664.076          37.750    24634585.982   129455620.023 4     -3664.076          27.250    24634591.082   100874510.065 7     -2855.077          44.250    24634591.082   100874509.057 4     -2855.052          27.250    24634591.102    96671406.029 8     -2736.108          50.500
G25  20638114.758   108454026.367 8      1376.270          53.500    20638114.668   108454027.369 7      1376.270          46.250    20638116.528    84509631.276 8      1072.448          53.000    20638116.268    84509631.277 7      1072.453          46.250    20638115.768    80988396.457 9      1027.763          58.750
G12  20357621.146   106980019.270 9     -1351.606          54.250    20357621.016   106980019.268 7     -1351.606          46.750    20357618.856    83361053.916 8     -1053.212          51.000    20357618.686    83361053.915 7     -1053.209          46.750
G29  22429841.070   117869614.129 8      2932.264          48.500    22429841.340   117869613.130 6      2932.264          41.500    22429840.610    91846452.944 7      2284.925          47.500    22429840.330    91846451.956 6      2284.900          41.500
> 2015 09 03 07 46 34.0000000  0  8      -0.000127196074
G02  20735514.612   108965864.144 8      -106.512          51.250    20735514.072   108965864.141 7      -106.512          45.250                                                                    20735510.352    84908465.195 7       -83.000          45.250
G05  24309806.540   127748890.320 7      3498.454          45.500    24309806.440   127748890.313 5      3498.454          33.250    24309807.180    99544591.421 6      2726.041          41.750    24309807.560    99544590.423 5      2726.046          33.250
G06  21999917.088   115610342.361 8     -2429.886          50.250    21999917.328   115610342.356 6     -2429.886          41.250    21999919.628    90085980.986 8     -1893.422          48.500    21999919.468    90085981.988 6     -1893.408          41.250    21999919.008    86332398.748 9     -1814.531          54.250
G31  23618071.739   124113808.099 7      2023.968          47.500    23618072.079   124113806.098 6      2023.968          39.000    23618072.229    96712059.138 7      1577.100          46.250    23618071.769    96712057.133 6      1577.113          39.000
G24  24635283.051   129459287.330 6     -3664.449          37.750    24635283.941   129459284.336 4     -3664.449          27.000    24635288.371   100877365.365 7     -2855.348          44.250    24635288.501   100877364.370 4     -2855.370          27.000    24635288.251    96674142.359 8     -2736.374          50.500
G25  20637853.127   108452650.569 8      1375.461          53.750    20637852.837   108452651.570 7      1375.461          46.250    20637854.667    84508559.229 8      1071.772          53.000    20637854.637    84508559.227 7      1071.776          46.250    20637853.957    80987369.077 9      1027.116          58.750
G12  20357878.296   106981371.300 9     -1352.378          54.000    20357878.426   106981371.297 7     -1352.378          47.000    20357876.166    83362107.445 8     -1053.813          51.250    20357875.946    83362107.444 7     -1053.817          47.000
G29  22429282.988   117866682.115 8      2931.824          48.250    22429283.288   117866681.112 6      2931.824          41.500    22429282.658    91844168.262 7      2284.524          47.500    22429282.548    91844167.268 6      2284.524          41.500
> 2015 09 03 07 46 35.0000000  0  8      -0.000127218749
G02  20735535.028   108965970.972 8      -107.125          51.500    20735534.288   108965970.973 7      -107.125          45.250                                                                    20735530.598    84908548.440 7       -83.500          45.250
G05  24309140.686   127745392.037 7      3498.147          45.500    24309140.816   127745392.029 5      3498.147          33.250    24309141.466    99541865.481 6      2725.873          41.750    24309141.546    99541864.496 5      2725.870          33.250
G06  22000379.281   115612772.497 8     -2430.411          50.000    22000379.821   115612772.492 6     -2430.411          41.500    22000382.011    90087874.598 8     -1893.839          48.750    22000381.751    90087875.602 6     -1893.843          41.500    22000381.511    86334213.459 9     -1814.929          54.250
G31  23617686.641   124111784.437 7      2023.418          47.500    23617686.901   124111782.432 6      2023.418          39.000    23617686.831    96710482.258 7      1576.715          46.500    23617686.421    96710480.252 6      1576.715          39.000
G24  24635980.237   129462951.820 6     -3664.485          37.250    24635980.767   129462948.822 4     -3664.485          26.750    24635985.537   100880220.806 7     -2855.414          44.000    24635985.527   100880219.819 4     -2855.422          26.750    24635985.687    96676878.825 8     -2736.455          50.500
G25  20637591.366   108451275.470 8      1374.839          53.750    20637591.096   108451276.471 7      1374.839          46.250    20637593.096    84507487.721 8      1071.325          53.000    20637592.976    84507487.723 7      1071.314          46.250    20637592.256    80986342.217 9      1026.685          58.750
G12  20358135.644   106982724.046 9     -1353.042          54.000    20358135.774   106982724.041 7     -1353.042          46.750    20358133.594    83363161.530 8     -1054.295          51.000    20358133.324    83363161.531 7     -1054.282          46.750
G29  22428724.832   117863750.468 8      2931.560          48.250    22428725.392   117863749.468 6      2931.560          41.500    22428724.362    91841883.864 7      2284.349          47.500    22428724.592    91841882.868 6      2284.359          41.500
> 2015 09 03 07 46 36.0000000  0  8      -0.000127241348
G02  20735555.489   108966078.444 8      -107.836          51.500    20735554.799   108966078.438 7      -107.836          45.250                                                                    20735551.069    84908632.180 7       -84.005          45.250
G05  24308474.994   127741893.967 7      3498.074          45.500    24308475.064   127741893.964 5      3498.074          33.250    24308476.134    99539139.721 7      2725.703          42.000    24308475.554    99539138.733 5      2725.681          33.250
G06  22000841.858   115615203.161 8     -2430.970          49.750    22000842.338   115615203.154 6     -2430.970          41.500    22000844.608    90089768.615 8     -1894.220          48.750    22000844.438    90089769.621 6     -1894.245          41.500    22000843.978    86336028.562 9     -1815.311          54.250
G31  23617301.836   124109761.420 7      2022.783          47.500    23617301.866   124109759.408 6      2022.783          39.000    23617301.956    96708905.882 7      1576.203          46.500    23617301.536    96708903.868 6      1576.226          39.000
G24  24636678.121   129466616.469 6     -3664.823          37.500    24636678.051   129466613.472 4     -3664.823          27.000    24636682.931   100883076.370 7     -2855.635          44.000    24636683.231   100883075.375 4     -2855.632          27.000    24636683.021    96679615.407 8     -2736.663          50.250
G25  20637329.866   108449901.013 8      1374.126          53.750    20637329.626   108449902.014 7      1374.126          46.250    20637331.366    84506416.717 8      1070.758          53.000    20637331.286    84506416.718 7      1070.754          46.250    20637330.726    80985315.837 9      1026.151          58.750
G12  20358393.187   106984077.449 8     -1353.739          53.750    20358393.257   106984077.446 7     -1353.739          46.750    20358391.107    83364216.130 8     -1054.884          51.000    20358390.887    83364216.131 7     -1054.874          46.750
G29  22428167.278   117860819.168 8      2931.128          48.250    22428167.788   117860818.178 6      2931.128          41.250    22428166.998    91839599.742 7      2283.971          47.250    22428166.648    91839598.749 6      2283.957          41.250
> 2015 09 03 07 46 37.0000000  0  8      -0.000127263916
G02  20735575.961   108966186.508 8      -108.540          51.500    20735575.401   108966186.502 7      -108.540          45.250                                                                    20735571.571    84908716.392 7       -84.569          45.250
G05  24307809.257   127738396.094 7      3497.615          45.000    24307808.837   127738396.088 5      3497.615          33.000    24307810.417    99536414.112 7      2725.416          42.000    24307810.077    99536413.113 5      2725.479          33.000
G06  22001304.459   115617634.320 8     -2431.538          49.750    22001304.809   115617634.317 6     -2431.538          41.500    22001307.319    90091663.032 8     -1894.718          48.750    22001306.729    90091664.031 6     -1894.726          41.500    22001306.599    86337844.040 9     -1815.766          54.500
G31  23616916.951   124107738.980 7      2022.036          47.750    23616917.201   124107736.980 6      2022.036          39.000    23616916.991    96707329.960 7      1575.604          46.250    23616916.611    96707327.957 6      1575.605          39.000
G24  24637375.432   129470281.173 6     -3664.816          37.250    24637375.042   129470278.163 4     -3664.816          26.500    24637380.192   100885931.978 7     -2855.772          44.000    24637379.962   100885930.971 4     -2855.792          26.500    24637380.362    96682352.027 8     -2736.781          50.500
G25  20637068.573   108448527.151 8      1373.421          53.750    20637068.173   108448528.152 7      1373.421          46.250    20637069.993    84505346.174 8      1070.183          53.000    20637069.933    84505346.175 7      1070.182          46.250    20637069.303    80984289.901 9      1025.595          58.750
G12  20358650.873   106985431.448 8     -1354.432          53.500    20358651.013   106985431.445 7     -1354.432          46.750    20358648.863    83365271.191 8     -1055.406          51.000    20358648.523    83365271.194 7     -1055.402          46.750
G29  22427609.586   117857888.131 8      2930.734          48.250    22427610.106   117857887.131 6      2930.734          41.250    22427608.866    91837315.818 7      2283.713          47.250    22427608.706    91837314.824 6      2283.727          41.250
> 2015 09 03 07 46 38.0000000  0  8      -0.000127286462
G02  20735596.683   108966295.135 8      -108.965          51.500    20735596.143   108966295.130 7      -108.965          45.250                                                                    20735592.413    84908801.034 7       -84.890          45.250
G05  24307143.721   127734898.351 7      3497.573          45.250    24307144.211   127734898.350 5      3497.573          32.500    24307144.741    99533688.597 7      2725.420          42.000    24307144.711    99533687.610 5      2725.392          32.500
G06  22001767.380   115620065.942 8     -2431.926          49.750    22001767.540   115620065.939 6     -2431.926          41.500    22001770.340    90093557.801 8     -1894.998          48.750    22001769.740    90093558.804 6     -1894.979          41.500    22001769.350    86339659.860 9     -1816.036          54.500
G31  23616532.377   124105717.087 7      2021.547          47.750    23616532.377   124105715.088 6      2021.547          38.750    23616531.777    96705754.462 7      1575.268          46.250    23616531.907    96705752.463 6      1575.242          38.750
G24  24638072.252   129473945.943 6     -3665.018          37.500    24638072.432   129473942.932 4     -3665.018          26.750    24638077.492   100888787.637 7     -2855.897          43.750    24638077.222   100888786.637 4     -2855.851          26.750    24638077.722    96685088.698 8     -2736.915          50.500
G25  20636807.412   108447153.850 8      1372.986          53.750    20636806.892   108447154.849 7      1372.986          46.250    20636808.692    84504276.072 8      1069.879          53.000    20636808.542    84504276.071 7      1069.879          46.250    20636807.942    80983264.386 9      1025.304          58.750
G12  20358908.740   106986786.017 8     -1354.921          53.500    20358908.740   106986786.012 7     -1354.921          47.000    20358906.630    83366326.701 8     -1055.765          51.250    20358906.310    83366326.701 7     -1055.745          47.000
G29  22427052.356   117854957.343 8      2930.623          48.250    22427052.076   117854956.346 6      2930.623          41.500    22427051.056    91835032.091 7      2283.593          47.250    22427051.126    91835031.097 6      2283.592          41.500
> 2015 09 03 07 46 39.0000000  0  8      -0.000127308972
G02  20735617.576   108966404.417 8      -109.598          51.750    20735616.956   108966404.415 7      -109.598          45.250                                                                    20735613.186    84908886.192 7       -85.382          45.250
G05  24306477.651   127731400.842 7      3497.395          44.750    24306477.641   127731400.827 5      3497.395          32.750    24306479.751    99530963.273 7      2725.267          42.250    24306479.241    99530962.278 5      2725.297          32.750
G06  22002229.933   115622498.115 8     -2432.415          49.750    22002230.493   115622498.113 6     -2432.415          41.500    22002232.783    90095453.002 8     -1895.413          48.750    22002232.493    90095453.996 6     -1895.387          41.500    22002232.153    86341476.092 9     -1816.422          54.500
G31  23616147.461   124103695.840 8      2020.938          48.000    23616147.641   124103693.836 6      2020.938          39.000    23616147.701    96704179.465 7      1574.809          46.000    23616147.541    96704177.469 6      1574.786          39.000
G24  24638769.779   129477610.758 6     -3664.574          37.500    24638770.239   129477607.740 4     -3664.574          27.500    24638774.639   100891643.318 7     -2855.502          43.750    24638774.739   100891642.322 4     -2855.551          27.500    24638775.039    96687825.384 8     -2736.502          50.500
G25  20636546.058   108445781.202 8      1372.373          53.750    20636545.648   108445782.200 7      1372.373          46.250    20636547.518    84503206.476 8      1069.387          53.000    20636547.308    84503206.472 7      1069.394          46.250    20636546.718    80982239.356 9      1024.833          58.750
G12  20359166.813   106988141.256 8     -1355.551          53.750    20359166.553   106988141.251 7     -1355.551          47.000    20359164.133    83367382.732 8     -1056.274          51.000    20359164.173    83367382.732 7     -1056.269          47.000
G29  22426494.649   117852026.890 8      2930.318          48.500    22426494.469   117852025.896 6      2930.318          41.250    22426493.469    91832748.622 7      2283.351          47.250    22426493.709    91832747.632 6      2283.344          41.250
> 2015 09 03 07 46 40.0000000  0  8      -0.000127331515
G02  20735638.375   108966514.155 8      -109.990          51.500    20735637.845   108966514.153 7      -109.990          45.250                                                                    20735634.135    84908971.703 7       -85.741          45.250
G05  24305812.432   127727903.375 7      3497.441          44.500    24305812.122   127727903.374 5      3497.441          32.500    24305813.972    99528237.988 7      2725.240          42.250    24305813.682    99528236.990 5      2725.262          32.500
G06  22002693.035   115624930.632 8     -2432.688          50.000    22002693.535   115624930.625 6     -2432.688          41.500    22002695.795    90097348.464 8     -1895.612          48.750    22002695.135    90097349.467 6     -1895.605          41.500    22002695.045    86343292.578 9     -1816.623          54.500
G31  23615763.265   124101675.045 8      2020.610          48.000    23615763.255   124101673.040 6      2020.610          39.000    23615763.135    96702604.815 7      1574.490          46.000    23615762.665    96702602.811 6      1574.499          39.000
G24  24639467.612   129481275.582 6     -3664.619          38.000    24639467.982   129481272.572 4     -3664.619          26.750    24639472.122   100894499.023 7     -2855.583          43.750    24639472.272   100894498.024 4     -2855.559          26.750    24639472.492    96690562.101 8     -2736.615          50.500
G25  20636284.954   108444409.008 8      1371.961          53.750    20636284.464   108444410.009 7      1371.961          46.250    20636286.324    84502137.238 8      1069.043          53.000    20636286.204    84502137.237 7      1069.039          46.250    20636285.614    80981214.668 9      1024.504          58.750
G12  20359424.611   106989496.960 8     -1355.966          53.500    20359424.661   106989496.958 7     -1355.966          46.750    20359422.261    83368439.122 8     -1056.609          51.250    20359422.271    83368439.126 7     -1056.624          46.750
G29  22425937.047   117849096.573 8      2930.278          48.500    22425937.047   117849095.574 6      2930.278          41.250    22425935.727    91830465.258 7      2283.323          47.000    22425935.987    91830464.264 6      2283.340          41.250
> 2015 09 03 07 46 41.0000000  0  8      -0.000127353921
G02  20735659.265   108966624.646 8      -110.943          51.500    20735658.865   108966624.642 7      -110.943          45.250                                                                    20735655.035    84909057.798 7       -86.468          45.250
G05  24305146.818   127724406.243 7      3496.878          44.250    24305146.728   127724406.241 5      3496.878          32.750    24305148.358    99525512.962 7      2724.807          42.000    24305148.398    99525511.962 5      2724.844          32.750
G06  22003156.127   115627363.803 8     -2433.585          50.250    22003156.557   115627363.798 6     -2433.585          41.500    22003158.917    90099244.441 8     -1896.274          48.750    22003158.477    90099245.444 6     -1896.278          41.500    22003158.027    86345109.558 9     -1817.279          54.500
G31  23615379.126   124099654.982 8      2019.658          48.000    23615378.426   124099652.977 6      2019.658          38.750    23615378.316    96701030.739 7      1573.765          45.750    23615378.526    96701028.743 6      1573.738          38.750
G24  24640165.097   129484940.633 6     -3665.284          38.500    24640165.087   129484937.612 4     -3665.284          27.750    24640169.607   100897354.899 7     -2856.059          43.750    24640169.847   100897353.899 4     -2856.059          27.750    24640169.957    96693298.978 8     -2737.019          50.500
G25  20636023.823   108443037.564 8      1371.025          53.750    20636023.513   108443038.565 7      1371.025          46.250    20636025.343    84501068.577 8      1068.342          53.000    20636025.263    84501068.576 7      1068.346          46.250    20636024.663    80980190.538 9      1023.830          58.500
G12  20359682.768   106990853.424 8     -1356.930          53.500    20359682.708   106990853.421 7     -1356.930          47.000    20359680.598    83369496.109 8     -1057.353          51.250    20359680.308    83369496.108 7     -1057.353          47.000
G29  22425379.673   117846166.701 8      2929.544          48.500    22425379.503   117846165.697 6      2929.544          41.250    22425378.263    91828182.240 7      2282.814          47.000    22425378.483    91828181.249 6      2282.795          41.250
> 2015 09 03 07 46 42.0000000  0  8      -0.000127376277
G02  20735680.505   108966735.763 8      -111.519          51.500    20735679.845   108966735.759 7      -111.519          45.250                                                                    20735676.115    84909144.384 7       -86.918          45.250
G05  24304481.096   127720909.323 7      3496.799          44.250    24304481.016   127720909.323 5      3496.799          32.500    24304483.406    99522788.091 7      2724.779          42.250    24304482.316    99522787.098 5      2724.764          32.500
G06  22003619.117   115629797.499 8     -2434.008          50.250    22003619.677   115629797.491 6     -2434.008          41.500    22003621.897    90101140.828 8     -1896.616          48.750    22003621.557    90101141.827 6     -1896.602          41.500    22003621.187    86346926.928 9     -1817.580          54.500
G31  23614994.442   124097635.550 8      2019.135          48.000    23614994.662   124097633.537 6      2019.135          38.750    23614994.202    96699457.156 7      1573.339          46.000    23614993.952    96699455.155 6      1573.347          38.750
G24  24640863.427   129488605.791 6     -3665.414          38.750    24640862.807   129488602.780 4     -3665.414          27.500    24640866.737   100900210.871 7     -2856.152          43.500    24640867.057   100900209.863 4     -2856.134          27.500    24640867.387    96696035.949 8     -2737.129          50.500
G25  20635762.935   108441666.761 8      1370.429          53.750    20635762.685   108441667.762 7      1370.429          46.250    20635764.595    84500000.419 8      1067.866          52.750    20635764.415    84500000.420 7      1067.855          46.250    20635763.775    80979166.887 9      1023.368          58.500
G12  20359940.991   106992210.526 8     -1357.505          53.750    20359941.021   106992210.523 7     -1357.505          47.000    20359938.861    83370553.590 8     -1057.791          51.250    20359938.591    83370553.590 7     -1057.789          47.000
G29  22424822.119   117843237.127 8      2929.461          48.500    22424821.899   117843236.124 6      2929.461          41.250    22424820.709    91825899.453 7      2282.696          47.000    22424820.819    91825898.465 6      2282.674          41.250
> 2015 09 03 07 46 43.0000000  0  8      -0.000127398666
G02  20735701.733   108966847.371 8      -112.013          51.500    20735701.333   108966847.368 7      -112.013          45.250                                                                    20735697.443    84909231.350 7       -87.275          45.250
G05  24303815.560   127717412.502 7      3496.535          44.000    24303815.160   127717412.511 5      3496.535          33.000    24303817.060    99520063.300 7      2724.608          42.250    24303817.660    99520062.305 5      2724.615          33.000
G06  22004082.375   115632231.598 8     -2434.434          50.250    22004082.825   115632231.594 6     -2434.434          41.500    22004084.995    90103037.528 8     -1896.963          48.750    22004084.745    90103038.531 6     -1896.967          41.500    22004084.405    86348744.596 9     -1817.918          54.500
G31  23614610.290   124095616.596 8      2018.609          48.250    23614610.400   124095614.589 6      2018.609          39.000    23614610.050    96697883.948 7      1572.938          46.000    23614609.980    96697881.947 6      1572.959          39.000
G24  24641560.169   129492270.935 6     -3665.307          39.000    24641560.309   129492267.911 4     -3665.307          28.000    24641564.149   100903066.812 7     -2856.058          43.750    24641564.499   100903065.811 4     -2856.090          28.000    24641564.789    96698772.900 8     -2737.061          50.500
G25  20635502.100   108440296.451 8      1369.964          53.750    20635501.930   108440297.455 7      1369.964          46.250    20635503.630    84498932.648 8      1067.500          53.000    20635503.600    84498932.647 7      1067.498          46.250    20635503.010    80978143.605 9      1023.025          58.500
G12  20360199.271   106993568.132 8     -1357.988          53.750    20360199.321   106993568.125 7     -1357.988          47.000    20360197.131    83371611.463 8     -1058.173          51.250    20360196.901    83371611.462 7     -1058.164          47.000
G29  22424264.577   117840307.746 8      2929.194          48.750    22424264.477   117840306.744 6      2929.194          41.250    22424263.217    91823616.816 7      2282.501          47.000    22424263.127    91823615.830 6      2282.492          41.250
> 2015 09 03 07 46 44.0000000  0  8      -0.000127420963
G02  20735723.264   108966959.690 8      -112.640          51.500    20735722.614   108966959.685 7      -112.640          45.250                                                                    20735718.914    84909318.872 7       -87.799          45.250
G05  24303150.287   127713915.945 7      3496.428          44.250    24303150.487   127713915.937 5      3496.428          32.500    24303152.237    99517338.724 7      2724.503          42.500    24303152.307    99517337.728 5      2724.509          32.500
G06  22004545.659   115634666.287 8     -2434.931          50.250    22004546.109   115634666.287 6     -2434.931          41.500    22004548.289    90104934.689 8     -1897.353          48.750    22004547.969    90104935.687 6     -1897.358          41.500    22004547.699    86350562.713 9     -1818.317          54.500
G31  23614226.241   124093598.337 8      2017.940          48.250    23614226.581   124093596.334 6      2017.940          39.000    23614226.421    96696311.285 7      1572.410          46.000    23614225.781    96696309.281 6      1572.418          39.000
G24  24642257.456   129495936.269 6     -3665.354          39.000    24642257.916   129495933.256 4     -3665.354          28.250    24642261.976   100905922.927 7     -2856.194          43.500    24642261.826   100905921.911 4     -2856.165          28.250    24642262.266    96701510.004 8     -2737.161          50.500
G25  20635241.443   108438926.857 8      1369.245          53.500    20635241.343   108438927.858 7      1369.245          46.250    20635242.973    84497865.433 8      1066.930          53.000    20635243.023    84497865.432 7      1066.939          46.250    20635242.393    80977120.857 9      1022.482          58.500
G12  20360457.591   106994926.462 8     -1358.678          53.500    20360457.891   106994926.454 7     -1358.678          47.000    20360455.801    83372669.900 8     -1058.696          51.250    20360455.391    83372669.901 7     -1058.697          47.000
G29  22423707.247   117837378.755 8      2928.805          48.750    22423707.087   117837377.753 6      2928.805          41.000    22423706.127    91821334.493 7      2282.158          47.000    22423705.897    91821333.506 6      2282.143          41.000
> 2015 09 03 07 46 45.0000000  0  8      -0.000127443271
G02  20735744.763   108967072.543 8      -113.166          51.500    20735744.013   108967072.541 7      -113.166          45.250                                                                    20735740.313    84909406.811 7       -88.201          45.250
G05  24302484.334   127710419.530 7      3496.377          44.250    24302484.724   127710419.533 5      3496.377          32.750    24302486.564    99514614.248 7      2724.336          42.500    24302487.034    99514613.253 5      2724.358          32.750
G06  22005009.117   115637101.427 8     -2435.442          50.500    22005009.597   115637101.425 6     -2435.442          41.500    22005011.537    90106832.204 8     -1897.789          48.500    22005011.397    90106833.204 6     -1897.782          41.500    22005011.167    86352381.158 9     -1818.709          54.500
G31  23613841.994   124091580.618 8      2017.398          48.250    23613842.644   124091578.617 6      2017.398          39.000    23613842.164    96694739.036 7      1571.957          46.000    23613841.554    96694737.034 6      1571.951          39.000
G24  24642954.920   129499601.634 6     -3665.547          39.500    24642955.710   129499598.625 4     -3665.547          28.500    24642959.730   100908779.058 7     -2856.292          44.000    24642960.080   100908778.056 4     -2856.286          28.500    24642959.840    96704247.125 8     -2737.262          50.750
G25  20634981.163   108437557.785 8      1368.797          53.500    20634980.733   108437558.784 7      1368.797          46.250    20634982.583    84496798.622 8      1066.551          53.000    20634982.543    84496798.622 7      1066.556          46.250    20634981.843    80976098.498 9      1022.117          58.500
G12  20360716.227   106996285.335 8     -1359.182          53.500    20360716.407   106996285.328 7     -1359.182          47.000    20360714.177    83373728.757 8     -1059.115          51.250    20360714.037    83373728.762 7     -1059.115          47.000
G29  22423149.819   117834449.962 8      2928.706          48.750    22423149.639   117834448.957 6      2928.706          41.250    22423148.579    91819052.322 7      2282.057          47.250    22423148.599    91819051.332 6      2282.047          41.250
> 2015 09 03 07 46 46.0000000  0  8      -0.000127465512
G02  20735766.291   108967186.038 8      -113.806          51.750    20735765.711   108967186.033 7      -113.806          45.250                                                                    20735761.851    84909495.250 7       -88.689          45.250
G05  24301819.682   127706923.318 7      3496.149          44.250    24301819.422   127706923.326 5      3496.149          32.750    24301822.202    99511889.938 7      2724.228          42.500    24301821.242    99511888.937 5      2724.207          32.750
G06  22005472.683   115639537.086 8     -2435.930          50.500    22005473.003   115639537.078 6     -2435.930          41.250    22005474.803    90108730.113 8     -1898.124          48.500    22005474.733    90108731.109 6     -1898.102          41.250    22005474.713    86354199.990 9     -1819.031          54.500
G31  23613458.872   124089563.519 8      2016.819          48.250    23613458.842   124089561.515 6      2016.819          39.000    23613458.162    96693167.272 7      1571.527          46.000    23613457.902    96693165.266 6      1571.535          39.000
G24  24643652.576   129503267.116 6     -3665.736          39.250    24643653.406   129503264.095 4     -3665.736          29.000    24643657.216   100911635.264 7     -2856.317          44.000    24643657.246   100911634.283 4     -2856.344          29.000    24643657.466    96706984.333 8     -2737.313          50.500
G25  20634720.697   108436189.362 8      1368.172          53.500    20634720.287   108436190.360 7      1368.172          46.250    20634722.197    84495732.319 8      1066.121          53.000    20634722.097    84495732.317 7      1066.122          46.250    20634721.437    80975076.624 9      1021.695          58.500
G12  20360975.032   106997644.856 8     -1359.854          53.500    20360975.012   106997644.848 7     -1359.854          47.000    20360972.922    83374788.128 8     -1059.620          51.250    20360972.652    83374788.129 7     -1059.610          47.000
G29  22422592.490   117831521.516 8      2928.337          48.500    22422592.460   117831520.511 6      2928.337          41.250    22422591.270    91816770.413 7      2281.801          47.000    22422591.500    91816769.424 6      2281.802          41.250
> 2015 09 03 07 46 47.0000000  0  8      -0.000127487718
G02  20735788.053   108967300.102 8      -114.240          51.500    20735787.483   108967300.096 7      -114.240          45.250                                                                    20735783.563    84909584.129 7       -89.018          45.250
G05  24301153.789   127703427.279 7      3496.083          44.000    24301154.279   127703427.297 5      3496.083          33.000    24301156.389    99509165.761 7      2724.170          42.500    24301156.519    99509164.764 5      2724.185          33.000
G06  22005936.243   115641973.208 8     -2436.234          50.250    22005936.433   115641973.206 6     -2436.234          41.250    22005938.553    90110628.392 8     -1898.363          48.250    22005938.293    90110629.390 6     -1898.355          41.250    22005938.293    86356019.173 9     -1819.262          54.250
G31  23613075.203   124087546.978 8      2016.360          48.750    23613074.963   124087544.980 6      2016.360          39.000    23613074.603    96691595.945 7      1571.214          46.000    23613074.383    96691593.946 6      1571.218          39.000
G24  24644350.388   129506932.665 6     -3665.625          39.500    24644351.028   129506929.655 4     -3665.625          28.750    24644354.578   100914491.539 7     -2856.273          44.000    24644355.148   100914490.543 4     -2856.323          28.750    24644354.948    96709721.590 8     -2737.267          50.500
G25  20634460.378   108434821.515 8      1367.730          53.500    20634460.048   108434822.515 7      1367.730          46.250    20634461.958    84494666.463 8      1065.749          53.000    20634461.678    84494666.462 7      1065.761          46.250    20634461.168    80974055.182 9      1021.341          58.500
G12  20361233.936   106999004.952 8     -1360.239          53.500    20361233.846   106999004.944 7     -1360.239          47.000    20361231.656    83375847.941 8     -1059.923          51.250    20361231.506    83375847.943 7     -1059.940          47.000
G29  22422035.371   117828593.310 8      2928.241          48.750    22422035.181   117828592.300 6      2928.241          41.250    22422034.091    91814488.695 7      2281.729          47.250    22422034.091    91814487.703 6      2281.726          41.250
> 2015 09 03 07 46 48.0000000  0  8      -0.000127509986
G02  20735809.821   108967414.632 8      -114.933          51.500    20735809.171   108967414.623 7      -114.933          45.250                                                                    20735805.401    84909673.374 7       -89.574          45.250
G05  24300489.003   127699931.288 7      3495.847          44.000    24300488.873   127699931.295 5      3495.847          32.750    24300491.523    99506441.617 7      2724.017          42.500    24300490.863    99506440.617 5      2724.020          32.750
G06  22006399.737   115644409.705 8     -2436.849          50.250    22006400.427   115644409.705 6     -2436.849          41.500    22006402.077    90112526.965 8     -1898.848          48.250    22006401.887    90112527.961 6     -1898.858          41.500    22006401.937    86357838.636 9     -1819.726          54.250
G31  23612691.376   124085530.902 8      2015.741          48.750    23612691.406   124085528.906 6      2015.741          39.000    23612690.716    96690024.976 7      1570.695          46.000    23612690.466    96690022.976 6      1570.700          39.000
G24  24645047.517   129510598.181 6     -3665.826          39.500    24645048.357   129510595.170 4     -3665.826          28.500    24645052.337   100917347.792 7     -2856.515          44.000    24645052.457   100917346.786 4     -2856.500          28.500    24645052.417    96712458.835 8     -2737.510          50.500
G25  20634200.326   108433454.142 8      1366.997          53.500    20634199.806   108433455.143 7      1366.997          46.250    20634201.596    84493600.982 8      1065.201          52.750    20634201.486    84493600.980 7      1065.199          46.250    20634200.916    80973034.092 9      1020.818          58.750
G12  20361492.801   107000365.538 8     -1360.990          53.500    20361492.741   107000365.530 7     -1360.990          46.750    20361490.521    83376908.137 8     -1060.510          51.250    20361490.441    83376908.137 7     -1060.501          46.750
G29  22421478.156   117825665.247 8      2927.825          48.750    22421478.006   117825664.246 6      2927.825          41.250    22421476.966    91812207.098 7      2281.453          47.000    22421476.996    91812206.097 6      2281.496          41.250
> 2015 09 03 07 46 49.0000000  0  8      -0.000127532242
G02  20735831.738   108967529.705 8      -115.345          51.250    20735831.008   108967529.702 7      -115.345          45.250                                                                    20735827.338    84909763.044 7       -89.931          45.250
G05  24299823.877   127696435.424 7      3495.793          44.250    24299823.917   127696435.432 5      3495.793          32.750    24299826.187    99503717.576 7      2723.985          42.500    24299825.717    99503716.577 5      2723.993          32.750
G06  22006863.723   115646846.642 8     -2437.179          50.500    22006863.943   115646846.646 6     -2437.179          41.500    22006865.853    90114425.875 8     -1899.129          48.250    22006865.863    90114426.876 6     -1899.141          41.500    22006865.743    86359658.426 9     -1820.012          54.250
G31  23612307.794   124083515.359 8      2015.325          48.750    23612307.404   124083513.361 6      2015.325          39.000    23612307.234    96688454.422 7      1570.389          45.750    23612307.134    96688452.425 6      1570.393          39.000
G24  24645745.613   129514263.727 6     -3665.644          39.250    24645745.323   129514260.721 4     -3665.644          28.250    24645749.803   100920204.051 7     -2856.385          44.000    24645749.983   100920203.058 4     -2856.425          28.250    24645750.093    96715196.082 8     -2737.398          50.750
G25  20633940.101   108432087.311 8      1366.605          53.500    20633939.771   108432088.312 7      1366.605          46.250    20633941.531    84492535.919 8      1064.862          52.750    20633941.351    84492535.915 7      1064.875          46.250    20633940.811    80972013.406 9      1020.500          58.750
G12  20361751.920   107001726.663 8     -1361.391          53.750    20361751.910   107001726.658 7     -1361.391          46.750    20361749.590    83377968.756 8     -1060.854          51.250    20361749.450    83377968.758 7     -1060.849          46.750
G29  22420921.102   117822737.415 8      2927.709          48.500    22420920.992   117822736.409 6      2927.709          41.250    22420919.612    91809925.673 7      2281.336          47.000    22420919.742    91809924.671 6      2281.360          41.250
> 2015 09 03 07 46 50.0000000  0  8      -0.000127554527
G02  20735853.746   108967645.292 8      -115.888          51.250    20735853.106   108967645.286 7      -115.888          45.250                                                                    20735849.236    84909853.108 7       -90.338          45.250
G05  24299158.539   127692939.657 7      3495.700          44.250    24299159.149   127692939.659 5      3495.700          32.500    24299161.089    99500993.616 7      2723.929          42.500    24299160.609    99500992.606 5      2723.955          32.500
G06  22007327.451   115649283.988 8     -2437.573          50.500    22007327.701   115649283.984 6     -2437.573          41.500    22007329.551    90116325.101 8     -1899.410          48.250    22007329.441    90116326.101 6     -1899.412          41.500    22007329.611    86361478.517 9     -1820.271          54.250
G31  23611924.633   124081500.321 8      2014.828          49.000    23611924.533   124081498.321 6      2014.828          39.000    23611923.583    96686884.262 7      1569.996          45.750    23611923.543    96686882.261 6      1570.020          39.000
G24  24646442.889   129517929.264 6     -3665.483          39.250    24646442.949   129517926.256 4     -3665.483          28.500    24646447.229   100923060.315 7     -2856.252          44.000    24646447.549   100923059.312 4     -2856.232          28.500    24646447.639    96717933.331 8     -2737.237          50.500
G25  20633680.135   108430721.004 8      1366.014          53.500    20633679.675   108430722.004 7      1366.014          46.250    20633681.595    84491471.261 8      1064.421          53.000    20633681.495    84491471.260 7      1064.419          46.250    20633680.795    80970993.111 9      1020.067          58.750
G12  20362010.770   107003088.318 8     -1361.979          53.750    20362010.910   107003088.314 7     -1361.979          46.750    20362008.580    83379029.786 8     -1061.291          51.250    20362008.570    83379029.785 7     -1061.280          46.750
G29  22420363.740   117819809.776 8      2927.515          48.750    22420363.820   117819808.771 6      2927.515          41.250    22420362.650    91807644.396 7      2281.182          47.000    22420362.760    91807643.395 6      2281.186          41.250
> 2015 09 03 07 46 51.0000000  0  8      -0.000127576774
G02  20735875.715   108967761.463 8      -116.499          51.000    20735875.135   108967761.456 7      -116.499          45.250                                                                    20735871.465    84909943.631 7       -90.740          45.250
G05  24298493.398   127689444.074 7      3495.515          44.250    24298493.668   127689444.090 5      3495.515          32.750    24298495.468    99498269.794 7      2723.751          42.500    24298494.868    99498268.790 5      2723.724          32.750
G06  22007791.080   115651721.818 8     -2438.054          50.750    22007791.820   115651721.813 6     -2438.054          41.500    22007793.690    90118224.706 8     -1899.787          48.250    22007793.410    90118225.706 6     -1899.796          41.500    22007793.500    86363298.972 9     -1820.633          54.500
G31  23611541.201   124079485.878 8      2014.190          49.000    23611540.981   124079483.873 6      2014.190          39.000    23611540.471    96685314.565 7      1569.480          45.750    23611540.101    96685312.568 6      1569.520          39.000
G24  24647140.725   129521594.905 6     -3665.662          39.250    24647140.715   129521591.902 4     -3665.662          29.000    24647144.865   100925916.660 7     -2856.329          44.250    24647145.445   100925915.659 4     -2856.350          29.000    24647145.235    96720670.653 8     -2737.296          50.500
G25  20633420.221   108429355.273 8      1365.450          53.500    20633419.831   108429356.274 7      1365.450          46.250    20633421.741    84490407.057 8      1063.986          53.000    20633421.521    84490407.057 7      1063.985          46.250    20633420.941    80969973.248 9      1019.656          58.750
G12  20362270.139   107004450.573 8     -1362.562          53.500    20362270.209   107004450.567 7     -1362.562          46.750    20362268.009    83380091.280 8     -1061.748          51.250    20362267.849    83380091.282 7     -1061.745          46.750
G29  22419806.840   117816882.402 8      2927.233          48.750    22419806.700   117816881.404 6      2927.233          41.250    22419805.480    91805363.329 7      2280.991          47.000    22419805.560    91805362.327 6      2281.001          41.250
> 2015 09 03 07 46 52.0000000  0  8      -0.000127598967
G02  20735897.960   108967878.263 8      -117.198          51.000    20735897.440   108967878.261 7      -117.198          45.250                                                                    20735893.670    84910034.646 7       -91.318          45.250
G05  24297828.219   127685948.694 7      3495.173          44.250    24297828.299   127685948.700 5      3495.173          32.250    24297829.689    99495546.127 7      2723.534          42.250    24297829.889    99495545.118 5      2723.515          32.250
G06  22008255.381   115654160.168 8     -2438.727          50.750    22008255.681   115654160.164 6     -2438.727          41.250    22008257.271    90120124.721 8     -1900.315          48.000    22008257.471    90120125.718 6     -1900.317          41.250    22008257.581    86365119.817 9     -1821.130          54.500
G31  23611157.997   124077472.037 8      2013.420          49.250    23611158.047   124077470.028 6      2013.420          39.000    23611157.177    96683745.334 7      1568.928          45.750    23611157.017    96683743.343 6      1568.935          39.000
G24  24647837.856   129525260.676 6     -3665.924          39.000    24647838.226   129525257.667 4     -3665.924          28.500    24647842.866   100928773.096 7     -2856.629          44.500    24647842.856   100928772.092 4     -2856.625          28.500    24647842.796    96723408.079 8     -2737.599          50.750
G25  20633160.691   108427990.177 8      1364.706          53.500    20633160.091   108427991.174 7      1364.706          46.250    20633162.041    84489343.346 8      1063.417          53.000    20633161.831    84489343.345 7      1063.417          46.250    20633161.171    80968953.859 9      1019.106          58.750
G12  20362529.384   107005813.461 8     -1363.286          53.500    20362529.524   107005813.453 7     -1363.286          46.750    20362527.204    83381153.268 8     -1062.309          51.250    20362527.134    83381153.270 7     -1062.303          46.750
G29  22419249.526   117813955.341 8      2926.855          48.500    22419249.866   117813954.339 6      2926.855          41.500    22419248.416    91803082.510 7      2280.656          47.000    22419248.636    91803081.514 6      2280.645          41.500
> 2015 09 03 07 46 53.0000000  0  8      -0.000127621089
G02  20735920.099   108967995.748 8      -117.815          50.750    20735919.769   108967995.745 7      -117.815          45.250                                                                    20735916.059    84910126.195 7       -91.813          45.250
G05  24297163.501   127682453.578 7      3495.019          44.250    24297163.281   127682453.586 5      3495.019          32.500    24297164.741    99492822.659 7      2723.432          42.000    24297164.781    99492821.643 5      2723.429          32.500
G06  22008719.460   115656599.095 8     -2439.212          50.250    22008719.780   115656599.093 6     -2439.212          41.500    22008721.780    90122025.183 8     -1900.699          48.000    22008721.590    90122026.182 6     -1900.709          41.500    22008721.720    86366941.094 9     -1821.496          54.250
G31  23610774.815   124075458.867 8      2012.859          49.250    23610774.745   124075456.860 6      2012.859          39.000    23610773.865    96682176.633 7      1568.454          45.750    23610773.815    96682174.638 6      1568.465          39.000
G24  24648534.873   129528926.574 6     -3666.027          39.250    24648536.053   129528923.567 4     -3666.027          29.000    24648540.303   100931629.626 7     -2856.603          44.500    24648540.583   100931628.627 4     -2856.641          29.000    24648540.293    96726145.586 8     -2737.590          50.750
G25  20632900.879   108426625.762 8      1364.099          53.500    20632900.389   108426626.763 7      1364.099          46.250    20632902.339    84488280.167 8      1062.934          53.000    20632902.179    84488280.169 7      1062.932          46.250    20632901.499    80967934.979 9      1018.646          58.750
G12  20362789.034   107007177.036 8     -1363.912          53.500    20362788.984   107007177.030 7     -1363.912          46.750    20362786.674    83382215.796 8     -1062.809          51.250    20362786.504    83382215.796 7     -1062.807          46.750
G29  22418692.790   117811028.646 8      2926.595          48.500    22418692.940   117811027.646 6      2926.595          41.500    22418691.380    91800801.969 7      2280.412          47.000    22418691.690    91800800.973 6      2280.399          41.500
> 2015 09 03 07 46 54.0000000  0  8      -0.000127643211
G02  20735942.689   108968113.771 8      -118.284          50.750    20735942.149   108968113.766 7      -118.284          45.250                                                                    20735938.559    84910218.161 7       -92.212          45.250
G05  24296497.812   127678958.597 7      3494.924          44.500    24296498.242   127678958.605 5      3494.924          32.750    24296500.122    99490099.304 7      2723.328          42.000    24296499.372    99490098.298 5      2723.322          32.750
G06  22009183.589   115659038.461 8     -2439.621          50.500    22009184.009   115659038.457 6     -2439.621          41.500    22009185.989    90123925.987 8     -1900.971          48.000    22009185.829    90123926.987 6     -1900.977          41.500    22009185.939    86368762.695 9     -1821.769          54.250
G31  23610391.734   124073446.229 8      2012.345          49.000    23610391.854   124073444.233 6      2012.345          39.000    23610391.274    96680608.350 7      1568.070          46.000    23610391.004    96680606.357 6      1568.065          39.000
G24  24649232.116   129532592.501 6     -3665.915          39.000    24649233.706   129532589.480 4     -3665.915          29.250    24649238.356   100934486.179 7     -2856.624          44.750    24649238.166   100934485.181 4     -2856.616          29.250    24649238.006    96728883.120 8     -2737.590          50.750
G25  20632641.229   108425261.894 8      1363.563          53.500    20632640.989   108425262.894 7      1363.563          46.250    20632642.889    84487217.412 8      1062.552          53.000    20632642.619    84487217.415 7      1062.540          46.250    20632641.979    80966916.507 9      1018.275          58.500
G12  20363048.547   107008541.160 8     -1364.399          53.500    20363048.647   107008541.152 7     -1364.399          46.750    20363046.597    83383278.750 8     -1063.153          51.250    20363046.277    83383278.751 7     -1063.153          46.750
G29  22418135.737   117808102.163 8      2926.410          48.500    22418136.107   117808101.164 6      2926.410          41.250    22418134.817    91798521.591 7      2280.344          46.750    22418134.807    91798520.596 6      2280.360          41.250
> 2015 09 03 07 46 55.0000000  0  8      -0.000127665313
G02  20735965.380   108968232.326 8      -118.690          51.000    20735964.810   108968232.326 7      -118.690          45.250                                                                    20735960.950    84910310.544 7       -92.495          45.250
G05  24295833.145   127675463.738 7      3494.963          44.500    24295832.865   127675463.744 5      3494.963          32.750    24295834.595    99487376.030 6      2723.350          41.750    24295834.105    99487375.028 5      2723.337          32.750
G06  22009647.620   115661478.261 8     -2439.846          50.500    22009648.320   115661478.258 6     -2439.846          41.500    22009650.350    90125827.128 8     -1901.204          48.250    22009649.910    90125828.126 6     -1901.228          41.500    22009650.200    86370584.622 9     -1821.987          54.500
G31  23610008.833   124071434.122 8      2012.044          49.000    23610008.613   124071432.118 6      2012.044          39.000    23610008.393    96679040.477 7      1567.829          46.000    23610008.253    96679038.479 6      1567.827          39.000
G24  24649930.557   129536258.463 6     -3665.867          39.750    24649931.607   129536255.438 4     -3665.867          28.750    24649935.347   100937342.764 7     -2856.561          44.750    24649935.697   100937341.764 4     -2856.583          28.750    24649935.587    96731620.683 8     -2737.546          50.500
G25  20632381.701   108423898.557 8      1363.261          53.500    20632381.581   108423899.558 7      1363.261          46.250    20632383.511    84486155.074 8      1062.257          53.000    20632383.201    84486155.072 7      1062.254          46.250    20632382.521    80965898.432 9      1017.995          58.500
G12  20363308.263   107009905.837 8     -1364.787          53.750    20363308.333   107009905.831 7     -1364.787          46.750    20363306.213    83384342.131 8     -1063.457          51.250    20363305.983    83384342.135 7     -1063.452          46.750
G29  22417579.094   117805175.916 8      2926.307          48.500    22417579.344   117805174.919 6      2926.307          41.500    22417577.744    91796241.398 7      2280.260          46.750    22417578.004    91796240.402 6      2280.249          41.500
> 2015 09 03 07 46 56.0000000  0  8      -0.000127687387
G02  20735987.993   108968351.515 8      -119.611          51.000    20735987.523   108968351.514 7      -119.611          45.250                                                                    20735983.683    84910403.419 7       -93.185          45.250
G05  24295167.734   127671969.085 7      3494.435          44.500    24295167.694   127671969.075 5      3494.435          32.500    24295169.094    99484652.928 6      2722.963          41.750    24295169.734    99484651.938 5      2722.930          32.500
G06  22010112.038   115663918.580 8     -2440.652          50.500    22010112.498   115663918.577 6     -2440.652          41.250    22010114.608    90127728.675 8     -1901.794          48.250    22010114.258    90127729.667 6     -1901.806          41.250    22010114.648    86372406.936 9     -1822.553          54.500
G31  23609625.935   124069422.633 8      2011.089          49.250    23609626.125   124069420.639 6      2011.089          39.250    23609625.755    96677473.093 7      1567.070          46.000    23609625.355    96677471.088 6      1567.113          39.250
G24  24650628.414   129539924.519 6     -3666.356          40.000    24650628.634   129539921.508 4     -3666.356          29.000    24650633.164   100940199.435 7     -2856.936          44.750    24650633.194   100940198.430 4     -2856.887          29.000    24650633.254    96734358.320 8     -2737.888          50.500
G25  20632122.339   108422535.858 8      1362.311          53.500    20632122.109   108422536.859 7      1362.311          46.250    20632124.039    84485093.231 8      1061.529          53.000    20632123.859    84485093.230 7      1061.523          46.250    20632123.219    80964880.832 9      1017.298          58.500
G12  20363568.090   107011271.153 8     -1365.753          53.750    20363568.190   107011271.148 7     -1365.753          46.750    20363565.800    83385406.016 8     -1064.238          51.500    20363565.750    83385406.019 7     -1064.237          46.750
G29  22417022.163   117802249.979 8      2925.696          48.750    22417022.223   117802248.977 6      2925.696          41.500    22417020.883    91793961.446 7      2279.757          46.750    22417021.163    91793960.455 6      2279.731          41.500
> 2015 09 03 07 46 57.0000000  0  8      -0.000127709429
G02  20736010.783   108968471.273 8      -119.904          51.000    20736010.183   108968471.269 7      -119.904          45.250                                                                    20736006.493    84910496.736 7       -93.414          45.250
G05  24294503.026   127668474.592 7      3494.599          44.250    24294503.056   127668474.590 5      3494.599          32.500    24294504.506    99481929.940 6      2723.132          41.750    24294504.936    99481928.950 5      2723.119          32.500
G06  22010576.602   115666359.371 8     -2440.848          50.000    22010577.042   115666359.372 6     -2440.848          41.250    22010578.962    90129630.589 8     -1901.962          48.250    22010578.962    90129631.587 6     -1901.967          41.250    22010579.132    86374229.605 9     -1822.706          54.250
G31  23609243.187   124067411.711 8      2010.824          49.250    23609243.427   124067409.720 6      2010.824          39.250    23609242.657    96675906.139 7      1566.876          45.750    23609242.787    96675904.140 6      1566.860          39.250
G24  24651325.941   129543590.603 6     -3665.921          40.250    24651326.281   129543587.587 4     -3665.921          29.250    24651330.461   100943056.111 7     -2856.524          44.750    24651330.711   100943055.113 4     -2856.516          29.250    24651330.911    96737095.970 8     -2737.494          50.750
G25  20631863.132   108421173.730 8      1362.000          53.500    20631862.922   108421174.731 7      1362.000          46.250    20631864.802    84484031.832 8      1061.308          53.000    20631864.452    84484031.830 7      1061.309          46.250    20631863.992    80963863.658 9      1017.087          58.500
G12  20363827.941   107012637.053 8     -1366.025          53.750    20363828.031   107012637.043 7     -1366.025          46.750    20363825.801    83386470.350 8     -1064.434          51.250    20363825.731    83386470.354 7     -1064.446          46.750
G29  22416465.440   117799324.298 8      2925.695          48.750    22416465.840   117799323.294 6      2925.695          41.500    22416464.270    91791681.699 7      2279.748          47.000    22416464.620    91791680.705 6      2279.750          41.500
> 2015 09 03 07 46 58.0000000  0  8      -0.000127731384
G02  20736033.724   108968591.713 8      -120.787          50.750    20736033.254   108968591.710 7      -120.787          45.000                                                                    20736029.414    84910590.585 7       -94.114          45.000
G05  24293838.056   127664980.381 7      3494.112          44.000    24293838.416   127664980.387 5      3494.112          32.750    24293839.596    99479207.183 7      2722.698          42.000    24293839.556    99479206.190 5      2722.690          32.750
G06  22011041.298   115668800.748 8     -2441.679          50.250    22011041.828   115668800.747 6     -2441.679          41.250    22011043.578    90131532.957 8     -1902.620          48.250    22011043.648    90131533.957 6     -1902.604          41.250    22011043.708    86376052.708 9     -1823.347          54.500
G31  23608860.739   124065401.476 8      2009.914          49.250    23608860.759   124065399.475 6      2009.914          39.250    23608860.359    96674339.723 7      1566.132          45.750    23608859.979    96674337.717 6      1566.125          39.250
G24  24652023.336   129547256.901 6     -3666.343          40.000    24652024.486   129547253.885 4     -3666.343          29.000    24652028.396   100945912.976 7     -2856.989          44.500    24652028.256   100945911.964 4     -2856.978          29.000    24652028.486    96739833.797 8     -2737.945          50.500
G25  20631604.280   108419812.296 8      1361.048          53.500    20631603.850   108419813.298 7      1361.048          46.250    20631605.730    84482970.975 8      1060.545          53.000    20631605.520    84482970.973 7      1060.547          46.250    20631604.920    80962847.004 9      1016.351          58.500
G12  20364088.053   107014003.649 9     -1366.978          54.000    20364088.203   107014003.643 7     -1366.978          46.750    20364085.733    83387535.231 8     -1065.175          51.250    20364085.653    83387535.233 7     -1065.180          46.750
G29  22415908.635   117796398.978 8      2925.176          48.500    22415908.805   117796397.975 6      2925.176          41.500    22415907.815    91789402.229 7      2279.344          47.000    22415907.785    91789401.232 6      2279.355          41.500
> 2015 09 03 07 46 59.0000000  0  8      -0.000127753297
G02  20736056.787   108968712.770 8      -121.438          50.750    20736056.257   108968712.764 7      -121.438          45.000                                                                    20736052.527    84910684.916 7       -94.622          45.000
G05  24293173.311   127661486.354 7      3493.927          44.000    24293172.931   127661486.354 5      3493.927          32.250    24293175.081    99476484.574 6      2722.533          41.750    24293174.981    99476483.580 5      2722.537          32.250
G06  22011505.893   115671242.622 8     -2442.209          50.250    22011506.423   115671242.625 6     -2442.209          41.250    22011508.783    90133435.720 8     -1903.029          48.250    22011508.153    90133436.716 6     -1903.006          41.250    22011508.353    86377876.186 9     -1823.716          54.250
G31  23608478.398   124063391.832 8      2009.308          49.250    23608478.378   124063389.835 6      2009.308          39.250    23608477.688    96672773.768 7      1565.667          45.750    23608477.518    96672771.771 6      1565.646          39.250
G24  24652721.247   129550923.306 6     -3666.573          40.250    24652721.577   129550920.282 4     -3666.573          29.000    24652725.827   100948769.904 7     -2857.067          44.750    24652726.287   100948768.893 4     -2857.033          29.000    24652726.257    96742571.686 8     -2738.017          50.500
G25  20631345.379   108418451.463 8      1360.507          53.500    20631344.809   108418452.461 7      1360.507          46.250    20631346.909    84481910.588 8      1060.130          53.000    20631346.639    84481910.582 7      1060.145          46.250    20631345.959    80961830.798 9      1015.961          58.750
G12  20364348.249   107015370.859 9     -1367.595          54.000    20364348.249   107015370.851 7     -1367.595          47.000    20364345.909    83388600.591 8     -1065.670          51.250    20364345.879    83388600.590 7     -1065.655          47.000
G29  22415351.822   117793473.967 8      2924.834          48.250    22415352.192   117793472.966 6      2924.834          41.500    22415351.502    91787122.998 7      2279.097          47.000    22415351.252    91787122.009 6      2279.072          41.500
> 2015 09 03 07 47  0.0000000  0  8      -0.000127775186
G02  20736080.033   108968834.396 8      -121.958          50.750    20736079.273   108968834.393 7      -121.958          45.000                                                                    20736075.613    84910779.691 7       -95.078          45.000
G05  24292508.072   127657992.494 7      3493.719          44.000    24292508.212   127657992.486 5      3493.719          32.500    24292509.982    99473762.093 7      2722.402          42.000    24292510.072    99473761.097 5      2722.360          32.500
G06  22011970.652   115673684.977 8     -2442.637          50.250    22011971.132   115673684.979 6     -2442.637          41.250    22011973.492    90135338.851 8     -1903.337          48.250    22011972.942    90135339.847 6     -1903.332          41.250    22011973.092    86379700.022 9     -1824.031          54.250
G31  23608096.076   124061382.754 8      2008.749          49.250    23608095.876   124061380.761 6      2008.749          39.250    23608095.826    96671208.251 7      1565.285          45.500    23608095.406    96671206.251 6      1565.281          39.250
G24  24653419.698   129554589.758 6     -3666.472          40.000    24653419.418   129554586.746 4     -3666.472          29.250    24653423.928   100951626.873 7     -2857.002          44.750    24653423.928   100951625.869 4     -2856.999          29.250    24653424.018    96745309.613 8     -2737.952          50.750
G25  20631086.424   108417091.220 8      1359.962          53.500    20631085.964   108417092.221 7      1359.962          46.250    20631087.954    84480850.656 8      1059.724          53.000    20631087.754    84480850.658 7      1059.720          46.250    20631087.094    80960815.032 9      1015.565          58.500
G12  20364608.664   107016738.658 9     -1368.145          54.000    20364608.654   107016738.652 7     -1368.145          46.750    20364606.454    83389666.410 8     -1066.089          51.250    20364606.194    83389666.410 7     -1066.086          46.750
G29  22414795.236   117790549.215 8      2924.604          48.250    22414795.766   117790548.213 6      2924.604          41.500    22414795.056    91784843.974 7      2278.917          47.250    22414794.666    91784842.982 6      2278.897          41.500
> 2015 09 03 07 47  1.0000000  0  8      -0.000127797014
G02  20736102.979   108968956.663 8      -122.698          51.000    20736102.549   108968956.662 7      -122.698          45.000                                                                    20736098.789    84910874.964 7       -95.590          45.000
G05  24291843.222   127654498.870 7      3493.492          43.500    24291843.412   127654498.866 5      3493.492          32.250    24291846.042    99471039.795 7      2722.143          42.250    24291845.032    99471038.813 5      2722.079          32.250
G06  22012435.582   115676127.876 8     -2443.271          50.250    22012436.102   115676127.878 6     -2443.271          41.500    22012438.352    90137242.410 8     -1903.872          48.250    22012437.582    90137243.403 6     -1903.871          41.500    22012438.012    86381524.263 9     -1824.553          54.500
G31  23607713.736   124059374.319 8      2008.144          49.250    23607714.146   124059372.324 6      2008.144          39.000    23607712.816    96669643.238 7      1564.749          45.500    23607713.156    96669641.239 6      1564.745          39.000
G24  24654116.748   129558256.356 6     -3666.781          39.750    24654117.028   129558253.330 4     -3666.781          28.500    24654121.718   100954483.952 7     -2857.203          44.750    24654121.318   100954482.958 4     -2857.242          28.500    24654121.668    96748047.648 8     -2738.139          50.500
G25  20630827.829   108415731.631 8      1359.227          53.500    20630827.289   108415732.629 7      1359.227          46.000    20630829.159    84479791.237 8      1059.127          53.000    20630829.089    84479791.235 7      1059.128          46.000    20630828.379    80959799.756 9      1014.998          58.500
G12  20364869.061   107018107.114 9     -1368.837          54.000    20364868.971   107018107.107 7     -1368.837          47.000    20364866.891    83390732.738 8     -1066.642          51.250    20364866.581    83390732.738 7     -1066.631          47.000
G29  22414238.773   117787624.789 8      2924.209          48.500    22414239.333   117787623.786 6      2924.209          41.500    22414238.253    91782565.204 7      2278.594          47.250    22414238.343    91782564.210 6      2278.577          41.500
> 2015 09 03 07 47  2.0000000  0  8      -0.000127818801
G02  20736126.440   108969079.527 8      -123.036          51.000    20736125.910   108969079.525 7      -123.036          45.000                                                                    20736122.210    84910970.702 7       -95.888          45.000
G05  24291178.522   127651005.423 7      3493.455          43.500    24291178.412   127651005.428 5      3493.455          32.750    24291181.082    99468317.647 7      2722.168          42.500    24291180.672    99468316.639 5      2722.171          32.750
G06  22012900.575   115678571.255 8     -2443.544          50.250    22012901.115   115678571.251 6     -2443.544          41.500    22012902.825    90139146.341 8     -1904.062          48.250    22012902.965    90139147.336 6     -1904.069          41.500    22012902.925    86383348.862 9     -1824.725          54.500
G31  23607332.121   124057366.468 8      2007.700          49.250    23607332.091   124057364.469 6      2007.700          38.750    23607331.081    96668078.679 7      1564.433          45.750    23607330.841    96668076.682 6      1564.421          38.750
G24  24654814.581   129561923.033 6     -3666.698          40.000    24654815.211   129561920.023 4     -3666.698          28.750    24654819.141   100957341.094 7     -2857.188          44.500    24654819.391   100957340.098 4     -2857.184          28.750    24654819.431    96750785.746 8     -2738.150          50.500
G25  20630569.246   108414372.635 8      1358.804          53.500    20630568.836   108414373.632 7      1358.804          46.250    20630570.516    84478732.278 8      1058.822          53.000    20630570.336    84478732.278 7      1058.816          46.250    20630569.746    80958784.920 9      1014.701          58.500
G12  20365129.274   107019476.173 9     -1369.283          54.000    20365129.554   107019476.170 7     -1369.283          47.000    20365127.384    83391799.534 8     -1066.979          51.250    20365127.184    83391799.537 7     -1066.977          47.000
G29  22413682.167   117784700.635 8      2924.119          48.500    22413682.727   117784699.634 6      2924.119          41.500    22413682.017    91780286.642 7      2278.542          47.250    22413681.767    91780285.652 6      2278.528          41.500
> 2015 09 03 07 47  3.0000000  0  8      -0.000127840567
G02  20736149.818   108969202.978 8      -123.751          51.000    20736149.488   108969202.970 7      -123.751          45.000                                                                    20736145.668    84911066.896 7       -96.418          45.000
G05  24290513.717   127647512.149 7      3493.193          43.750    24290513.967   127647512.146 5      3493.193          33.000    24290515.737    99465595.619 7      2721.948          42.500    24290515.447    99465594.618 5      2721.954          33.000
G06  22013365.574   115681015.137 8     -2444.152          50.500    22013366.044   115681015.133 6     -2444.152          41.500    22013368.254    90141050.659 8     -1904.523          48.250    22013367.814    90141051.657 6     -1904.572          41.500    22013368.024    86385173.835 9     -1825.189          54.500
G31  23606949.910   124055359.196 8      2007.012          49.500    23606949.950   124055357.199 6      2007.012          39.000    23606949.100    96666514.570 7      1563.923          45.500    23606948.910    96666512.568 6      1563.918          39.000
G24  24655513.157   129565589.763 6     -3666.928          40.250    24655512.637   129565586.741 4     -3666.928          28.750    24655517.137   100960198.291 7     -2857.380          44.750    24655517.097   100960197.279 4     -2857.334          28.750    24655517.127    96753523.886 8     -2738.295          50.500
G25  20630310.825   108413014.228 8      1358.114          53.500    20630310.295   108413015.226 7      1358.114          46.000    20630311.985    84477673.779 8      1058.288          53.000    20630311.975    84477673.781 7      1058.292          46.000    20630311.265    80957770.525 9      1014.188          58.500
G12  20365389.956   107020845.829 9     -1369.989          54.000    20365390.116   107020845.822 7     -1369.989          47.000    20365387.906    83392866.799 8     -1067.517          51.250    20365387.746    83392866.800 7     -1067.521          47.000
G29  22413125.644   117781776.757 8      2923.741          48.500    22413126.344   117781775.752 6      2923.741          41.500    22413125.484    91778008.298 7      2278.226          47.500    22413125.404    91778007.309 6      2278.220          41.500
> 2015 09 03 07 47  4.0000000  0  8      -0.000127862296
G02  20736173.646   108969327.023 8      -124.243          51.000    20736173.166   108969327.020 7      -124.243          45.000                                                                    20736169.376    84911163.557 7       -96.816          45.000
G05  24289849.374   127644019.065 7      3493.135          44.000    24289849.114   127644019.067 5      3493.135          32.750    24289851.294    99462873.738 7      2721.843          42.250    24289850.904    99462872.727 5      2721.861          32.750
G06  22013830.882   115683459.492 8     -2444.534          50.250    22013831.282   115683459.488 6     -2444.534          41.250    22013833.372    90142955.350 8     -1904.817          48.500    22013833.072    90142956.347 6     -1904.814          41.250    22013833.092    86386999.165 9     -1825.451          54.500
G31  23606568.304   124053352.517 8      2006.528          49.500    23606568.034   124053350.520 6      2006.528          39.000    23606567.184    96664950.929 7      1563.521          45.500    23606567.384    96664948.925 6      1563.526          39.000
G24  24656210.780   129569256.565 6     -3666.863          40.500    24656210.650   129569253.556 4     -3666.863          28.500    24656214.380   100963055.531 7     -2857.265          44.500    24656215.100   100963054.532 4     -2857.306          28.500    24656214.980    96756262.071 8     -2738.226          50.750
G25  20630052.368   108411656.422 8      1357.582          53.500    20630051.938   108411657.420 7      1357.582          46.000    20630053.488    84476615.750 8      1057.868          53.000    20630053.558    84476615.751 7      1057.861          46.000    20630052.848    80956756.582 9      1013.788          58.500
G12  20365650.943   107022216.089 9     -1370.480          54.000    20365650.793   107022216.084 7     -1370.480          47.000    20365648.673    83393934.531 8     -1067.891          51.250    20365648.613    83393934.536 7     -1067.903          47.000
G29  22412569.526   117778853.152 8      2923.561          48.500    22412570.206   117778852.153 6      2923.561          41.500    22412568.916    91775730.169 7      2278.111          47.500    22412569.126    91775729.181 6      2278.081          41.500
> 2015 09 03 07 47  5.0000000  0  8      -0.000127884047
G02  20736197.323   108969451.582 8      -124.759          51.250    20736196.783   108969451.577 7      -124.759          45.000                                                                    20736193.143    84911260.616 7       -97.180          45.000
G05  24289184.596   127640526.070 7      3493.036          44.000    24289185.156   127640526.056 5      3493.036          32.500    24289186.176    99460151.916 7      2721.899          42.250    24289186.576    99460150.925 5      2721.832          32.500
G06  22014296.040   115685904.273 8     -2444.898          50.000    22014296.570   115685904.267 6     -2444.898          41.500    22014298.870    90144860.371 8     -1905.124          48.500    22014298.060    90144861.368 6     -1905.126          41.500    22014298.260    86388824.810 9     -1825.746          54.250
G31  23606186.146   124051346.347 8      2006.011          49.500    23606186.486   124051344.353 6      2006.011          39.000    23606185.506    96663387.678 7      1563.107          45.500    23606185.246    96663385.676 6      1563.147          39.000
G24  24656907.846   129572923.354 6     -3666.685          40.500    24656908.436   129572920.343 4     -3666.685          28.000    24656912.506   100965912.773 7     -2857.283          44.500    24656912.846   100965911.753 4     -2857.214          28.000    24656912.746    96759000.262 8     -2738.199          50.750
G25  20629794.031   108410299.135 8      1357.121          53.500    20629793.651   108410300.131 7      1357.121          46.250    20629795.471    84475558.122 8      1057.508          53.000    20629795.231    84475558.119 7      1057.522          46.250    20629794.591    80955743.021 9      1013.444          58.750
G12  20365911.721   107023586.875 8     -1370.973          53.750    20365911.591   107023586.872 7     -1370.973          47.000    20365909.491    83395002.681 8     -1068.299          51.250    20365909.281    83395002.681 7     -1068.288          47.000
G29  22412013.390   117775929.760 8      2923.382          48.750    22412013.780   117775928.760 6      2923.382          41.500    22412012.870    91773452.198 7      2277.946          47.750    22412012.730    91773451.212 6      2277.932          41.500
> 2015 09 03 07 47  6.0000000  0  8      -0.000127905630
G02  20736221.220   108969576.959 8      -125.833          51.250    20736220.760   108969576.959 7      -125.833          45.000                                                                    20736216.880    84911358.315 7       -98.068          45.000
G05  24288519.906   127637033.475 7      3492.387          44.000    24288520.266   127637033.478 5      3492.387          32.750    24288521.786    99457430.428 7      2721.366          42.250    24288521.356    99457429.435 5      2721.307          32.750
G06  22014761.369   115688349.762 8     -2445.941          50.000    22014761.929   115688349.757 6     -2445.941          41.500    22014764.109    90146765.942 8     -1905.919          48.500    22014763.629    90146766.942 6     -1905.923          41.500    22014763.639    86390650.985 9     -1826.515          54.250
G31  23605804.481   124049340.985 8      2004.862          49.250    23605804.871   124049338.982 6      2004.862          39.000    23605803.931    96661825.063 7      1562.239          45.500    23605803.751    96661823.061 6      1562.229          39.000
G24  24657606.158   129576590.452 6     -3667.332          40.750    24657605.898   129576587.448 4     -3667.332          28.750    24657610.018   100968770.243 7     -2857.641          44.500    24657610.718   100968769.247 4     -2857.686          28.750    24657610.558    96761738.671 8     -2738.552          50.500
G25  20629535.847   108408942.661 8      1356.037          53.250    20629535.447   108408943.658 7      1356.037          46.250    20629537.367    84474501.131 8      1056.647          53.000    20629537.127    84474501.130 7      1056.652          46.250    20629536.457    80954730.072 9      1012.626          58.750
G12  20366172.741   107024958.490 8     -1372.106          53.750    20366172.671   107024958.487 7     -1372.106          47.000    20366170.571    83396071.474 8     -1069.192          51.250    20366170.391    83396071.474 7     -1069.182          47.000
G29  22411457.191   117773006.857 8      2922.573          48.500    22411457.421   117773005.858 6      2922.573          41.500    22411456.511    91771174.614 7      2277.357          47.750    22411456.461    91771173.621 6      2277.354          41.500
> 2015 09 03 07 47  7.0000000  0  8      -0.000127927118
G02  20736245.125   108969702.996 8      -126.284          51.250    20736244.685   108969702.995 7      -126.284          45.250                                                                    20736240.855    84911456.524 7       -98.364          45.250
G05  24287855.748   127633541.138 7      3492.345          44.250    24287855.348   127633541.138 5      3492.345          33.000    24287857.518    99454709.134 7      2721.341          42.250    24287856.628    99454708.135 5      2721.281          33.000
G06  22015227.039   115690795.797 8     -2446.202          50.250    22015227.299   115690795.788 6     -2446.202          41.250    22015229.309    90148671.944 8     -1906.113          48.500    22015228.989    90148672.941 6     -1906.106          41.250    22015229.089    86392477.565 9     -1826.689          54.250
G31  23605423.166   124047336.271 8      2004.510          49.250    23605423.066   124047334.269 6      2004.510          38.750    23605422.316    96660262.947 7      1561.985          45.500    23605422.106    96660260.942 6      1562.015          38.750
G24  24658304.564   129580257.708 6     -3667.210          40.750    24658304.114   129580254.700 4     -3667.210          28.250    24658308.084   100971627.841 7     -2857.468          44.250    24658308.274   100971626.831 4     -2857.483          28.250    24658308.364    96764477.206 8     -2738.440          50.750
G25  20629277.740   108407586.865 8      1355.568          53.250    20629277.490   108407587.870 7      1355.568          46.250    20629279.440    84473444.669 8      1056.313          53.000    20629279.100    84473444.669 7      1056.318          46.250    20629278.470    80953717.629 9      1012.299          58.750
G12  20366433.656   107026330.773 8     -1372.470          53.750    20366433.836   107026330.770 7     -1372.470          47.000    20366431.566    83397140.787 8     -1069.459          51.250    20366431.506    83397140.782 7     -1069.456          47.000
G29  22410901.268   117770084.301 8      2922.503          48.750    22410901.208   117770083.299 6      2922.503          41.500    22410900.608    91768897.299 7      2277.330          47.750    22410900.508    91768896.303 6      2277.343          41.500
> 2015 09 03 07 47  8.0000000  0  8      -0.000127948558
G02  20736269.187   108969829.656 8      -127.017          51.250    20736268.767   108969829.656 7      -127.017          45.250                                                                    20736265.037    84911555.224 7       -98.988          45.250
G05  24287191.258   127630049.013 7      3491.980          44.500    24287191.008   127630049.017 5      3491.980          33.000    24287193.148    99451988.002 7      2720.991          42.500    24287192.598    99451987.002 5      2721.022          33.000
G06  22015692.659   115693242.356 8     -2446.887          50.250    22015692.989   115693242.354 6     -2446.887          41.250    22015695.059    90150578.356 8     -1906.632          48.500    22015694.669    90150579.351 6     -1906.610          41.250    22015694.609    86394304.543 9     -1827.183          54.250
G31  23605041.719   124045332.174 8      2003.792          49.000    23605041.709   124045330.174 6      2003.792          38.750    23605041.169    96658701.312 7      1561.392          45.500    23605041.049    96658699.312 6      1561.387          38.750
G24  24659002.598   129583925.086 6     -3667.507          40.500    24659002.158   129583922.067 4     -3667.507          28.750    24659005.978   100974485.536 7     -2857.736          44.500    24659006.428   100974484.532 4     -2857.752          28.750    24659006.308    96767215.829 8     -2738.667          50.750
G25  20629019.949   108406231.688 8      1354.850          53.250    20629019.709   108406232.696 7      1354.850          46.250    20629021.299    84472388.690 8      1055.711          53.000    20629021.309    84472388.694 7      1055.698          46.250    20629020.579    80952705.648 9      1011.717          58.750
G12  20366695.084   107027703.692 8     -1373.291          53.750    20366695.144   107027703.690 7     -1373.291          46.750    20366692.894    83398210.591 8     -1070.116          51.500    20366692.814    83398210.592 7     -1070.118          46.750
G29  22410344.889   117767162.052 8      2922.035          48.750    22410345.319   117767161.046 6      2922.035          41.500    22410344.519    91766620.225 7      2276.940          47.750    22410344.309    91766619.235 6      2276.924          41.500
> 2015 09 03 07 47  9.0000000  0  8      -0.000127970046
G02  20736293.689   108969956.813 8      -127.275          51.250    20736292.909   108969956.812 7      -127.275          45.250                                                                    20736289.179    84911654.308 7       -99.194          45.250
G05  24286526.346   127626556.958 7      3492.197          44.250    24286526.146   127626556.960 5      3492.197          32.750    24286528.026    99449266.928 7      2721.153          42.250    24286527.826    99449265.926 5      2721.183          32.750
G06  22016158.447   115695689.312 8     -2447.002          50.000    22016158.797   115695689.307 6     -2447.002          41.250    22016160.847    90152485.071 8     -1906.760          48.500    22016160.517    90152486.075 6     -1906.752          41.250    22016160.277    86396131.814 9     -1827.306          54.250
G31  23604660.068   124043328.585 8      2003.466          48.750    23604660.458   124043326.579 6      2003.466          38.750    23604659.598    96657140.077 7      1561.092          45.250    23604659.558    96657138.078 6      1561.082          38.750
G24  24659699.957   129587592.446 6     -3667.227          40.750    24659699.947   129587589.442 4     -3667.227          28.250    24659703.937   100977343.219 7     -2857.549          44.500    24659704.277   100977342.220 4     -2857.568          28.250    24659704.227    96769954.439 8     -2738.487          50.500
G25  20628762.271   108404877.017 8      1354.583          53.250    20628761.811   108404878.021 7      1354.583          46.250    20628763.661    84471333.102 8      1055.504          53.000    20628763.491    84471333.101 7      1055.505          46.250    20628762.791    80951694.045 9      1011.521          58.750
G12  20366956.554   107029077.116 8     -1373.577          53.750    20366956.514   107029077.116 7     -1373.577          46.750    20366954.514    83399280.791 8     -1070.336          51.500    20366954.054    83399280.792 7     -1070.341          46.750
G29  22409788.651   117764239.982 8      2922.137          48.500    22409789.231   117764238.978 6      2922.137          41.500    22409788.611    91764343.293 7      2276.950          47.500    22409788.151    91764342.297 6      2276.957          41.500
> 2015 09 03 07 47 10.0000000  0  8      -0.000127991589
G02  20736317.834   108970084.415 8      -127.992          51.000    20736317.144   108970084.416 7      -127.992          45.000                                                                    20736313.344    84911753.738 7       -99.705          45.000
G05  24285861.949   127623064.943 7      3491.880          44.000    24285861.689   127623064.937 5      3491.880          32.750    24285863.579    99446545.890 7      2720.949          42.250    24285863.709    99446544.882 5      2720.895          32.750
G06  22016623.904   115698136.612 8     -2447.654          50.000    22016624.224   115698136.609 6     -2447.654          41.250    22016626.474    90154392.060 8     -1907.244          48.750    22016626.164    90154393.056 6     -1907.260          41.250    22016625.944    86397959.344 9     -1827.780          54.250
G31  23604278.807   124041325.418 8      2002.818          48.750    23604279.237   124041323.417 6      2002.818          38.750    23604278.397    96655579.166 7      1560.640          45.250    23604278.417    96655577.167 6      1560.635          38.750
G24  24660398.066   129591259.753 6     -3667.376          40.500    24660397.966   129591256.744 4     -3667.376          29.000    24660401.686   100980200.851 7     -2857.704          44.250    24660402.146   100980199.850 4     -2857.719          29.000    24660402.076    96772693.012 8     -2738.673          50.750
G25  20628504.483   108403522.799 8      1353.856          53.500    20628504.103   108403523.803 7      1353.856          46.250    20628505.893    84470277.871 8      1054.950          53.250    20628505.793    84470277.870 7      1054.943          46.250    20628505.063    80950682.779 9      1010.993          58.750
G12  20367217.925   107030450.989 8     -1374.264          53.750    20367218.045   107030450.990 7     -1374.264          46.750    20367215.615    83400351.342 8     -1070.856          51.500    20367215.575    83400351.342 7     -1070.846          46.750
G29  22409232.782   117761318.039 8      2921.749          48.500    22409233.262   117761317.035 6      2921.749          41.500    22409232.232    91762066.456 7      2276.695          47.500    22409232.222    91762065.462 6      2276.694          41.500
> 2015 09 03 07 47 11.0000000  0  8      -0.000128013100
G02  20736342.030   108970212.595 8      -128.325          51.000    20736341.550   108970212.598 7      -128.325          45.000                                                                    20736337.810    84911853.620 7      -100.053          45.000
G05  24285197.147   127619573.103 7      3491.844          44.250    24285197.337   127619573.099 5      3491.844          32.750    24285198.957    99443824.971 7      2720.977          42.250    24285198.777    99443823.964 5      2720.973          32.750
G06  22017089.938   115700584.374 8     -2447.915          50.000    22017090.088   115700584.368 6     -2447.915          41.250    22017092.148    90156299.404 8     -1907.476          48.750    22017091.998    90156300.404 6     -1907.477          41.250    22017091.718    86399787.216 9     -1827.981          54.250
G31  23603897.660   124039322.830 8      2002.408          48.500    23603898.270   124039320.837 6      2002.408          38.500    23603897.330    96654018.714 7      1560.296          45.000    23603897.190    96654016.709 6      1560.293          38.500
G24  24661096.339   129594927.107 6     -3667.271          40.500    24661095.899   129594924.105 4     -3667.271          29.000    24661099.689   100983058.527 7     -2857.600          44.250    24661099.209   100983057.530 4     -2857.606          29.000    24661100.019    96775431.612 8     -2738.538          50.750
G25  20628247.066   108402169.157 8      1353.488          53.250    20628246.546   108402170.159 7      1353.488          46.250    20628248.306    84469223.082 8      1054.663          53.000    20628248.216    84469223.081 7      1054.657          46.250    20628247.476    80949671.942 9      1010.713          58.750
G12  20367479.536   107031825.457 8     -1374.689          53.750    20367479.486   107031825.455 7     -1374.689          46.750    20367477.366    83401422.354 8     -1071.199          51.250    20367477.146    83401422.355 7     -1071.207          46.750
G29  22408676.988   117758396.362 8      2921.621          48.250    22408677.138   117758395.364 6      2921.621          41.500    22408676.638    91759789.829 7      2276.619          47.500    22408676.128    91759788.839 6      2276.625          41.500
> 2015 09 03 07 47 12.0000000  0  8      -0.000128034611
G02  20736366.658   108970341.330 8      -128.935          51.000    20736366.148   108970341.333 7      -128.935          45.000                                                                    20736362.398    84911953.934 7      -100.471          45.000
G05  24284533.074   127616081.406 7      3491.671          44.250    24284533.124   127616081.405 5      3491.671          33.000    24284534.694    99441104.174 7      2720.832          42.250    24284534.904    99441103.167 5      2720.865          33.000
G06  22017555.857   115703032.611 8     -2448.443          50.250    22017555.957   115703032.609 6     -2448.443          41.250    22017558.177    90158207.119 8     -1907.906          48.750    22017557.907    90158208.117 6     -1907.894          41.250    22017557.557    86401615.442 9     -1828.409          54.250
G31  23603516.429   124037320.789 8      2001.837          48.500    23603517.069   124037318.793 6      2001.837          38.750    23603516.409    96652458.678 7      1559.901          45.000    23603516.229    96652456.682 6      1559.872          38.750
G24  24661792.820   129598594.487 6     -3667.346          40.500    24661794.050   129598591.491 4     -3667.346          29.000    24661797.250   100985916.222 7     -2857.609          44.250    24661796.790   100985915.219 4     -2857.620          29.000    24661797.930    96778170.238 8     -2738.538          50.750
G25  20627989.328   108400816.079 8      1352.910          53.500    20627989.128   108400817.084 7      1352.910          46.250    20627990.768    84468168.739 8      1054.192          53.000    20627990.628    84468168.736 7      1054.202          46.250    20627989.968    80948661.527 9      1010.271          58.750
G12  20367741.045   107033200.484 8     -1375.246          53.750    20367741.195   107033200.485 7     -1375.246          46.750    20367739.015    83402493.803 8     -1071.625          51.250    20367738.785    83402493.803 7     -1071.619          46.750
G29  22408120.960   117755474.940 8      2921.383          48.250    22408121.100   117755473.938 6      2921.383          41.500    22408120.440    91757513.402 7      2276.340          47.500    22408120.240    91757512.404 6      2276.338          41.500
> 2015 09 03 07 47 13.0000000  0  8      -0.000128056034
G02  20736391.298   108970470.754 8      -129.823          51.000    20736390.698   108970470.756 7      -129.823          45.000                                                                    20736387.078    84912054.782 7      -101.199          45.000
G05  24283868.754   127612589.968 7      3491.286          44.250    24283868.424   127612589.969 5      3491.286          33.000    24283870.534    99438383.573 7      2720.508          42.250    24283870.034    99438382.575 5      2720.473          33.000
G06  22018021.624   115705481.391 8     -2449.157          50.000    22018021.974   115705481.388 6     -2449.157          41.250    22018024.024    90160115.256 8     -1908.412          48.750    22018023.714    90160116.255 6     -1908.419          41.250    22018023.514    86403444.075 9     -1828.905          54.250
G31  23603135.875   124035319.425 8      2000.986          48.250    23603136.205   124035317.427 6      2000.986          38.750    23603135.475    96650899.173 7      1559.231          45.000    23603135.195    96650897.176 6      1559.216          38.750
G24  24662491.513   129602262.034 6     -3667.823          40.250    24662492.253   129602259.036 4     -3667.823          29.000    24662495.333   100988774.053 7     -2857.983          44.000    24662495.523   100988773.042 4     -2858.024          29.000    24662495.823    96780908.985 8     -2738.896          50.750
G25  20627731.932   108399463.684 8      1351.990          53.500    20627731.692   108399464.689 7      1351.990          46.500    20627733.522    84467114.924 8      1053.524          53.000    20627733.342    84467114.922 7      1053.530          46.500    20627732.662    80947651.622 9      1009.625          58.750
G12  20368002.941   107034576.199 8     -1376.102          53.500    20368002.951   107034576.200 7     -1376.102          46.750    20368000.931    83403565.789 8     -1072.295          51.250    20368000.561    83403565.790 7     -1072.304          46.750
G29  22407565.255   117752553.868 8      2920.817          48.250    22407565.325   117752552.870 6      2920.817          41.500    22407564.825    91755237.239 7      2275.991          47.750    22407564.275    91755236.248 6      2275.984          41.500
> 2015 09 03 07 47 14.0000000  0  8      -0.000128077526
G02  20736415.752   108970600.624 8      -130.151          51.000    20736415.352   108970600.623 7      -130.151          45.250                                                                    20736411.692    84912155.982 7      -101.400          45.250
G05  24283204.052   127609098.603 7      3491.188          44.500    24283204.422   127609098.590 5      3491.188          32.750    24283205.942    99435663.039 7      2720.401          42.250    24283205.552    99435662.034 5      2720.385          32.750
G06  22018487.861   115707930.546 8     -2449.331          49.750    22018487.851   115707930.545 6     -2449.331          41.250    22018490.301    90162023.687 8     -1908.547          48.750    22018489.691    90162024.686 6     -1908.540          41.250    22018489.481    86405272.987 9     -1829.031          54.250
G31  23602755.280   124033318.520 8      2000.637          48.250    23602755.390   124033316.523 6      2000.637          38.750    23602754.790    96649340.028 7      1558.959          45.000    23602754.470    96649338.023 6      1558.965          38.750
G24  24663189.193   129605929.526 6     -3667.602          40.250    24663190.013   129605926.522 4     -3667.602          28.750    24663193.163   100991631.835 7     -2857.891          43.750    24663194.043   100991630.830 4     -2857.877          28.750    24663193.883    96783647.692 8     -2738.802          50.750
G25  20627474.722   108398111.757 8      1351.675          53.500    20627474.432   108398112.763 7      1351.675          46.500    20627476.222    84466061.476 8      1053.272          53.000    20627476.072    84466061.471 7      1053.282          46.500    20627475.382    80946642.065 9      1009.392          58.750
G12  20368264.759   107035952.396 8     -1376.509          53.500    20368264.759   107035952.397 7     -1376.509          46.750    20368262.709    83404638.152 8     -1072.599          51.250    20368262.419    83404638.151 7     -1072.610          46.750
G29  22407009.578   117749632.952 8      2920.838          48.250    22407009.448   117749631.946 6      2920.838          41.750    22407009.158    91752961.204 7      2275.964          47.500    22407008.588    91752960.204 6      2275.982          41.750
> 2015 09 03 07 47 15.0000000  0  8      -0.000128099099
G02  20736440.563   108970730.929 8      -130.614          51.000    20736440.173   108970730.930 7      -130.614          45.250                                                                    20736436.543    84912257.515 7      -101.772          45.250
G05  24282539.508   127605607.227 7      3491.256          44.250    24282540.128   127605607.219 5      3491.256          33.000    24282541.878    99432942.489 7      2720.451          42.250    24282541.168    99432941.478 5      2720.521          33.000
G06  22018953.607   115710380.026 8     -2449.730          49.750    22018954.287   115710380.022 6     -2449.730          41.500    22018956.327    90163932.370 8     -1908.861          49.000    22018955.937    90163933.370 6     -1908.821          41.500    22018955.607    86407102.143 9     -1829.321          54.250
G31  23602374.762   124031318.031 8      2000.183          48.250    23602374.722   124031316.037 6      2000.183          38.750    23602373.942    96647781.211 7      1558.614          44.750    23602373.962    96647779.208 6      1558.593          38.750
G24  24663887.014   129609596.916 6     -3667.415          40.000    24663887.784   129609593.915 4     -3667.415          29.000    24663891.004   100994489.542 7     -2857.670          44.000    24663891.824   100994488.537 4     -2857.689          29.000    24663891.694    96786386.328 8     -2738.616          50.750
G25  20627217.620   108396760.265 8      1351.183          53.500    20627217.290   108396761.266 7      1351.183          46.500    20627219.060    84465008.362 8      1052.877          53.000    20627218.910    84465008.361 7      1052.871          46.500    20627218.210    80945632.834 9      1008.999          58.750
G12  20368526.669   107037329.021 8     -1376.965          53.250    20368526.689   107037329.022 7     -1376.965          46.750    20368524.649    83405710.845 8     -1072.961          51.500    20368524.439    83405710.845 7     -1072.964          46.750
G29  22406453.436   117746712.138 8      2920.668          48.250    22406453.636   117746711.137 6      2920.668          41.750    22406453.106    91750685.254 7      2275.867          47.750    22406452.766    91750684.259 6      2275.856          41.750
> 2015 09 03 07 47 16.0000000  0  8      -0.000128120669
G02  20736465.404   108970861.748 8      -131.096          51.000    20736465.074   108970861.746 7      -131.096          45.250                                                                    20736461.294    84912359.452 7      -102.149          45.250
G05  24281875.297   127602115.974 7      3491.165          44.250    24281875.227   127602115.980 5      3491.165          32.750    24281877.007    99430222.039 7      2720.376          42.500    24281876.797    99430221.029 5      2720.405          32.750
G06  22019419.751   115712829.927 8     -2450.189          49.500    22019420.381   115712829.924 6     -2450.189          41.500    22019422.421    90165841.384 8     -1909.236          48.750    22019422.101    90165842.385 6     -1909.230          41.500    22019421.871    86408931.617 9     -1829.686          54.250
G31  23601994.094   124029318.064 8      1999.675          48.250    23601994.124   124029316.079 6      1999.675          38.750    23601993.384    96646222.795 7      1558.160          44.750    23601993.424    96646220.793 6      1558.161          38.750
G24  24664585.156   129613264.350 6     -3667.483          40.000    24664585.056   129613261.351 4     -3667.483          28.500    24664588.866   100997347.281 7     -2857.780          43.750    24664589.446   100997346.277 4     -2857.802          28.500    24664589.686    96789124.989 8     -2738.702          51.000
G25  20626960.482   108395409.289 8      1350.677          53.500    20626960.182   108395410.290 7      1350.677          46.250    20626961.922    84463955.652 8      1052.474          53.000    20626961.922    84463955.655 7      1052.465          46.250    20626961.122    80944623.989 9      1008.615          58.750
G12  20368788.877   107038706.182 8     -1377.444          53.250    20368788.897   107038706.178 7     -1377.444          46.750    20368786.867    83406783.952 8     -1073.356          51.500    20368786.427    83406783.954 7     -1073.364          46.750
G29  22405898.104   117743791.537 8      2920.469          48.250    22405897.974   117743790.535 6      2920.469          41.500    22405897.524    91748409.465 7      2275.700          47.750    22405897.164    91748408.464 6      2275.715          41.500
> 2015 09 03 07 47 17.0000000  0  8      -0.000128142249
G02  20736490.295   108970993.123 8      -131.749          50.750    20736490.135   108970993.123 7      -131.749          45.250                                                                    20736486.295    84912461.822 7      -102.716          45.250
G05  24281210.908   127598624.852 7      3491.007          44.500    24281211.218   127598624.858 5      3491.007          33.000    24281212.698    99427501.688 7      2720.254          42.500    24281212.478    99427500.674 5      2720.348          33.000
G06  22019886.045   115715280.252 8     -2450.646          49.500    22019886.545   115715280.250 6     -2450.646          41.500    22019888.595    90167750.725 8     -1909.591          48.750    22019888.245    90167751.729 6     -1909.594          41.500    22019888.165    86410761.401 9     -1830.028          54.500
G31  23601613.658   124027318.628 8      1999.105          48.250    23601613.778   124027316.633 6      1999.105          38.500    23601613.008    96644664.791 7      1557.719          44.750    23601612.538    96644662.791 6      1557.724          38.500
G24  24665282.392   129616931.788 6     -3667.605          40.250    24665283.162   129616928.780 4     -3667.605          28.750    24665286.212   101000205.017 7     -2857.851          43.750    24665287.442   101000204.018 4     -2857.885          28.750    24665287.592    96791863.654 8     -2738.768          50.750
G25  20626703.590   108394058.866 8      1350.108          53.500    20626703.190   108394059.861 7      1350.108          46.250    20626704.960    84462903.373 8      1052.015          53.000    20626704.850    84462903.372 7      1052.014          46.250    20626704.140    80943615.553 9      1008.183          58.750
G12  20369050.875   107040083.894 8     -1378.072          53.250    20369050.975   107040083.893 7     -1378.072          47.000    20369049.005    83407857.494 8     -1073.848          51.500    20369048.695    83407857.495 7     -1073.849          47.000
G29  22405342.306   117740871.160 8      2920.221          48.000    22405342.266   117740870.153 6      2920.221          41.750    22405341.766    91746133.846 7      2275.492          47.500    22405341.276    91746132.844 6      2275.497          41.750
> 2015 09 03 07 47 18.0000000  0  8      -0.000128163785
G02  20736515.616   108971125.076 8      -132.300          51.000    20736515.226   108971125.077 7      -132.300          45.250                                                                    20736511.426    84912564.650 7      -103.072          45.250
G05  24280546.793   127595133.921 7      3490.812          45.000    24280546.603   127595133.915 5      3490.812          32.750    24280548.903    99424781.479 7      2720.162          42.750    24280548.553    99424780.483 5      2720.170          32.750
G06  22020352.405   115717731.080 8     -2451.075          49.500    22020352.935   115717731.078 6     -2451.075          41.500    22020355.125    90169660.459 8     -1909.954          48.750    22020354.745    90169661.466 6     -1909.946          41.500    22020354.525    86412591.567 9     -1830.380          54.500
G31  23601233.287   124025319.791 8      1998.521          48.250    23601233.367   124025317.790 6      1998.521          38.500    23601232.387    96643107.260 7      1557.275          44.500    23601232.427    96643105.259 6      1557.281          38.500
G24  24665980.591   129620599.298 6     -3667.594          40.000    24665981.181   129620596.304 4     -3667.594          28.250    24665984.791   101003062.811 7     -2857.859          43.750    24665985.171   101003061.811 4     -2857.885          28.250    24665985.541    96794602.375 8     -2738.792          51.000
G25  20626446.644   108392709.038 8      1349.527          53.500    20626446.324   108392710.039 7      1349.527          46.250    20626448.024    84461851.562 8      1051.558          53.000    20626448.024    84461851.561 7      1051.562          46.250    20626447.244    80942607.569 9      1007.740          58.750
G12  20369313.103   107041462.220 8     -1378.681          53.250    20369313.313   107041462.214 7     -1378.681          46.750    20369311.133    83408931.511 8     -1074.296          51.500    20369311.023    83408931.514 7     -1074.292          46.750
G29  22404786.695   117737951.070 8      2919.958          48.000    22404786.515   117737950.074 6      2919.958          41.750    22404785.895    91743858.459 7      2275.273          47.500    22404785.545    91743857.461 6      2275.279          41.750
> 2015 09 03 07 47 19.0000000  0  8      -0.000128185244
G02  20736540.805   108971257.703 8      -132.901          51.000    20736540.335   108971257.705 7      -132.901          45.250                                                                    20736536.705    84912667.991 7      -103.573          45.250
G05  24279882.237   127591643.231 7      3490.749          44.750    24279882.167   127591643.227 5      3490.749          32.750    24279884.697    99422061.469 7      2720.058          42.500    24279883.957    99422060.474 5      2720.085          32.750
G06  22020818.762   115720182.457 8     -2451.637          49.250    22020819.412   115720182.458 6     -2451.637          41.250    22020821.432    90171570.625 8     -1910.369          48.500    22020821.282    90171571.628 6     -1910.388          41.250    22020820.982    86414422.139 9     -1830.775          54.250
G31  23600853.036   124023321.605 8      1997.957          48.250    23600853.066   124023319.609 6      1997.957          38.500    23600851.986    96641550.223 7      1556.849          44.500    23600852.276    96641548.217 6      1556.848          38.500
G24  24666678.838   129624266.949 6     -3667.590          40.250    24666678.848   129624263.948 4     -3667.590          28.500    24666682.648   101005920.717 7     -2857.789          43.750    24666682.708   101005919.712 4     -2857.819          28.500    24666683.378    96797341.195 8     -2738.727          51.000
G25  20626190.097   108391359.892 8      1348.860          53.750    20626189.657   108391360.894 7      1348.860          46.250    20626191.367    84460800.280 8      1051.054          52.750    20626191.227    84460800.281 7      1051.046          46.250    20626190.537    80941600.090 9      1007.256          58.750
G12  20369575.715   107042841.204 8     -1379.249          53.000    20369575.615   107042841.199 7     -1379.249          47.000    20369573.605    83410006.041 8     -1074.751          51.500    20369573.395    83410006.046 7     -1074.758          47.000
G29  22404230.916   117735031.328 8      2919.641          48.250    22404230.966   117735030.328 6      2919.641          41.750    22404229.986    91741583.333 7      2275.042          47.500    22404230.046    91741582.328 6      2275.046          41.750
> 2015 09 03 07 47 20.0000000  0  8      -0.000128206701
G02  20736566.170   108971390.867 8      -133.468          51.000    20736565.780   108971390.868 7      -133.468          45.000                                                                    20736562.130    84912771.753 7      -104.030          45.000
G05  24279218.629   127588152.676 7      3490.509          45.000    24279217.989   127588152.674 5      3490.509          32.750    24279220.159    99419341.563 7      2719.863          42.750    24279219.749    99419340.560 5      2719.909          32.750
G06  22021285.389   115722634.273 8     -2452.060          49.000    22021285.959   115722634.269 6     -2452.060          41.250    22021288.059    90173481.126 8     -1910.729          48.500    22021287.849    90173482.129 6     -1910.736          41.250    22021287.579    86416253.036 9     -1831.126          54.250
G31  23600472.774   124021323.949 8      1997.372          48.250    23600472.764   124021321.943 6      1997.372          38.250    23600471.424    96639993.611 7      1556.382          44.250    23600472.194    96639991.610 6      1556.365          38.250
G24  24667376.212   129627934.650 6     -3667.726          40.000    24667376.712   129627931.640 4     -3667.726          28.250    24667380.722   101008778.661 7     -2858.003          43.500    24667381.292   101008777.659 4     -2858.050          28.250    24667381.412    96800080.061 8     -2738.930          51.000
G25  20625933.456   108390011.270 8      1348.362          53.500    20625932.926   108390012.265 7      1348.362          46.250    20625934.756    84459749.402 8      1050.647          52.750    20625934.676    84459749.404 7      1050.649          46.250    20625933.886    80940593.001 9      1006.865          58.750
G12  20369838.405   107044220.736 8     -1379.831          53.000    20369838.155   107044220.731 7     -1379.831          46.750    20369836.105    83411081.003 8     -1075.211          51.250    20369835.805    83411081.006 7     -1075.202          46.750
G29  22403675.148   117732111.797 8      2919.504          48.500    22403675.298   117732110.790 6      2919.504          41.750    22403674.458    91739308.373 7      2274.895          47.500    22403674.348    91739307.372 6      2274.896          41.750
> 2015 09 03 07 47 21.0000000  0  8      -0.000128228097
G02  20736591.583   108971524.682 8      -134.047          51.250    20736591.213   108971524.680 7      -134.047          45.000                                                                    20736587.583    84912876.027 7      -104.461          45.000
G05  24278553.758   127584662.357 7      3490.360          44.750    24278553.818   127584662.365 5      3490.360          32.500    24278555.748    99416621.843 7      2719.711          42.500    24278555.358    99416620.843 5      2719.764          32.500
G06  22021752.043   115725086.619 8     -2452.528          49.000    22021752.483   115725086.621 6     -2452.528          41.250    22021754.563    90175392.046 8     -1911.043          48.500    22021754.453    90175393.048 6     -1911.047          41.250    22021754.223    86418084.333 9     -1831.427          54.250
G31  23600092.853   124019326.940 8      1996.852          48.250    23600092.903   124019324.934 6      1996.852          38.500    23600092.103    96638437.497 7      1555.974          44.250    23600091.983    96638435.493 6      1555.991          38.500
G24  24668074.782   129631602.484 6     -3667.792          40.000    24668074.782   129631599.489 4     -3667.792          28.500    24668078.482   101011636.713 7     -2858.056          43.500    24668079.262   101011635.702 4     -2858.008          28.500    24668079.462    96802819.023 8     -2738.957          51.000
G25  20625676.753   108388663.312 8      1347.775          53.500    20625676.463   108388664.314 7      1347.775          46.250    20625678.153    84458699.051 8      1050.198          52.750    20625678.163    84458699.049 7      1050.203          46.250    20625677.413    80939586.412 9      1006.440          58.500
G12  20370101.167   107045600.941 8     -1380.425          53.250    20370100.817   107045600.939 7     -1380.425          47.000    20370098.737    83412156.489 8     -1075.685          51.250    20370098.547    83412156.492 7     -1075.692          47.000
G29  22403119.726   117729192.615 8      2919.172          48.500    22403119.906   117729191.614 6      2919.172          41.750    22403119.076    91737033.691 7      2274.699          47.500    22403118.676    91737032.685 6      2274.719          41.750
> 2015 09 03 07 47 22.0000000  0  8      -0.000128249497
G02  20736617.177   108971659.011 8      -134.678          51.500    20736616.757   108971659.007 7      -134.678          45.000                                                                    20736613.057    84912980.699 7      -104.965          45.000
G05  24277889.787   127581172.150 7      3490.097          44.750    24277889.727   127581172.138 5      3490.097          32.500    24277891.547    99413902.209 7      2719.518          42.250    24277891.677    99413901.207 5      2719.501          32.500
G06  22022218.838   115727539.389 8     -2453.013          49.000    22022219.298   115727539.385 6     -2453.013          41.250    22022221.298    90177303.293 8     -1911.469          48.500    22022221.238    90177304.300 6     -1911.498          41.250    22022221.008    86419915.945 9     -1831.829          54.500
G31  23599713.007   124017330.438 8      1996.207          48.250    23599713.017   124017328.430 6      1996.207          38.500    23599712.157    96636881.782 7      1555.436          44.250    23599712.177    96636879.785 6      1555.440          38.500
G24  24668772.993   129635270.306 6     -3667.904          40.250    24668772.823   129635267.301 4     -3667.904          28.500    24668776.533   101014494.748 7     -2858.118          43.500    24668777.323   101014493.738 4     -2858.144          28.500    24668777.343    96805557.977 8     -2739.070          51.000
G25  20625420.359   108387315.871 8      1347.178          53.750    20625420.089   108387316.873 7      1347.178          46.250    20625421.719    84457649.096 8      1049.727          52.750    20625421.619    84457649.098 7      1049.720          46.250    20625420.969    80938580.207 9      1005.987          58.500
G12  20370363.603   107046981.655 8     -1381.018          53.500    20370363.693   107046981.653 7     -1381.018          46.750    20370361.563    83413232.371 8     -1076.145          51.250    20370361.293    83413232.373 7     -1076.143          46.750
G29  22402564.291   117726273.632 8      2918.833          48.750    22402564.551   117726272.632 6      2918.833          41.750    22402563.381    91734759.159 7      2274.411          47.250    22402563.351    91734758.151 6      2274.410          41.750
> 2015 09 03 07 47 23.0000000  0  8      -0.000128270846
G02  20736642.983   108971793.978 8      -135.350          51.500    20736642.493   108971793.976 7      -135.350          45.250                                                                    20736638.753    84913085.867 7      -105.475          45.250
G05  24277225.234   127577682.159 7      3489.761          44.500    24277225.754   127577682.167 5      3489.761          32.500    24277227.594    99411182.736 7      2719.353          42.250    24277227.244    99411181.738 5      2719.324          32.500
G06  22022685.525   115729992.682 8     -2453.605          49.000    22022686.075   115729992.676 6     -2453.605          41.000    22022688.205    90179214.948 8     -1911.903          48.500    22022688.045    90179215.948 6     -1911.898          41.000    22022687.845    86421747.948 9     -1832.236          54.250
G31  23599332.936   124015334.567 8      1995.495          48.250    23599333.206   124015332.566 6      1995.495          38.500    23599332.446    96635326.561 7      1554.904          44.500    23599332.356    96635324.567 6      1554.911          38.500
G24  24669471.003   129638938.258 6     -3667.962          40.250    24669470.773   129638935.255 4     -3667.962          28.750    24669474.603   101017352.890 7     -2858.152          43.500    24669474.883   101017351.881 4     -2858.120          28.750    24669475.243    96808297.019 8     -2739.066          51.000
G25  20625164.093   108385969.079 8      1346.460          53.750    20625163.913   108385970.081 7      1346.460          46.250    20625165.583    84456599.648 8      1049.200          52.750    20625165.483    84456599.651 7      1049.197          46.250    20625164.713    80937574.487 9      1005.478          58.500
G12  20370626.494   107048363.024 8     -1381.746          53.500    20370626.534   107048363.023 7     -1381.746          46.750    20370624.324    83414308.759 8     -1076.655          51.250    20370624.094    83414308.762 7     -1076.657          46.750
G29  22402009.163   117723354.963 8      2918.468          48.750    22402009.153   117723353.962 6      2918.468          41.500    22402008.053    91732484.872 7      2274.146          47.250    22402007.833    91732483.870 6      2274.161          41.500
> 2015 09 03 07 47 24.0000000  0  8      -0.000128292178
G02  20736668.684   108971929.507 8      -135.942          51.500    20736668.264   108971929.507 7      -135.942          45.250                                                                    20736664.584    84913191.478 7      -105.956          45.250
G05  24276561.334   127574192.330 7      3489.588          44.500    24276561.354   127574192.333 5      3489.588          32.500    24276563.044    99408463.393 7      2719.147          42.500    24276563.374    99408462.391 5      2719.153          32.500
G06  22023152.623   115732446.444 8     -2454.121          49.000    22023152.993   115732446.440 6     -2454.121          41.000    22023155.013    90181126.966 8     -1912.305          48.500    22023154.873    90181127.971 6     -1912.308          41.000    22023154.773    86423580.300 9     -1832.639          54.250
G31  23598952.877   124013339.258 8      1994.873          48.000    23598953.537   124013337.254 6      1994.873          38.500    23598952.937    96633771.776 7      1554.435          44.500    23598952.847    96633769.784 6      1554.417          38.500
G24  24670168.473   129642606.284 6     -3668.229          40.250    24670168.663   129642603.284 4     -3668.229          28.500    24670172.673   101020211.097 7     -2858.403          43.500    24670172.973   101020210.088 4     -2858.391          28.500    24670173.253    96811036.137 8     -2739.327          51.000
G25  20624907.926   108384622.862 9      1345.797          54.000    20624907.746   108384623.868 7      1345.797          46.250    20624909.306    84455550.651 8      1048.659          52.750    20624909.266    84455550.651 7      1048.662          46.250    20624908.526    80936569.197 9      1004.958          58.500
G12  20370889.616   107049744.977 8     -1382.365          53.500    20370889.496   107049744.975 7     -1382.365          47.000    20370887.306    83415385.606 8     -1077.190          51.250    20370887.136    83415385.608 7     -1077.187          47.000
G29  22401453.893   117720436.553 8      2918.177          49.000    22401453.793   117720435.556 6      2918.177          41.500    22401452.733    91730210.785 7      2273.893          47.250    22401452.593    91730209.783 6      2273.893          41.500
> 2015 09 03 07 47 25.0000000  0  8      -0.000128313444
G02  20736694.655   108972065.675 8      -136.502          51.500    20736694.225   108972065.670 7      -136.502          45.250                                                                    20736690.495    84913297.579 7      -106.340          45.250
G05  24275897.315   127570702.697 7      3489.579          44.500    24275897.405   127570702.692 5      3489.579          32.500    24275899.455    99405744.208 7      2719.167          42.750    24275898.975    99405743.213 5      2719.165          32.500
G06  22023619.882   115734900.727 8     -2454.563          49.250    22023620.112   115734900.725 6     -2454.563          41.000    22023622.052    90183039.396 8     -1912.626          48.500    22023622.082    90183040.402 6     -1912.646          41.000    22023621.892    86425413.043 9     -1832.925          54.500
G31  23598573.600   124011344.574 8      1994.425          48.000    23598573.910   124011342.574 6      1994.425          38.500    23598573.080    96632217.476 7      1554.079          44.500    23598573.090    96632215.479 6      1554.084          38.500
G24  24670866.872   129646274.392 6     -3668.178          40.250    24670867.172   129646271.394 4     -3668.178          28.250    24670870.502   101023069.358 7     -2858.301          43.500    24670871.052   101023068.349 4     -2858.324          28.250    24670871.462    96813775.294 8     -2739.204          51.000
G25  20624652.015   108383277.271 9      1345.260          54.000    20624651.665   108383278.274 7      1345.260          46.250    20624653.175    84454502.137 8      1048.297          52.750    20624653.255    84454502.140 7      1048.292          46.250    20624652.515    80935564.373 9      1004.609          58.500
G12  20371152.474   107051127.559 8     -1382.896          53.500    20371152.564   107051127.557 7     -1382.896          47.000    20371150.544    83416462.942 8     -1077.557          51.500    20371150.264    83416462.943 7     -1077.552          47.000
G29  22400898.531   117717518.454 8      2917.995          49.000    22400898.581   117717517.452 6      2917.995          41.500    22400897.311    91727936.936 7      2273.775          47.250    22400897.061    91727935.936 6      2273.780          41.500
> 2015 09 03 07 47 26.0000000  0  8      -0.000128334689
G02  20736720.815   108972202.413 8      -136.989          51.500    20736720.115   108972202.406 7      -136.989          45.000                                                                    20736716.575    84913404.128 7      -106.729          45.000
G05  24275233.619   127567213.258 7      3489.393          44.500    24275233.719   127567213.245 5      3489.393          32.500    24275235.399    99403025.165 7      2719.059          42.750    24275235.289    99403024.158 5      2719.067          32.500
G06  22024086.989   115737355.477 8     -2454.935          49.250    22024087.029   115737355.469 6     -2454.935          41.250    22024089.129    90184952.186 8     -1912.923          48.250    22024089.069    90184953.190 6     -1912.948          41.250    22024089.019    86427246.135 9     -1833.221          54.250
G31  23598194.318   124009350.457 8      1993.872          48.000    23598194.508   124009348.453 6      1993.872          38.750    23598193.808    96630663.622 7      1553.655          44.750    23598193.768    96630661.632 6      1553.639          38.750
G24  24671564.588   129649942.570 6     -3668.242          40.250    24671565.008   129649939.564 4     -3668.242          28.250    24671568.748   101025927.676 7     -2858.410          43.750    24671569.038   101025926.661 4     -2858.419          28.250    24671569.318    96816514.514 8     -2739.313          51.000
G25  20624396.226   108381932.265 9      1344.815          54.000    20624395.686   108381933.267 7      1344.815          46.250    20624397.216    84453454.080 8      1047.911          52.750    20624397.296    84453454.079 7      1047.919          46.250    20624396.546    80934559.983 9      1004.250          58.500
G12  20371415.772   107052510.728 8     -1383.423          53.500    20371415.902   107052510.726 7     -1383.423          47.000    20371413.692    83417540.733 8     -1077.975          51.500    20371413.422    83417540.738 7     -1077.991          47.000
G29  22400343.438   117714600.611 8      2917.791          49.500    22400343.268   117714599.605 6      2917.791          41.500    22400342.308    91725663.290 7      2273.606          47.250    22400341.908    91725662.296 6      2273.589          41.500
> 2015 09 03 07 47 27.0000000  0  8      -0.000128355810
G02  20736746.813   108972339.903 8      -138.000          51.500    20736746.333   108972339.895 7      -138.000          45.250                                                                    20736742.713    84913511.264 7      -107.536          45.250
G05  24274569.076   127563724.144 7      3488.885          44.250    24274569.506   127563724.146 5      3488.885          32.750    24274572.086    99400306.379 7      2718.535          42.750    24274571.146    99400305.391 5      2718.527          32.750
G06  22024554.057   115739810.874 8     -2455.877          49.250    22024554.517   115739810.874 6     -2455.877          41.000    22024556.487    90186865.483 8     -1913.687          48.250    22024556.427    90186866.491 6     -1913.692          41.000    22024556.277    86429079.711 9     -1833.947          54.250
G31  23597814.697   124007357.088 8      1992.876          48.000    23597815.327   124007355.076 6      1992.876          38.750    23597814.377    96629110.346 7      1552.894          45.000    23597814.607    96629108.348 6      1552.892          38.750
G24  24672262.640   129653610.936 6     -3668.645          40.250    24672262.980   129653607.936 4     -3668.645          29.000    24672266.800   101028786.136 7     -2858.652          43.500    24672267.600   101028785.137 4     -2858.650          29.000    24672267.330    96819253.868 8     -2739.545          51.000
G25  20624140.386   108380587.905 9      1344.282          54.000    20624139.946   108380588.904 7      1344.282          46.250    20624141.516    84452406.530 8      1047.437          52.750    20624141.396    84452406.528 7      1047.445          46.250    20624140.746    80933556.079 9      1003.799          58.500
G12  20371679.071   107053894.657 8     -1384.444          53.500    20371679.171   107053894.652 7     -1384.444          47.000    20371677.161    83418619.119 8     -1078.813          51.500    20371676.761    83418619.124 7     -1078.799          47.000
G29  22399788.408   117711683.217 8      2917.043          49.500    22399788.058   117711682.214 6      2917.043          41.500    22399786.928    91723389.996 7      2273.011          47.250    22399786.668    91723389.000 6      2272.996          41.500
> 2015 09 03 07 47 28.0000000  0  8      -0.000128376864
G02  20736773.243   108972478.057 8      -138.475          51.500    20736772.683   108972478.058 7      -138.475          45.000                                                                    20736768.963    84913618.921 7      -107.947          45.000
G05  24273905.326   127560235.290 7      3488.809          44.000    24273905.956   127560235.300 5      3488.809          33.000    24273908.086    99397587.798 7      2718.440          43.000    24273907.176    99397586.806 5      2718.416          33.000
G06  22025021.484   115742266.821 8     -2456.169          49.500    22025021.754   115742266.824 6     -2456.169          41.000    22025023.964    90188779.208 8     -1913.922          48.250    22025023.664    90188780.212 6     -1913.906          41.000    22025023.684    86430913.697 9     -1834.175          54.250
G31  23597435.792   124005364.378 8      1992.415          48.250    23597435.762   124005362.378 6      1992.415          38.750    23597435.272    96627557.586 7      1552.508          45.000    23597434.972    96627555.588 6      1552.504          38.750
G24  24672960.614   129657279.459 6     -3668.500          40.250    24672961.314   129657276.470 4     -3668.500          28.500    24672964.654   101031644.724 7     -2858.669          43.500    24672965.034   101031643.714 4     -2858.656          28.500    24672965.464    96821993.342 8     -2739.539          50.750
G25  20623884.864   108379244.323 9      1343.306          54.250    20623884.224   108379245.325 7      1343.306          46.250    20623885.894    84451359.584 8      1046.694          52.750    20623885.744    84451359.581 7      1046.709          46.250    20623885.024    80932552.758 9      1003.090          58.500
G12  20371942.481   107055279.255 8     -1384.907          53.500    20371942.661   107055279.253 7     -1384.907          47.000    20371940.371    83419698.025 8     -1079.176          51.500    20371940.291    83419698.030 7     -1079.167          47.000
G29  22399233.145   117708766.158 8      2916.940          49.500    22399232.985   117708765.150 6      2916.940          41.500    22399232.005    91721116.963 7      2272.902          47.250    22399231.675    91721115.969 6      2272.894          41.500
> 2015 09 03 07 47 29.0000000  0  8      -0.000128397846
G02  20736799.468   108972616.876 8      -138.966          51.500    20736798.988   108972616.873 7      -138.966          45.000                                                                    20736795.418    84913727.091 7      -108.325          45.000
G05  24273241.358   127556746.690 7      3488.605          44.250    24273241.938   127556746.688 5      3488.605          32.750    24273244.088    99394869.417 7      2718.380          42.750    24273243.608    99394868.424 5      2718.411          32.750
G06  22025489.001   115744723.342 8     -2456.633          49.500    22025489.521   115744723.343 6     -2456.633          41.250    22025491.421    90190693.382 8     -1914.246          48.250    22025491.101    90190694.381 6     -1914.243          41.250    22025491.141    86432748.109 9     -1834.479          54.500
G31  23597056.660   124003372.332 8      1991.858          48.250    23597056.730   124003370.333 6      1991.858          38.750    23597056.550    96626005.351 7      1552.088          45.000    23597056.080    96626003.346 6      1552.119          38.750
G24  24673658.135   129660948.141 6     -3668.466          40.000    24673658.665   129660945.132 4     -3668.466          28.500    24673662.735   101034503.439 7     -2858.637          43.750    24673662.965   101034502.430 4     -2858.680          28.500    24673663.575    96824732.949 8     -2739.521          50.750
G25  20623629.048   108377901.430 9      1342.721          54.250    20623628.768   108377902.429 7      1342.721          46.250    20623630.258    84450313.174 8      1046.269          52.750    20623630.078    84450313.172 7      1046.264          46.250    20623629.508    80931549.946 9      1002.675          58.500
G12  20372206.352   107056664.541 8     -1385.441          53.500    20372206.192   107056664.538 7     -1385.441          46.750    20372204.122    83420777.470 8     -1079.593          51.250    20372203.922    83420777.472 7     -1079.590          46.750
G29  22398678.118   117705849.466 8      2916.703          49.250    22398678.028   117705848.459 6      2916.703          41.500    22398676.798    91718844.215 7      2272.773          47.250    22398676.698    91718843.217 6      2272.783          41.500
> 2015 09 03 07 47 30.0000000  0  8      -0.000128418916
G02  20736826.159   108972756.086 8      -139.348          51.500    20736825.439   108972756.081 7      -139.348          45.250                                                                    20736821.939    84913835.565 7      -108.596          45.250
G05  24272577.899   127553258.069 7      3488.624          44.500    24272577.569   127553258.072 5      3488.624          32.750    24272580.109    99392151.018 7      2718.455          43.250    24272579.809    99392150.020 5      2718.474          32.750
G06  22025956.318   115747180.144 8     -2456.873          49.250    22025956.888   115747180.141 6     -2456.873          41.000    22025958.918    90192607.773 8     -1914.441          48.250    22025958.728    90192608.774 6     -1914.432          41.000    22025958.688    86434582.735 9     -1834.664          54.500
G31  23596677.734   124001380.669 8      1991.597          48.500    23596677.564   124001378.668 6      1991.597          38.750    23596677.334    96624453.406 7      1551.862          45.250    23596677.094    96624451.399 6      1551.896          38.750
G24  24674357.023   129664616.724 6     -3668.365          40.250    24674356.573   129664613.723 4     -3668.365          28.500    24674360.753   101037362.061 7     -2858.524          43.500    24674361.643   101037361.061 4     -2858.516          28.500    24674361.593    96827472.457 8     -2739.410          50.750
G25  20623373.574   108376558.910 9      1342.393          54.250    20623373.314   108376559.911 7      1342.393          46.250    20623374.784    84449267.055 8      1046.047          52.750    20623374.734    84449267.052 7      1046.050          46.250    20623373.994    80930547.415 9      1002.456          58.500
G12  20372469.984   107058050.225 8     -1385.822          53.500    20372469.944   107058050.220 7     -1385.822          47.000    20372467.654    83421857.222 8     -1079.880          51.250    20372467.654    83421857.224 7     -1079.873          47.000
G29  22398122.860   117702932.841 8      2916.698          49.000    22398123.130   117702931.839 6      2916.698          41.500    22398121.940    91716571.525 7      2272.755          47.250    22398121.530    91716570.536 6      2272.746          41.500
> 2015 09 03 07 47 31.0000000  0  8      -0.000128440001
G02  20736852.658   108972895.810 8      -139.867          51.500    20736852.078   108972895.806 7      -139.867          45.250                                                                    20736848.628    84913944.442 7      -109.027          45.250
G05  24271914.362   127549769.557 7      3488.636          44.750    24271913.962   127549769.552 5      3488.636          33.000    24271916.512    99389432.702 7      2718.374          43.000    24271915.862    99389431.712 5      2718.361          33.000
G06  22026424.045   115749637.351 8     -2457.270          49.250    22026424.355   115749637.350 6     -2457.270          41.250    22026426.355    90194522.478 8     -1914.773          48.250    22026426.215    90194523.480 6     -1914.781          41.250    22026426.295    86436417.662 9     -1834.992          54.500
G31  23596298.754   123999389.517 8      1991.087          48.500    23596298.964   123999387.509 6      1991.087          38.500    23596298.334    96622901.861 7      1551.500          45.250    23596298.214    96622899.851 6      1551.488          38.500
G24  24675055.372   129668285.291 6     -3668.416          40.000    24675055.682   129668282.288 4     -3668.416          28.500    24675058.882   101040220.684 7     -2858.546          43.250    24675059.532   101040219.686 4     -2858.575          28.500    24675059.632    96830211.973 8     -2739.433          50.750
G25  20623118.225   108375216.920 9      1341.867          54.000    20623117.825   108375217.919 7      1341.867          46.250    20623119.375    84448221.349 8      1045.612          52.750    20623119.325    84448221.348 7      1045.598          46.250    20623118.635    80929545.279 9      1002.040          58.500
G12  20372733.828   107059436.430 8     -1386.319          53.500    20372733.718   107059436.425 7     -1386.319          47.000    20372731.418    83422937.384 8     -1080.276          51.250    20372731.418    83422937.385 7     -1080.275          47.000
G29  22397567.911   117700016.420 8      2916.476          49.000    22397568.111   117700015.421 6      2916.476          41.500    22397567.091    91714298.995 7      2272.610          47.500    22397566.641    91714297.997 6      2272.611          41.500
> 2015 09 03 07 47 32.0000000  0  8      -0.000128461033
G02  20736879.333   108973036.142 8      -140.707          51.500    20736878.893   108973036.142 7      -140.707          45.250                                                                    20736875.203    84914053.791 7      -109.627          45.250
G05  24271250.397   127546281.253 7      3488.259          44.500    24271250.077   127546281.255 5      3488.259          33.000    24271252.777    99386714.547 7      2718.052          43.250    24271252.127    99386713.557 5      2718.035          33.000
G06  22026891.913   115752095.074 8     -2457.974          49.250    22026892.073   115752095.075 6     -2457.974          41.250    22026894.183    90196437.585 8     -1915.335          48.250    22026894.013    90196438.586 6     -1915.321          41.250    22026894.023    86438252.970 9     -1835.518          54.500
G31  23595920.206   123997398.982 8      1990.251          48.750    23595920.116   123997396.981 6      1990.251          38.750    23595919.596    96621350.798 7      1550.772          45.250    23595919.416    96621348.787 6      1550.794          38.750
G24  24675753.585   129671953.980 6     -3668.821          39.750    24675753.025   129671950.983 4     -3668.821          28.250    24675757.415   101043079.402 7     -2858.792          43.500    24675757.435   101043078.393 4     -2858.852          28.250    24675757.735    96832951.572 8     -2739.684          50.750
G25  20622862.892   108373875.556 9      1341.027          54.000    20622862.642   108373876.563 7      1341.027          46.250    20622863.992    84447176.132 8      1044.959          52.500    20622864.162    84447176.129 7      1044.956          46.250    20622863.382    80928543.611 9      1001.417          58.500
G12  20372997.693   107060823.261 8     -1387.204          53.750    20372997.603   107060823.257 7     -1387.204          46.750    20372995.443    83424018.031 8     -1080.940          51.250    20372995.233    83424018.033 7     -1080.955          46.750
G29  22397012.831   117697100.306 8      2915.992          49.000    22397013.131   117697099.308 6      2915.992          41.500    22397012.071    91712026.700 7      2272.169          47.500    22397011.861    91712025.701 6      2272.181          41.500
> 2015 09 03 07 47 33.0000000  0  8      -0.000128482109
G02  20736906.018   108973176.955 8      -140.960          51.250    20736905.568   108973176.953 7      -140.960          45.250                                                                    20736901.928    84914163.517 7      -109.821          45.250
G05  24270586.704   127542793.011 7      3488.330          44.500    24270586.314   127542793.009 5      3488.330          33.250    24270588.624    99383996.443 7      2718.194          43.250    24270588.594    99383995.442 5      2718.196          33.250
G06  22027359.742   115754553.169 8     -2458.202          49.250    22027359.942   115754553.171 6     -2458.202          41.000    22027361.702    90198352.984 8     -1915.488          48.250    22027361.682    90198353.984 6     -1915.468          41.000    22027361.772    86440088.560 9     -1835.670          54.500
G31  23595541.679   123995408.913 8      1989.965          48.750    23595541.489   123995406.907 6      1989.965          38.750    23595540.749    96619800.094 7      1550.616          45.250    23595540.989    96619798.093 6      1550.623          38.750
G24  24676450.912   129675622.612 6     -3668.624          40.000    24676451.452   129675619.607 4     -3668.624          28.750    24676456.012   101045938.076 7     -2858.655          43.750    24676455.522   101045937.067 4     -2858.598          28.750    24676455.732    96835691.134 8     -2739.526          50.500
G25  20622607.652   108372534.665 9      1340.767          54.000    20622607.422   108372535.664 7      1340.767          46.250    20622608.902    84446131.278 8      1044.757          52.750    20622608.912    84446131.277 7      1044.765          46.250    20622608.222    80927542.296 9      1001.232          58.750
G12  20373261.490   107062210.583 8     -1387.490          53.750    20373261.610   107062210.578 7     -1387.490          47.000    20373259.440    83425099.060 8     -1081.157          51.250    20373259.300    83425099.060 7     -1081.144          47.000
G29  22396457.948   117694184.351 8      2915.982          49.000    22396458.018   117694183.358 6      2915.982          41.750    22396457.288    91709754.528 7      2272.219          47.750    22396456.668    91709753.535 6      2272.213          41.750
