     3.03           OBSERVATION DATA    M                   RINEX VERSION / TYPE
JPS2RIN v.2.0.112   JAVAD GNSS          20150914 095939 UTC PGM / RUN BY / DATE
Kai Borre           SSAU                                    OBSERVER / AGENCY
log_r_2015_09_03_07.45.27                                   MARKER NAME
1QBYLPYUZ2CL20QYWF01JAVAD TRE_3         3.6.0b0 Apr,08,2014 REC # / TYPE / VERS
  2451422.1381  2939955.2576  5084822.5765                  APPROX POSITION XYZ
-Unknown-           -Unknown-                               ANT # / TYPE
        0.0000        0.0000        0.0000                  ANTENNA: DELTA H/E/N
G   20 C1C L1C D1C S1C C1W L1W D1W S1W C2X L2X D2X S2X C2W  SYS / # / OBS TYPES
       L2W D2W S2W C5X L5X D5X S5X                          SYS / # / OBS TYPES
     1.000                                                  INTERVAL
  2015     9     3     7    45   27.0000000     GPS         TIME OF FIRST OBS
  2015     9     3     7    59   59.0000000     GPS         TIME OF LAST OBS
    17                                                      LEAP SECONDS
G L1C  0.00000  08 G02 G05 G06 G12 G24 G25 G29 G31          SYS / PHASE SHIFT
G L1W -0.25000  08 G02 G05 G06 G12 G24 G25 G29 G31          SYS / PHASE SHIFT
G L2X  0.25000  07 G05 G06 G12 G24 G25 G29 G31              SYS / PHASE SHIFT
G L2W  0.00000  08 G02 G05 G06 G12 G24 G25 G29 G31          SYS / PHASE SHIFT
G L5X  0.00000  03 G06 G24 G25                              SYS / PHASE SHIFT
     8                                                      # OF SATELLITES
   G02   873   873   873   873   873   873   873   873     0PRN / # OF OBS
           0     0     0   873   873   873   873     0     0PRN / # OF OBS
           0     0                                          PRN / # OF OBS
   G05   873   873   873   873   873   873   873   873   873PRN / # OF OBS
         873   873   873   873   873   873   873     0     0PRN / # OF OBS
           0     0                                          PRN / # OF OBS
   G06   873   873   873   873   873   873   873   873   873PRN / # OF OBS
         873   873   873   873   873   873   873   873   873PRN / # OF OBS
         873   873                                          PRN / # OF OBS
   G12   873   873   873   873   873   873   873   873   873PRN / # OF OBS
         873   873   873   873   873   873   873     0     0PRN / # OF OBS
           0     0                                          PRN / # OF OBS
   G24   873   873   873   873   873   873   873   873   873PRN / # OF OBS
         873   873   873   873   873   873   873   873   873PRN / # OF OBS
         873   873                                          PRN / # OF OBS
   G25   873   873   873   873   873   873   873   873   873PRN / # OF OBS
         873   873   873   873   873   873   873   873   873PRN / # OF OBS
         873   873                                          PRN / # OF OBS
   G29   873   873   873   873   873   873   873   873   873PRN / # OF OBS
         873   873   873   873   873   873   873     0     0PRN / # OF OBS
           0     0                                          PRN / # OF OBS
   G31   873   873   873   873   873   873   873   873   873PRN / # OF OBS
         873   873   873   873   873   873   873     0     0PRN / # OF OBS
           0     0                                          PRN / # OF OBS
                                                            END OF HEADER
> 2015 09 03 07 45 27.0000000  0  8       0.000055689292
G02  20788761.296   109245676.083 8       -61.646          50.500    20788760.566   109245676.075 7       -61.646          45.250                                                                    20788757.626    85126502.483 7       -48.065          45.250
G05  24408834.267   128269290.392 7      3515.141          43.250    24408834.367   128269287.393 4      3515.141          29.000    24408836.797    99950096.303 6      2739.019          39.500    24408837.477    99950094.308 4      2739.011          29.000
G06  22023499.030   115734268.882 8     -2391.694          50.500    22023499.250   115734267.879 7     -2391.694          43.250    22023502.400    90182548.461 8     -1863.679          51.750    22023502.350    90182548.459 7     -1863.667          43.250    22023501.640    86424941.750 9     -1786.023          56.250
G31  23698477.024   124536334.328 8      2067.972          48.000    23698476.674   124536334.323 6      2067.972          37.000    23698476.134    97041302.069 7      1611.427          44.750    23698476.354    97041302.071 6      1611.418          37.000
G24  24642948.733   129499569.522 7     -3653.667          42.750    24642949.093   129499565.504 4     -3653.667          27.750    24642953.373   100908754.050 6     -2846.992          40.750    24642953.193   100908754.057 4     -2847.048          27.750    24642953.633    96704221.365 8     -2728.375          48.500
G25  20709993.682   108831752.114 8      1420.193          53.500    20709993.262   108831750.110 7      1420.193          45.500    20709995.492    84803962.487 8      1106.624          51.750    20709995.532    84803962.486 7      1106.637          45.500    20709994.312    81270463.977 9      1060.521          57.500
G12  20395243.900   107177728.415 8     -1306.855          52.500    20395243.800   107177728.406 7     -1306.855          45.000    20395242.770    83515115.823 8     -1018.325          50.750    20395242.580    83515114.826 7     -1018.326          45.000
G29  22521130.209   118349339.314 8      2955.235          48.750    22521130.249   118349339.309 6      2955.235          40.000    22521130.039    92220265.475 7      2302.774          46.000    22521129.869    92220265.480 6      2302.795          40.000
> 2015 09 03 07 45 28.0000000  0  8       0.000055661281
G02  20788773.219   109245738.025 8       -62.454          50.500    20788772.429   109245738.016 7       -62.454          45.250                                                                    20788769.439    85126550.751 7       -48.652          45.250
G05  24408165.154   128265775.433 7      3514.696          43.500    24408165.734   128265772.429 4      3514.696          29.250    24408168.764    99947357.382 6      2738.742          39.250    24408168.544    99947355.383 4      2738.742          29.250
G06  22023954.397   115736660.786 8     -2392.382          50.500    22023954.677   115736659.777 7     -2392.382          43.250    22023957.497    90184412.280 8     -1864.174          51.750    22023957.637    90184412.282 7     -1864.178          43.250    22023956.837    86426727.907 9     -1786.494          56.250
G31  23698083.093   124534266.637 8      2067.180          48.000    23698083.203   124534266.637 6      2067.180          37.250    23698082.723    97039690.886 7      1610.809          44.750    23698083.013    97039690.890 6      1610.800          37.250
G24  24643644.419   129503223.258 7     -3653.950          43.250    24643644.079   129503219.252 4     -3653.950          28.000    24643648.319   100911601.115 6     -2847.241          40.750    24643649.159   100911601.114 4     -2847.238          28.000    24643648.999    96706949.805 8     -2728.636          48.750
G25  20709723.425   108830332.179 8      1419.488          53.500    20709722.935   108830330.175 7      1419.488          45.500    20709725.425    84802856.045 8      1106.117          51.750    20709725.435    84802856.044 7      1106.112          45.500    20709724.105    81269403.638 9      1060.028          57.500
G12  20395492.593   107179035.583 8     -1307.708          52.750    20395492.573   107179035.570 7     -1307.708          45.250    20395491.443    83516134.394 8     -1019.006          51.000    20395491.353    83516133.397 7     -1019.004          45.250
G29  22520567.684   118346384.182 8      2954.795          48.750    22520568.094   118346384.181 6      2954.795          40.000    22520567.924    92217962.775 7      2302.438          46.250    22520567.604    92217962.785 6      2302.424          40.000
> 2015 09 03 07 45 29.0000000  0  8       0.000055633340
G02  20788785.130   109245800.639 8       -62.978          50.500    20788784.440   109245800.629 7       -62.978          45.250                                                                    20788781.340    85126599.544 7       -49.086          45.250
G05  24407496.020   128262260.711 7      3514.620          43.000    24407496.910   128262257.698 4      3514.620          29.500    24407499.490    99944618.645 6      2738.717          39.750    24407499.740    99944616.649 4      2738.719          29.500
G06  22024409.362   115739053.260 8     -2392.765          50.500    22024409.882   115739052.252 7     -2392.765          43.250    22024412.832    90186276.546 8     -1864.515          52.000    22024412.902    90186276.545 7     -1864.483          43.250    22024412.102    86428514.497 9     -1786.818          56.250
G31  23697690.203   124532199.596 7      2066.694          47.750    23697689.973   124532199.589 6      2066.694          37.250    23697689.353    97038080.208 7      1610.390          44.750    23697689.073    97038080.205 6      1610.411          37.250
G24  24644339.410   129506877.135 7     -3653.964          43.250    24644339.690   129506873.125 4     -3653.964          27.750    24644343.760   100914448.288 6     -2847.224          40.750    24644343.900   100914448.288 4     -2847.168          27.750    24644344.200    96709678.345 8     -2728.607          48.750
G25  20709453.312   108828912.925 8      1418.937          53.500    20709453.052   108828910.928 7      1418.937          45.500    20709455.382    84801750.138 8      1105.640          51.750    20709455.322    84801750.134 7      1105.644          45.500    20709454.042    81268343.806 9      1059.587          57.500
G12  20395741.481   107180343.409 8     -1308.194          52.750    20395741.441   107180343.400 7     -1308.194          45.250    20395740.441    83517153.479 8     -1019.368          51.000    20395740.131    83517152.482 7     -1019.369          45.250
G29  22520005.613   118343429.394 8      2954.641          48.250    22520005.823   118343429.382 6      2954.641          40.000    22520005.223    92215660.349 7      2302.285          46.000    22520005.453    92215660.355 6      2302.284          40.000
> 2015 09 03 07 45 30.0000000  0  8       0.000055605449
G02  20788797.088   109245863.861 8       -63.602          50.500    20788796.438   109245863.850 7       -63.602          45.250                                                                    20788793.498    85126648.807 7       -49.602          45.250
G05  24406827.660   128258746.201 7      3514.323          43.000    24406827.960   128258743.196 4      3514.323          29.000    24406830.840    99941880.075 6      2738.469          39.750    24406830.790    99941878.070 4      2738.451          29.000
G06  22024864.857   115741446.246 8     -2393.250          50.250    22024865.407   115741445.241 7     -2393.250          43.250    22024868.077    90188141.209 8     -1864.916          52.000    22024868.147    90188141.212 7     -1864.936          43.250    22024867.487    86430301.466 9     -1787.217          56.250
G31  23697296.822   124530133.148 7      2066.086          47.750    23697296.802   124530133.146 6      2066.086          37.250    23697295.932    97036469.989 7      1609.898          44.750    23697296.142    97036470.000 6      1609.883          37.250
G24  24645034.817   129510531.114 7     -3654.091          43.250    24645034.817   129510527.116 4     -3654.091          27.750    24645038.507   100917295.553 6     -2847.364          40.750    24645039.387   100917295.547 4     -2847.360          27.750    24645039.467    96712406.964 8     -2728.707          48.500
G25  20709183.508   108827494.272 8      1418.309          53.500    20709183.018   108827492.272 7      1418.309          45.500    20709185.348    84800644.694 8      1105.134          51.750    20709185.338    84800644.690 7      1105.133          45.500    20709184.098    81267284.424 9      1059.084          57.500
G12  20395990.513   107181651.868 8     -1308.870          52.500    20395990.413   107181651.859 7     -1308.870          45.000    20395989.473    83518173.059 8     -1019.895          51.000    20395989.213    83518172.062 7     -1019.889          45.000
G29  22519443.364   118340474.907 8      2954.308          48.250    22519443.414   118340474.895 6      2954.308          40.250    22519443.234    92213358.143 7      2302.014          46.000    22519443.344    92213358.161 6      2302.004          40.250
> 2015 09 03 07 45 31.0000000  0  8       0.000055577660
G02  20788809.011   109245927.782 8       -64.484          50.500    20788808.551   109245927.773 7       -64.484          45.000                                                                    20788805.711    85126698.616 7       -50.247          45.000
G05  24406158.961   128255231.945 7      3513.990          43.250    24406159.301   128255228.946 4      3513.990          29.500    24406162.761    99939141.701 6      2738.175          39.500    24406162.121    99939139.712 4      2738.180          29.500
G06  22025320.281   115743839.850 8     -2394.123          50.250    22025320.841   115743838.844 7     -2394.123          43.250    22025323.611    90190006.356 8     -1865.564          51.750    22025323.641    90190006.356 7     -1865.560          43.250    22025322.981    86432088.895 9     -1787.832          56.250
G31  23696903.587   124528067.399 7      2065.259          47.750    23696903.557   124528067.394 6      2065.259          37.500    23696902.887    97034860.301 7      1609.300          45.000    23696903.087    97034860.316 6      1609.286          37.500
G24  24645730.573   129514185.288 7     -3654.508          43.250    24645731.293   129514181.286 4     -3654.508          28.000    24645734.503   100920142.962 6     -2847.625          40.750    24645734.933   100920142.958 4     -2847.637          28.000    24645734.863    96715135.725 8     -2728.952          48.500
G25  20708913.679   108826076.311 8      1417.401          53.500    20708913.209   108826074.312 7      1417.401          45.500    20708915.459    84799539.789 8      1104.484          51.500    20708915.499    84799539.788 7      1104.476          45.500    20708914.269    81266225.557 9      1058.455          57.500
G12  20396239.490   107182961.037 8     -1309.719          52.500    20396239.610   107182961.022 7     -1309.719          45.250    20396238.410    83519193.187 8     -1020.538          50.750    20396238.310    83519192.191 7     -1020.542          45.250
G29  22518881.043   118337520.796 8      2953.738          48.500    22518881.253   118337520.797 6      2953.738          40.250    22518881.283    92211056.243 7      2301.606          46.000    22518880.583    92211056.259 6      2301.595          40.250
> 2015 09 03 07 45 32.0000000  0  8       0.000055549961
G02  20788821.398   109245992.406 8       -65.073          50.750    20788820.848   109245992.395 7       -65.073          45.250                                                                    20788817.908    85126748.970 7       -50.724          45.250
G05  24405490.091   128251717.986 7      3513.678          43.000    24405490.421   128251714.982 4      3513.678          29.250    24405492.961    99936403.554 6      2737.950          39.750    24405493.421    99936401.564 4      2737.960          29.250
G06  22025775.984   115746234.049 8     -2394.684          50.250    22025776.304   115746233.047 7     -2394.684          43.250    22025779.194    90191871.964 8     -1865.987          51.750    22025779.134    90191871.962 7     -1865.981          43.250    22025778.574    86433876.771 9     -1788.243          56.250
G31  23696510.727   124526002.326 7      2064.670          47.750    23696510.697   124526002.325 6      2064.670          37.250    23696510.507    97033251.158 7      1608.776          45.250    23696510.427    97033251.172 6      1608.782          37.250
G24  24646425.258   129517839.646 7     -3654.608          43.000    24646425.808   129517835.650 4     -3654.608          27.750    24646430.248   100922990.507 6     -2847.669          40.750    24646430.458   100922990.506 4     -2847.698          27.750    24646430.148    96717864.621 8     -2729.001          48.500
G25  20708643.893   108824659.053 8      1416.784          53.500    20708643.553   108824657.055 7      1416.784          45.500    20708645.693    84798435.432 8      1103.967          51.500    20708645.773    84798435.432 7      1103.972          45.500    20708644.553    81265167.217 9      1057.976          57.500
G12  20396488.651   107184270.914 8     -1310.371          52.250    20396488.921   107184270.902 7     -1310.371          45.000    20396487.791    83520213.871 8     -1021.081          50.750    20396487.631    83520212.870 7     -1021.064          45.000
G29  22518319.391   118334567.060 8      2953.397          48.500    22518319.441   118334567.059 6      2953.397          40.250    22518318.821    92208754.631 7      2301.363          46.000    22518318.891    92208754.637 6      2301.386          40.250
> 2015 09 03 07 45 33.0000000  0  8       0.000055522295
G02  20788834.005   109246057.605 8       -65.347          50.750    20788833.165   109246057.595 7       -65.347          45.000                                                                    20788830.295    85126799.778 7       -50.927          45.000
G05  24404821.647   128248204.188 7      3513.791          43.000    24404822.257   128248201.171 4      3513.791          29.250    24404824.527    99933665.533 6      2738.025          39.500    24404825.037    99933663.529 4      2738.039          29.250
G06  22026231.626   115748628.722 8     -2394.811          50.250    22026232.016   115748627.722 7     -2394.811          43.250    22026234.846    90193737.942 8     -1866.071          51.750    22026234.846    90193737.943 7     -1866.087          43.250    22026234.266    86435664.999 9     -1788.328          56.250
G31  23696117.855   124523937.819 7      2064.337          47.500    23696118.325   124523937.810 6      2064.337          37.500    23696117.345    97031642.452 7      1608.591          45.250    23696117.145    97031642.460 6      1608.597          37.500
G24  24647120.908   129521494.095 7     -3654.397          43.000    24647121.048   129521490.087 4     -3654.397          27.500    24647125.478   100925838.130 6     -2847.613          40.750    24647125.758   100925838.132 4     -2847.601          27.500    24647125.628    96720593.592 8     -2728.961          48.500
G25  20708374.371   108823242.363 8      1416.559          53.500    20708373.951   108823240.368 7      1416.559          45.500    20708376.211    84797331.519 8      1103.826          51.500    20708376.251    84797331.518 7      1103.829          45.500    20708374.991    81264109.298 9      1057.840          57.500
G12  20396738.123   107185581.377 8     -1310.640          52.250    20396738.183   107185581.363 7     -1310.640          45.250    20396736.983    83521235.008 8     -1021.269          50.750    20396736.903    83521234.016 7     -1021.285          45.250
G29  22517757.298   118331613.585 8      2953.517          48.500    22517757.548   118331613.577 6      2953.517          40.250    22517757.078    92206453.222 7      2301.416          46.000    22517756.748    92206453.232 6      2301.397          40.250
> 2015 09 03 07 45 34.0000000  0  8       0.000055494606
G02  20788846.317   109246123.303 8       -66.068          50.500    20788845.747   109246123.298 7       -66.068          45.250                                                                    20788842.777    85126850.971 7       -51.496          45.250
G05  24404153.355   128244690.430 7      3513.680          43.000    24404152.695   128244687.428 4      3513.680          29.250    24404155.385    99930927.548 6      2737.933          39.750    24404156.145    99930925.556 4      2737.934          29.250
G06  22026687.224   115751023.801 8     -2395.423          49.750    22026687.644   115751022.799 7     -2395.423          43.250    22026690.574    90195604.239 8     -1866.581          51.500    22026690.774    90195604.238 7     -1866.580          43.250    22026690.024    86437453.533 9     -1788.798          56.000
G31  23695725.037   124521873.796 7      2063.660          47.500    23695725.407   124521873.784 6      2063.660          37.250    23695725.087    97030034.123 7      1608.010          45.500    23695724.357    97030034.140 6      1607.985          37.250
G24  24647816.226   129525148.510 7     -3654.500          42.500    24647816.216   129525144.502 4     -3654.500          27.750    24647820.806   100928685.721 6     -2847.698          40.500    24647820.966   100928685.719 4     -2847.664          27.750    24647820.856    96723322.537 8     -2729.036          48.500
G25  20708104.701   108821826.174 8      1415.807          53.500    20708104.451   108821824.176 7      1415.807          45.500    20708106.541    84796227.992 8      1103.214          51.500    20708106.671    84796227.992 7      1103.215          45.500    20708105.461    81263051.756 9      1057.241          57.500
G12  20396987.454   107186892.349 8     -1311.353          52.000    20396987.704   107186892.331 7     -1311.353          45.250    20396986.324    83522256.546 8     -1021.844          50.750    20396986.454    83522255.551 7     -1021.848          45.250
G29  22517195.100   118328660.280 8      2953.132          48.250    22517195.200   118328660.272 6      2953.132          40.250    22517195.140    92204151.950 7      2301.119          46.000    22517194.690    92204151.957 6      2301.124          40.250
> 2015 09 03 07 45 35.0000000  0  8       0.000055466978
G02  20788859.034   109246189.644 8       -66.854          50.500    20788858.414   109246189.635 7       -66.854          45.250                                                                    20788855.354    85126902.668 7       -52.112          45.250
G05  24403484.494   128241176.925 7      3513.219          43.000    24403484.864   128241173.921 4      3513.219          29.500    24403487.304    99928189.750 6      2737.621          39.750    24403487.134    99928187.754 4      2737.622          29.500
G06  22027143.415   115753419.420 8     -2396.050          49.750    22027143.695   115753418.413 7     -2396.050          43.250    22027146.485    90197470.951 8     -1867.042          51.500    22027146.645    90197470.948 7     -1867.026          43.250    22027145.895    86439242.464 9     -1789.242          56.000
G31  23695332.648   124519810.386 7      2062.948          47.500    23695332.598   124519810.375 6      2062.948          37.250    23695332.238    97028426.272 7      1607.482          45.500    23695331.648    97028426.280 6      1607.473          37.250
G24  24648511.583   129528803.099 7     -3654.841          42.500    24648511.933   129528799.092 4     -3654.841          27.750    24648515.953   100931533.447 6     -2847.926          40.500    24648516.353   100931533.453 4     -2847.946          27.750    24648516.343    96726051.602 8     -2729.243          48.250
G25  20707835.572   108820410.619 8      1415.070          53.500    20707835.132   108820408.618 7      1415.070          45.500    20707837.322    84795124.962 8      1102.669          51.500    20707837.362    84795124.963 7      1102.662          45.500    20707836.112    81261994.686 9      1056.723          57.500
G12  20397237.370   107188203.972 8     -1312.112          52.000    20397237.370   107188203.953 7     -1312.112          45.250    20397235.750    83523278.589 8     -1022.433          50.750    20397235.910    83523277.589 7     -1022.415          45.250
G29  22516633.073   118325707.300 8      2952.661          48.250    22516633.343   118325707.296 6      2952.661          40.250    22516633.373    92201850.928 7      2300.746          45.750    22516633.103    92201850.940 6      2300.728          40.250
> 2015 09 03 07 45 36.0000000  0  8       0.000055439451
G02  20788871.746   109246256.715 8       -67.340          50.500    20788871.076   109246256.706 7       -67.340          45.250                                                                    20788868.126    85126954.928 7       -52.481          45.250
G05  24402815.606   128237663.718 7      3513.218          43.000    24402816.356   128237660.715 4      3513.218          29.750    24402819.126    99925452.190 6      2737.492          40.000    24402818.636    99925450.192 4      2737.514          29.750
G06  22027599.444   115755815.681 8     -2396.500          50.000    22027599.734   115755814.678 7     -2396.500          43.250    22027602.314    90199338.166 8     -1867.388          51.750    22027602.824    90199338.168 7     -1867.395          43.250    22027601.844    86441031.879 9     -1789.587          56.000
G31  23694939.545   124517747.691 7      2062.463          47.500    23694939.785   124517747.684 6      2062.463          37.500    23694939.825    97026818.981 7      1607.130          45.500    23694939.545    97026818.987 6      1607.117          37.500
G24  24649206.447   129532457.892 7     -3654.792          42.250    24649207.907   129532453.886 4     -3654.792          28.000    24649211.537   100934381.340 6     -2847.949          40.750    24649211.837   100934381.333 4     -2847.972          28.000    24649211.847    96728780.826 8     -2729.255          48.250
G25  20707566.259   108818995.790 8      1414.620          53.750    20707565.959   108818993.786 7      1414.620          45.500    20707568.159    84794022.497 8      1102.315          51.750    20707568.189    84794022.499 7      1102.310          45.500    20707566.839    81260938.157 9      1056.379          57.500
G12  20397486.654   107189516.337 8     -1312.616          52.000    20397486.994   107189516.323 7     -1312.616          45.250    20397485.934    83524301.212 8     -1022.831          50.750    20397485.784    83524300.213 7     -1022.822          45.250
G29  22516071.550   118322754.731 8      2952.520          48.250    22516071.440   118322754.725 6      2952.520          40.250    22516071.240    92199550.228 7      2300.621          45.750    22516071.000    92199550.236 6      2300.605          40.250
> 2015 09 03 07 45 37.0000000  0  8       0.000055411931
G02  20788884.843   109246324.350 8       -67.938          50.750    20788884.013   109246324.345 7       -67.938          45.000                                                                    20788881.003    85127007.632 7       -52.935          45.000
G05  24402146.781   128234150.626 7      3513.052          43.000    24402147.511   128234147.625 5      3513.052          30.000    24402150.141    99922714.722 6      2737.448          40.000    24402150.811    99922712.738 5      2737.456          30.000
G06  22028055.345   115758212.397 8     -2396.959          50.000    22028055.625   115758211.394 7     -2396.959          43.000    22028058.685    90201205.738 8     -1867.762          51.750    22028058.725    90201205.734 7     -1867.757          43.000    22028057.915    86442821.632 9     -1789.931          56.000
G31  23694547.443   124515685.555 7      2061.898          47.750    23694547.253   124515685.544 6      2061.898          37.500    23694546.973    97025212.123 7      1606.688          45.500    23694546.973    97025212.120 6      1606.695          37.500
G24  24649902.569   129536112.716 7     -3654.829          42.250    24649903.739   129536108.709 4     -3654.829          28.250    24649907.369   100937229.242 6     -2847.852          40.750    24649907.919   100937229.236 4     -2847.842          28.250    24649907.139    96731510.072 8     -2729.182          48.250
G25  20707297.216   108817581.527 8      1414.025          53.500    20707296.806   108817579.525 7      1414.025          45.500    20707299.076    84792920.476 8      1101.822          51.750    20707298.986    84792920.475 7      1101.828          45.500    20707297.766    81259882.050 9      1055.923          57.500
G12  20397736.804   107190829.278 8     -1313.192          52.250    20397736.764   107190829.262 7     -1313.192          45.250    20397735.444    83525324.282 8     -1023.270          50.750    20397735.694    83525323.284 7     -1023.271          45.250
G29  22515509.610   118319802.400 8      2952.288          48.250    22515509.780   118319802.394 6      2952.288          40.250    22515509.440    92197249.708 7      2300.478          45.750    22515509.350    92197249.713 6      2300.477          40.250
> 2015 09 03 07 45 38.0000000  0  8       0.000055384492
G02  20788897.702   109246392.628 8       -68.791          50.750    20788897.002   109246392.617 7       -68.791          45.250                                                                    20788894.052    85127060.837 7       -53.581          45.250
G05  24401478.637   128230637.778 7      3512.582          43.250    24401479.097   128230634.776 4      3512.582          29.500    24401482.137    99919977.444 6      2737.079          40.500    24401482.047    99919975.451 4      2737.085          29.500
G06  22028511.680   115760609.671 8     -2397.699          50.000    22028511.980   115760608.667 7     -2397.699          43.250    22028514.910    90203073.740 8     -1868.355          51.750    22028514.940    90203073.736 7     -1868.348          43.250    22028514.140    86444611.803 9     -1790.510          56.250
G31  23694154.961   124513624.035 7      2061.045          47.750    23694155.441   124513624.019 6      2061.045          37.250    23694154.591    97023605.747 7      1606.032          45.500    23694154.561    97023605.750 6      1605.996          37.250
G24  24650598.507   129539767.724 7     -3655.292          42.500    24650598.697   129539763.707 4     -3655.292          28.000    24650602.117   100940077.295 6     -2848.254          41.000    24650603.467   100940077.283 4     -2848.283          28.000    24650602.717    96734239.452 8     -2729.589          48.250
G25  20707028.072   108816167.906 8      1413.139          53.750    20707027.802   108816165.905 7      1413.139          45.500    20707029.902    84791818.955 8      1101.132          51.750    20707030.022    84791818.951 7      1101.143          45.500    20707028.742    81258826.425 9      1055.263          57.750
G12  20397986.825   107192142.871 8     -1314.089          52.250    20397986.815   107192142.856 7     -1314.089          45.250    20397985.435    83526347.863 8     -1023.977          50.750    20397985.615    83526346.866 7     -1023.985          45.250
G29  22514947.910   118316850.400 8      2951.747          48.250    22514947.900   118316850.385 6      2951.747          40.250    22514947.470    92194949.450 7      2299.992          45.750    22514947.280    92194949.455 6      2300.019          40.250
> 2015 09 03 07 45 39.0000000  0  8       0.000055357196
G02  20788910.752   109246461.686 8       -69.405          50.750    20788910.142   109246461.680 7       -69.405          45.250                                                                    20788907.222    85127114.647 7       -54.063          45.250
G05  24400810.864   128227125.279 7      3512.417          43.250    24400810.794   128227122.265 4      3512.417          29.250    24400814.514    99917240.438 6      2736.892          40.500    24400813.504    99917238.442 4      2736.875          29.250
G06  22028967.694   115763007.614 8     -2398.164          50.000    22028968.284   115763006.606 7     -2398.164          43.250    22028971.154    90204942.265 8     -1868.725          51.750    22028971.124    90204942.264 7     -1868.745          43.250    22028970.474    86446402.472 9     -1790.865          56.250
G31  23693762.991   124511563.295 7      2060.437          47.750    23693763.371   124511563.283 6      2060.437          37.500    23693762.641    97021999.981 7      1605.505          45.500    23693762.771    97021999.975 6      1605.506          37.500
G24  24651293.342   129543422.959 7     -3655.370          42.250    24651293.962   129543418.949 4     -3655.370          27.750    24651298.752   100942925.534 6     -2848.316          40.750    24651299.022   100942925.524 4     -2848.296          27.750    24651298.372    96736969.014 8     -2729.632          48.250
G25  20706759.137   108814755.058 8      1412.507          53.750    20706758.977   108814753.060 7      1412.507          45.500    20706761.057    84790718.035 8      1100.651          51.750    20706761.157    84790718.035 7      1100.646          45.500    20706759.927    81257771.377 9      1054.792          57.750
G12  20398236.860   107193457.261 8     -1314.745          52.250    20398236.900   107193457.249 7     -1314.745          45.250    20398235.850    83527372.062 8     -1024.492          50.750    20398235.810    83527371.063 7     -1024.498          45.250
G29  22514386.165   118313898.856 8      2951.409          48.000    22514386.245   118313898.850 6      2951.409          40.250    22514385.975    92192649.545 7      2299.779          45.750    22514385.825    92192649.555 6      2299.772          40.250
> 2015 09 03 07 45 40.0000000  0  8       0.000055329947
G02  20788924.014   109246531.378 8       -70.034          50.500    20788923.474   109246531.370 7       -70.034          45.250                                                                    20788920.364    85127168.952 7       -54.601          45.250
G05  24400141.628   128223612.964 7      3512.222          43.000    24400142.318   128223609.947 4      3512.222          29.750    24400145.278    99914503.575 6      2736.750          40.500    24400144.528    99914501.581 4      2736.709          29.750
G06  22029424.182   115765406.098 8     -2398.831          50.000    22029424.522   115765405.094 7     -2398.831          43.250    22029427.612    90206811.214 8     -1869.236          51.750    22029427.582    90206811.215 7     -1869.250          43.250    22029426.882    86448193.549 9     -1791.356          56.250
G31  23693370.962   124509503.161 7      2059.785          47.750    23693371.062   124509503.155 6      2059.785          37.250    23693370.522    97020394.683 7      1605.033          45.500    23693370.472    97020394.675 6      1605.036          37.250
G24  24651988.956   129547078.321 7     -3655.416          42.250    24651989.076   129547074.304 4     -3655.416          27.750    24651994.306   100945773.869 6     -2848.453          40.750    24651993.766   100945773.853 4     -2848.457          27.750    24651993.946    96739698.665 8     -2729.773          48.250
G25  20706490.436   108813342.827 8      1411.905          53.750    20706490.156   108813340.827 7      1411.905          45.500    20706492.356    84789617.598 8      1100.177          51.500    20706492.356    84789617.600 7      1100.164          45.500    20706491.166    81256716.794 9      1054.338          57.750
G12  20398487.256   107194772.284 8     -1315.371          52.250    20398487.206   107194772.272 7     -1315.371          45.500    20398485.926    83528396.757 8     -1025.005          50.750    20398485.976    83528395.754 7     -1025.003          45.500
G29  22513824.426   118310947.630 8      2951.011          48.250    22513824.536   118310947.627 6      2951.011          40.250    22513824.056    92190349.889 7      2299.468          45.750    22513824.276    92190349.900 6      2299.449          40.250
> 2015 09 03 07 45 41.0000000  0  8       0.000055302718
G02  20788937.202   109246601.645 8       -70.606          50.750    20788936.722   109246601.635 7       -70.606          45.250                                                                    20788933.882    85127223.706 7       -54.999          45.250
G05  24399473.739   128220100.809 7      3512.046          42.750    24399473.429   128220097.805 4      3512.046          29.500    24399477.149    99911766.844 6      2736.652          40.250    24399476.249    99911764.845 4      2736.675          29.500
G06  22029880.940   115767805.054 8     -2399.305          50.000    22029881.250   115767804.048 7     -2399.305          43.250    22029884.150    90208680.527 8     -1869.586          51.750    22029884.280    90208680.527 7     -1869.589          43.250    22029883.380    86449984.974 9     -1791.694          56.250
G31  23692979.064   124507443.593 7      2059.250          47.750    23692978.984   124507443.578 6      2059.250          37.250    23692978.984    97018789.826 7      1604.597          45.250    23692978.704    97018789.817 6      1604.626          37.250
G24  24652684.936   129550733.742 7     -3655.514          42.000    24652685.116   129550729.729 4     -3655.514          27.500    24652689.706   100948622.243 6     -2848.434          40.750    24652689.476   100948622.227 4     -2848.444          27.500    24652689.636    96742428.354 8     -2729.734          48.250
G25  20706221.903   108811931.192 8      1411.313          53.750    20706221.603   108811929.195 7      1411.313          45.500    20706223.903    84788517.621 8      1099.728          51.500    20706223.753    84788517.619 7      1099.741          45.500    20706222.563    81255662.647 9      1053.906          57.750
G12  20398737.493   107196087.896 8     -1315.969          52.250    20398737.513   107196087.882 7     -1315.969          45.250    20398736.493    83529421.907 8     -1025.414          50.750    20398736.293    83529420.905 7     -1025.387          45.250
G29  22513263.115   118307996.650 8      2950.802          48.250    22513262.925   118307996.636 6      2950.802          40.250    22513262.445    92188050.419 7      2299.348          45.750    22513262.635    92188050.435 6      2299.332          40.250
> 2015 09 03 07 45 42.0000000  0  8       0.000055275525
G02  20788950.696   109246672.522 8       -71.091          50.500    20788950.306   109246672.514 7       -71.091          45.000                                                                    20788947.456    85127278.933 7       -55.357          45.000
G05  24398805.379   128216588.838 7      3511.975          42.750    24398805.609   128216585.824 4      3511.975          29.250    24398808.719    99909030.248 6      2736.656          40.250    24398808.029    99909028.264 4      2736.641          29.250
G06  22030337.170   115770204.525 8     -2399.675          50.000    22030337.840   115770203.523 7     -2399.675          43.250    22030340.860    90210550.245 8     -1869.877          51.750    22030340.710    90210550.242 7     -1869.864          43.250    22030339.980    86451776.786 9     -1791.961          56.250
G31  23692586.944   124505384.632 7      2058.702          47.500    23692587.264   124505384.614 6      2058.702          37.500    23692586.634    97017185.438 7      1604.187          45.250    23692586.974    97017185.429 6      1604.194          37.500
G24  24653380.470   129554389.299 7     -3655.468          42.000    24653380.900   129554385.284 4     -3655.468          28.000    24653385.000   100951470.717 6     -2848.453          41.000    24653385.590   100951470.709 4     -2848.427          28.000    24653385.250    96745158.148 8     -2729.774          48.250
G25  20705953.289   108810520.161 8      1410.781          53.750    20705953.049   108810518.157 7      1410.781          45.250    20705955.319    84787418.116 8      1099.339          51.500    20705955.329    84787418.113 7      1099.349          45.250    20705954.039    81254608.956 9      1053.533          57.750
G12  20398987.946   107197404.141 8     -1316.508          52.000    20398987.936   107197404.131 7     -1316.508          45.250    20398986.746    83530447.553 8     -1025.851          50.750    20398986.846    83530446.552 7     -1025.850          45.250
G29  22512701.637   118305045.964 8      2950.617          48.500    22512701.457   118305045.959 6      2950.617          40.250    22512701.267    92185751.189 7      2299.207          45.750    22512701.297    92185751.195 6      2299.223          40.250
> 2015 09 03 07 45 43.0000000  0  8       0.000055248433
G02  20788964.447   109246744.105 8       -71.864          50.500    20788963.807   109246744.097 7       -71.864          45.000                                                                    20788960.957    85127334.719 7       -56.030          45.000
G05  24398136.934   128213077.149 7      3511.685          42.750    24398137.384   128213074.144 4      3511.685          29.000    24398139.984    99906293.874 6      2736.415          40.000    24398139.934    99906291.875 4      2736.429          29.000
G06  22030794.150   115772604.601 8     -2400.290          50.000    22030794.540   115772603.593 7     -2400.290          43.250    22030797.630    90212420.428 8     -1870.352          51.750    22030797.490    90212420.428 7     -1870.356          43.250    22030796.680    86453569.046 9     -1792.425          56.250
G31  23692195.182   124503326.323 7      2058.102          47.500    23692195.392   124503326.313 6      2058.102          37.500    23692194.902    97015581.565 7      1603.717          45.250    23692195.172    97015581.560 6      1603.710          37.500
G24  24654076.168   129558045.060 7     -3655.831          42.000    24654076.358   129558041.054 4     -3655.831          27.500    24654081.268   100954319.363 6     -2848.678          41.250    24654081.468   100954319.354 4     -2848.692          27.500    24654080.998    96747888.093 8     -2729.983          48.250
G25  20705684.963   108809109.822 8      1410.069          53.750    20705684.743   108809107.820 7      1410.069          45.500    20705686.943    84786319.149 8      1098.751          51.500    20705686.973    84786319.149 7      1098.745          45.500    20705685.633    81253555.779 9      1052.965          57.750
G12  20399238.410   107198721.072 8     -1317.181          52.000    20399238.600   107198721.060 7     -1317.181          45.250    20399237.240    83531473.734 8     -1026.372          50.500    20399237.400    83531472.736 7     -1026.370          45.250
G29  22512140.012   118302095.647 8      2950.275          48.750    22512140.212   118302095.639 6      2950.275          40.250    22512139.972    92183452.250 7      2298.898          45.750    22512139.572    92183452.259 6      2298.901          40.250
> 2015 09 03 07 45 44.0000000  0  8       0.000055221497
G02  20788978.004   109246816.428 8       -72.400          50.500    20788977.704   109246816.420 7       -72.400          45.000                                                                    20788974.734    85127391.073 7       -56.430          45.000
G05  24397468.760   128209565.790 7      3511.474          42.750    24397468.750   128209562.790 4      3511.474          29.000    24397471.710    99903557.761 6      2736.220          40.000    24397472.080    99903555.754 4      2736.278          29.000
G06  22031250.823   115775005.327 8     -2400.827          50.000    22031251.383   115775004.324 7     -2400.827          43.250    22031254.573    90214291.126 8     -1870.761          51.750    22031254.293    90214291.130 7     -1870.763          43.250    22031253.483    86455361.797 9     -1792.803          56.250
G31  23691803.695   124501268.775 7      2057.440          47.250    23691804.055   124501268.769 6      2057.440          37.500    23691803.585    97013978.286 7      1603.220          45.250    23691803.515    97013978.285 6      1603.193          37.500
G24  24654771.792   129561701.073 7     -3656.021          42.250    24654772.382   129561697.056 4     -3656.021          27.750    24654777.202   100957168.199 6     -2848.879          41.000    24654777.352   100957168.197 4     -2848.890          27.750    24654776.432    96750618.230 8     -2730.148          48.000
G25  20705416.909   108807700.228 8      1409.480          53.750    20705416.439   108807698.224 7      1409.480          45.250    20705418.699    84785220.767 8      1098.320          51.500    20705418.679    84785220.765 7      1098.312          45.250    20705417.379    81252503.161 9      1052.557          57.750
G12  20399489.139   107200038.787 8     -1317.837          52.000    20399489.279   107200038.774 7     -1317.837          45.250    20399488.169    83532500.522 8     -1026.888          50.750    20399488.089    83532499.522 7     -1026.871          45.250
G29  22511578.782   118299145.776 8      2949.892          48.750    22511578.912   118299145.771 6      2949.892          40.250    22511578.312    92181153.646 7      2298.630          45.750    22511578.342    92181153.651 6      2298.663          40.250
> 2015 09 03 07 45 45.0000000  0  8       0.000055194546
G02  20788992.082   109246889.289 8       -73.200          50.500    20788991.532   109246889.282 7       -73.200          45.250                                                                    20788988.512    85127447.846 7       -57.023          45.250
G05  24396800.819   128206054.553 7      3511.128          42.750    24396800.699   128206051.551 4      3511.128          29.250    24396803.659    99900821.738 6      2735.859          40.000    24396804.079    99900819.748 4      2735.832          29.250
G06  22031707.899   115777406.480 8     -2401.427          50.000    22031708.299   115777405.475 7     -2401.427          43.250    22031711.429    90216162.153 8     -1871.249          51.750    22031711.279    90216162.153 7     -1871.258          43.250    22031710.439    86457154.865 9     -1793.278          56.250
G31  23691412.408   124499211.732 7      2056.750          47.500    23691412.458   124499211.724 6      2056.750          37.750    23691412.298    97012375.394 7      1602.658          45.500    23691412.258    97012375.392 6      1602.647          37.750
G24  24655467.700   129565357.074 7     -3656.140          42.000    24655468.180   129565353.063 4     -3656.140          28.000    24655472.790   100960017.017 6     -2848.886          41.250    24655472.420   100960017.011 4     -2848.892          28.000    24655472.220    96753348.352 8     -2730.209          48.000
G25  20705148.751   108806291.158 8      1408.795          53.750    20705148.191   108806289.151 7      1408.795          45.250    20705150.561    84784122.789 8      1097.762          51.750    20705150.431    84784122.788 7      1097.756          45.250    20705149.281    81251450.935 9      1052.018          57.500
G12  20399740.170   107201357.033 8     -1318.573          52.250    20399740.190   107201357.018 7     -1318.573          45.250    20399739.060    83533527.720 8     -1027.453          50.750    20399738.980    83533526.723 7     -1027.465          45.250
G29  22511017.610   118296196.102 8      2949.536          49.000    22511017.370   118296196.090 6      2949.536          40.500    22511016.920    92178855.196 7      2298.346          45.750    22511017.190    92178855.211 6      2298.330          40.500
> 2015 09 03 07 45 46.0000000  0  8       0.000055167629
G02  20789006.220   109246962.777 8       -73.948          50.500    20789005.520   109246962.766 7       -73.948          45.000                                                                    20789002.530    85127505.107 7       -57.621          45.000
G05  24396132.147   128202543.475 7      3510.938          43.000    24396132.487   128202540.465 4      3510.938          29.250    24396135.517    99898085.835 6      2735.788          40.000    24396135.787    99898083.848 4      2735.731          29.250
G06  22032164.654   115779808.165 8     -2402.110          50.000    22032165.324   115779807.157 7     -2402.110          43.250    22032168.504    90218033.594 8     -1871.756          51.750    22032168.274    90218033.591 7     -1871.752          43.250    22032167.444    86458948.327 9     -1793.762          56.000
G31  23691021.239   124497155.313 7      2056.007          47.750    23691020.919   124497155.314 6      2056.007          37.500    23691020.769    97010772.987 7      1602.056          45.250    23691020.879    97010772.985 6      1602.061          37.500
G24  24656162.973   129569013.225 7     -3656.369          42.000    24656163.193   129569009.215 4     -3656.369          28.000    24656168.733   100962865.964 6     -2849.107          41.500    24656168.453   100962865.948 4     -2849.102          28.000    24656168.113    96756078.593 8     -2730.397          48.000
G25  20704880.547   108804882.720 8      1407.981          53.750    20704880.257   108804880.715 7      1407.981          45.500    20704882.577    84783025.303 8      1097.150          51.750    20704882.597    84783025.299 7      1097.153          45.500    20704881.257    81250399.176 9      1051.433          57.500
G12  20399991.333   107202675.918 8     -1319.385          52.500    20399991.123   107202675.907 7     -1319.385          45.250    20399990.063    83534555.428 8     -1028.074          50.750    20399989.993    83534554.433 7     -1028.090          45.250
G29  22510456.314   118293246.747 8      2949.063          49.000    22510456.324   118293246.736 6      2949.063          40.250    22510456.184    92176556.999 7      2297.969          46.000    22510456.014    92176557.014 6      2297.955          40.250
> 2015 09 03 07 45 47.0000000  0  8       0.000055140698
G02  20789020.134   109247036.770 8       -74.423          50.500    20789019.634   109247036.762 7       -74.423          45.000                                                                    20789016.534    85127562.765 7       -57.994          45.000
G05  24395464.668   128199032.511 7      3510.739          43.000    24395464.408   128199029.500 4      3510.739          29.500    24395467.468    99895350.033 6      2735.646          40.000    24395467.738    99895348.036 4      2735.689          29.500
G06  22032621.678   115782210.258 8     -2402.474          50.000    22032622.468   115782209.256 7     -2402.474          43.250    22032625.698    90219905.350 8     -1872.021          51.750    22032625.288    90219905.350 7     -1872.016          43.250    22032624.598    86460742.095 9     -1794.026          56.250
G31  23690629.890   124495099.392 7      2055.454          47.750    23690630.080   124495099.388 6      2055.454          37.500    23690629.570    97009170.973 7      1601.644          45.500    23690629.580    97009170.980 6      1601.622          37.500
G24  24656858.497   129572669.361 7     -3656.373          42.250    24656858.987   129572665.343 4     -3656.373          28.000    24656864.537   100965714.893 6     -2849.093          41.750    24656864.557   100965714.885 4     -2849.085          28.000    24656863.777    96758808.816 8     -2730.394          48.250
G25  20704612.659   108803474.785 8      1407.532          53.750    20704612.379   108803472.779 7      1407.532          45.500    20704614.649    84781928.212 8      1096.777          51.750    20704614.459    84781928.208 7      1096.781          45.500    20704613.349    81249347.798 9      1051.073          57.750
G12  20400242.256   107203995.315 8     -1319.853          52.500    20400242.306   107203995.305 7     -1319.853          45.250    20400240.916    83535583.528 8     -1028.442          50.750    20400241.036    83535582.534 7     -1028.444          45.250
G29  22509894.902   118290297.574 8      2948.928          48.750    22509894.712   118290297.562 6      2948.928          40.500    22509894.562    92174258.945 7      2297.814          45.750    22509894.742    92174258.952 6      2297.840          40.500
> 2015 09 03 07 45 48.0000000  0  8       0.000055113814
G02  20789034.320   109247111.408 8       -74.712          50.500    20789033.870   109247111.402 7       -74.712          45.250                                                                    20789030.810    85127620.929 7       -58.233          45.250
G05  24394796.470   128195521.758 7      3510.929          43.250    24394795.980   128195518.750 4      3510.929          29.500    24394799.320    99892614.385 6      2735.802          39.750    24394799.100    99892612.383 4      2735.749          29.500
G06  22033079.051   115784612.895 8     -2402.699          50.000    22033079.631   115784611.889 7     -2402.699          43.250    22033082.901    90221777.533 8     -1872.242          52.000    22033082.641    90221777.538 7     -1872.253          43.250    22033081.781    86462536.270 9     -1794.236          56.000
G31  23690239.036   124493044.081 8      2055.275          48.000    23690239.016   124493044.069 6      2055.275          37.750    23690238.536    97007569.423 7      1601.502          45.250    23690238.606    97007569.421 6      1601.514          37.750
G24  24657553.953   129576325.604 7     -3655.956          42.500    24657554.693   129576321.587 4     -3655.956          28.000    24657560.063   100968563.910 6     -2848.827          41.500    24657560.063   100968563.890 4     -2848.806          28.000    24657559.583    96761539.117 8     -2730.083          48.000
G25  20704344.725   108802067.483 8      1407.271          53.750    20704344.615   108802065.475 7      1407.271          45.500    20704346.745    84780831.611 8      1096.574          51.750    20704346.865    84780831.613 7      1096.570          45.500    20704345.505    81248296.891 9      1050.870          57.750
G12  20400493.575   107205315.367 8     -1320.147          52.500    20400493.565   107205315.357 7     -1320.147          45.250    20400492.155    83536612.140 8     -1028.691          50.750    20400492.195    83536611.144 7     -1028.693          45.250
G29  22509334.050   118287348.718 8      2948.946          49.000    22509333.900   118287348.704 6      2948.946          40.250    22509333.780    92171961.136 7      2297.863          46.000    22509333.950    92171961.148 6      2297.857          40.250
> 2015 09 03 07 45 49.0000000  0  8       0.000055087013
G02  20789048.623   109247186.709 8       -75.701          50.500    20789048.113   109247186.700 7       -75.701          45.000                                                                    20789045.143    85127679.605 7       -58.969          45.000
G05  24394128.316   128192011.251 7      3510.292          43.500    24394128.386   128192008.244 4      3510.292          29.250    24394130.926    99889878.928 6      2735.339          39.500    24394131.736    99889876.922 4      2735.334          29.250
G06  22033536.378   115787016.081 8     -2403.519          50.000    22033537.038   115787015.074 7     -2403.519          43.250    22033539.978    90223650.143 8     -1872.869          51.750    22033539.968    90223650.144 7     -1872.863          43.250    22033539.078    86464330.857 9     -1794.831          56.000
G31  23689848.178   124490989.422 7      2054.336          47.750    23689848.248   124490989.418 6      2054.336          37.750    23689847.618    97005968.390 7      1600.760          45.250    23689847.218    97005968.396 6      1600.777          37.750
G24  24658250.227   129579982.035 7     -3656.520          42.500    24658250.797   129579978.030 4     -3656.520          27.750    24658256.177   100971413.070 6     -2849.259          41.750    24658256.107   100971413.060 4     -2849.283          27.750    24658255.417    96764269.562 8     -2730.555          48.250
G25  20704077.104   108800660.845 8      1406.264          53.750    20704076.914   108800658.840 7      1406.264          45.250    20704078.964    84779735.531 8      1095.803          51.750    20704079.244    84779735.527 7      1095.813          45.250    20704077.854    81247246.479 9      1050.140          57.750
G12  20400744.741   107206636.076 8     -1321.075          52.500    20400744.801   107206636.065 7     -1321.075          45.250    20400743.471    83537641.265 8     -1029.419          50.750    20400743.521    83537640.266 7     -1029.412          45.250
G29  22508773.034   118284400.196 8      2948.333          49.250    22508772.824   118284400.181 6      2948.333          40.500    22508772.534    92169663.587 7      2297.401          46.000    22508772.564    92169663.598 6      2297.407          40.500
> 2015 09 03 07 45 50.0000000  0  8       0.000055060279
G02  20789063.022   109247262.650 8       -76.180          50.500    20789062.432   109247262.638 7       -76.180          45.000                                                                    20789059.602    85127738.780 7       -59.349          45.000
G05  24393460.751   128188500.957 7      3510.297          43.500    24393461.101   128188497.950 4      3510.297          29.500    24393462.551    99887143.638 6      2735.288          39.500    24393463.661    99887141.635 4      2735.289          29.500
G06  22033993.873   115789419.825 8     -2403.949          50.000    22033994.313   115789418.817 7     -2403.949          43.250    22033997.383    90225523.189 8     -1873.190          51.750    22033997.343    90225523.192 7     -1873.205          43.250    22033996.493    86466125.857 9     -1795.139          56.000
G31  23689457.282   124488935.387 7      2053.836          47.750    23689457.062   124488935.373 6      2053.836          37.750    23689456.912    97004367.843 7      1600.428          45.500    23689456.782    97004367.841 6      1600.415          37.750
G24  24658946.411   129583638.581 7     -3656.555          42.500    24658946.811   129583634.567 4     -3656.555          28.250    24658952.001   100974262.321 6     -2849.316          41.750    24658951.691   100974262.311 4     -2849.299          28.250    24658951.301    96767000.104 8     -2730.590          48.250
G25  20703809.527   108799254.840 8      1405.782          53.750    20703809.257   108799252.836 7      1405.782          45.500    20703811.677    84778639.944 8      1095.418          51.750    20703811.527    84778639.945 7      1095.416          45.500    20703810.317    81246196.541 9      1049.770          57.750
G12  20400996.252   107207957.454 8     -1321.637          52.500    20400996.302   107207957.444 7     -1321.637          45.250    20400994.942    83538670.910 8     -1029.858          50.500    20400994.892    83538669.914 7     -1029.860          45.250
G29  22508211.441   118281451.999 8      2948.148          49.000    22508211.841   118281451.989 6      2948.148          40.500    22508211.521    92167366.298 7      2297.275          46.000    22508211.541    92167366.305 6      2297.289          40.500
> 2015 09 03 07 45 51.0000000  0  8       0.000055033531
G02  20789077.538   109247339.127 8       -77.067          50.500    20789077.048   109247339.117 7       -77.067          45.000                                                                    20789074.108    85127798.371 7       -60.086          45.000
G05  24392792.261   128184990.757 7      3509.830          43.500    24392792.751   128184987.743 4      3509.830          29.000    24392795.251    99884408.422 6      2734.917          39.250    24392795.761    99884406.425 4      2734.924          29.000
G06  22034451.261   115791823.989 8     -2404.713          50.250    22034451.891   115791822.976 7     -2404.713          43.250    22034455.061    90227396.564 8     -1873.813          51.750    22034454.861    90227396.566 7     -1873.812          43.250    22034453.991    86467921.174 9     -1795.735          56.000
G31  23689066.131   124486881.872 7      2053.000          47.500    23689066.291   124486881.864 6      2053.000          37.500    23689066.091    97002767.703 7      1599.688          45.750    23689066.071    97002767.709 6      1599.686          37.500
G24  24659642.376   129587295.132 7     -3656.863          42.250    24659642.946   129587291.123 4     -3656.863          27.750    24659647.996   100977111.574 6     -2849.526          41.750    24659647.836   100977111.556 4     -2849.474          27.750    24659647.156    96769730.632 8     -2730.793          48.250
G25  20703542.187   108797849.362 8      1404.918          53.750    20703541.907   108797847.356 7      1404.918          45.500    20703544.397    84777544.765 8      1094.727          51.750    20703544.127    84777544.764 7      1094.730          45.500    20703542.837    81245146.996 9      1049.119          57.750
G12  20401247.829   107209279.361 8     -1322.476          52.500    20401247.899   107209279.355 7     -1322.476          45.250    20401246.499    83539700.965 8     -1030.524          50.500    20401246.519    83539699.969 7     -1030.531          45.250
G29  22507650.659   118278504.020 8      2947.611          48.750    22507650.609   118278504.015 6      2947.611          40.500    22507650.369    92165069.172 7      2296.789          46.000    22507650.409    92165069.182 6      2296.769          40.500
> 2015 09 03 07 45 52.0000000  0  8       0.000055006888
G02  20789092.303   109247416.293 8       -77.460          50.500    20789091.583   109247416.283 7       -77.460          45.000                                                                    20789088.843    85127858.501 7       -60.373          45.000
G05  24392125.064   128181480.857 7      3509.776          43.750    24392125.074   128181477.841 4      3509.776          29.000    24392127.194    99881673.434 6      2734.871          39.500    24392127.144    99881671.439 4      2734.859          29.000
G06  22034908.750   115794228.758 8     -2405.032          50.250    22034909.510   115794227.750 7     -2405.032          43.250    22034912.520    90229270.407 8     -1874.057          52.000    22034912.460    90229270.410 7     -1874.054          43.250    22034911.640    86469716.943 9     -1795.971          56.000
G31  23688675.687   124484829.036 7      2052.584          47.500    23688675.527   124484829.028 6      2052.584          37.750    23688675.597    97001168.093 7      1599.409          45.750    23688675.417    97001168.094 6      1599.424          37.750
G24  24660337.780   129590951.881 7     -3656.817          42.500    24660338.450   129590947.862 4     -3656.817          28.500    24660343.670   100979960.986 6     -2849.499          41.750    24660343.810   100979960.977 4     -2849.508          28.500    24660343.200    96772461.318 8     -2730.751          48.250
G25  20703274.907   108796444.591 8      1404.487          53.750    20703274.667   108796442.584 7      1404.487          45.500    20703276.987    84776450.140 8      1094.396          51.750    20703276.827    84776450.140 7      1094.386          45.500    20703275.517    81244097.979 9      1048.800          57.750
G12  20401499.484   107210601.987 8     -1322.947          52.500    20401499.474   107210601.976 7     -1322.947          45.250    20401498.244    83540731.582 8     -1030.882          50.500    20401498.274    83540730.587 7     -1030.884          45.250
G29  22507090.122   118275556.418 8      2947.440          49.000    22507089.982   118275556.418 6      2947.440          40.500    22507089.672    92162772.340 7      2296.734          46.000    22507089.862    92162772.348 6      2296.724          40.500
> 2015 09 03 07 45 53.0000000  0  8       0.000054980387
G02  20789107.182   109247494.232 8       -78.172          50.250    20789106.592   109247494.219 7       -78.172          45.000                                                                    20789103.762    85127919.231 7       -60.918          45.000
G05  24391457.142   128177971.276 7      3509.560          44.000    24391456.762   128177968.265 4      3509.560          29.250    24391459.132    99878938.697 6      2734.754          39.250    24391459.072    99878936.700 4      2734.672          29.250
G06  22035366.707   115796634.192 8     -2405.628          50.500    22035367.237   115796633.182 7     -2405.628          43.250    22035370.287    90231144.772 8     -1874.519          52.000    22035370.237    90231144.775 7     -1874.529          43.250    22035369.347    86471513.205 9     -1796.408          56.250
G31  23688285.249   124482776.953 7      2051.896          47.500    23688285.409   124482776.945 6      2051.896          37.500    23688284.989    96999569.066 7      1598.921          45.750    23688284.779    96999569.074 6      1598.936          37.500
G24  24661033.815   129594608.919 7     -3657.108          42.250    24661034.355   129594604.908 4     -3657.108          28.250    24661039.495   100982810.615 6     -2849.645          41.750    24661039.235   100982810.610 4     -2849.732          28.250    24661038.765    96775192.216 8     -2730.933          48.250
G25  20703007.702   108795040.571 8      1403.821          53.500    20703007.352   108795038.563 7      1403.821          45.500    20703009.662    84775356.099 8      1093.879          51.750    20703009.582    84775356.097 7      1093.875          45.500    20703008.382    81243049.521 9      1048.294          57.500
G12  20401751.504   107211925.376 8     -1323.627          52.750    20401751.324   107211925.366 7     -1323.627          45.250    20401749.964    83541762.796 8     -1031.382          50.500    20401750.024    83541761.799 7     -1031.379          45.250
G29  22506528.727   118272609.256 8      2947.116          48.750    22506529.067   118272609.252 6      2947.116          40.500    22506529.087    92160475.852 7      2296.455          46.000    22506528.837    92160475.865 6      2296.456          40.500
> 2015 09 03 07 45 54.0000000  0  8       0.000054953822
G02  20789121.979   109247572.611 8       -78.530          50.500    20789121.559   109247572.600 7       -78.530          45.000                                                                    20789118.499    85127980.307 7       -61.212          45.000
G05  24390788.847   128174461.725 7      3509.584          43.750    24390788.747   128174458.720 4      3509.584          29.000    24390791.377    99876203.986 6      2734.762          39.250    24390791.397    99876201.995 4      2734.762          29.000
G06  22035824.535   115799039.965 8     -2405.843          50.500    22035824.955   115799038.960 7     -2405.843          43.250    22035828.055    90233019.399 8     -1874.713          52.000    22035827.885    90233019.401 7     -1874.707          43.250    22035827.205    86473309.724 9     -1796.599          56.250
G31  23687894.584   124480725.311 7      2051.530          47.250    23687894.684   124480725.296 6      2051.530          37.500    23687894.624    96997970.386 7      1598.576          45.750    23687894.494    96997970.390 6      1598.566          37.500
G24  24661730.430   129598265.872 7     -3656.796          42.750    24661730.170   129598261.860 4     -3656.796          28.500    24661735.210   100985660.184 6     -2849.457          41.750    24661734.790   100985660.181 4     -2849.528          28.500    24661734.890    96777923.052 8     -2730.747          48.250
G25  20702740.599   108793637.006 8      1403.430          53.750    20702740.289   108793635.004 7      1403.430          45.500    20702742.649    84774262.414 8      1093.564          51.750    20702742.579    84774262.415 7      1093.545          45.500    20702741.269    81242001.409 9      1047.998          57.500
G12  20402003.204   107213249.232 8     -1323.997          52.750    20402003.154   107213249.224 7     -1323.997          45.250    20402002.144    83542794.371 8     -1031.703          50.500    20402002.024    83542793.372 7     -1031.700          45.250
G29  22505968.229   118269662.226 8      2947.040          49.000    22505968.309   118269662.224 6      2947.040          40.750    22505968.049    92158179.473 7      2296.385          46.000    22505968.179    92158179.483 6      2296.375          40.750
> 2015 09 03 07 45 55.0000000  0  8       0.000054927416
G02  20789136.933   109247651.783 8       -79.393          50.500    20789136.543   109247651.771 7       -79.393          45.000                                                                    20789133.633    85128042.002 7       -61.851          45.000
G05  24390121.108   128170952.530 7      3509.326          43.500    24390120.588   128170949.536 4      3509.326          29.250    24390124.138    99873469.555 6      2734.525          39.500    24390123.478    99873467.550 4      2734.572          29.250
G06  22036282.597   115801446.444 8     -2406.649          50.750    22036283.067   115801445.438 7     -2406.649          43.500    22036286.147    90234894.576 8     -1875.292          51.750    22036285.817    90234894.579 7     -1875.313          43.500    22036285.147    86475106.767 9     -1797.166          56.250
G31  23687504.410   124478674.432 7      2050.711          47.250    23687504.450   124478674.428 6      2050.711          37.750    23687504.470    96996372.309 7      1597.979          46.000    23687504.330    96996372.309 6      1597.961          37.750
G24  24662426.126   129601923.112 7     -3657.282          42.750    24662426.236   129601919.095 4     -3657.282          28.000    24662430.936   100988509.976 6     -2849.729          41.750    24662431.076   100988509.964 4     -2849.693          28.000    24662430.816    96780654.103 8     -2731.016          48.500
G25  20702473.511   108792234.221 8      1402.614          53.500    20702473.321   108792232.219 7      1402.614          45.250    20702475.681    84773169.337 8      1092.954          51.750    20702475.661    84773169.332 7      1092.965          45.250    20702474.341    81240953.874 9      1047.420          57.500
G12  20402255.572   107214573.882 8     -1324.810          52.750    20402255.332   107214573.876 7     -1324.810          45.250    20402254.052    83543826.566 8     -1032.302          50.500    20402253.982    83543825.568 7     -1032.302          45.250
G29  22505407.591   118266715.667 8      2946.555          49.000    22505407.631   118266715.655 6      2946.555          40.500    22505407.321    92155883.449 7      2296.021          46.000    22505407.311    92155883.457 6      2296.025          40.500
> 2015 09 03 07 45 56.0000000  0  8       0.000054900862
G02  20789152.228   109247731.276 8       -79.840          50.500    20789151.658   109247731.265 7       -79.840          45.000                                                                    20789148.688    85128103.945 7       -62.217          45.000
G05  24389452.645   128167443.275 7      3509.080          43.250    24389453.275   128167440.275 4      3509.080          29.250    24389456.075    99870735.081 6      2734.294          39.500    24389456.485    99870733.081 4      2734.286          29.250
G06  22036740.623   115803853.141 8     -2406.978          50.750    22036740.993   115803852.137 7     -2406.978          43.250    22036744.073    90236769.927 8     -1875.603          51.750    22036743.823    90236769.926 7     -1875.586          43.250    22036743.163    86476903.978 9     -1797.447          56.250
G31  23687113.990   124476623.871 7      2050.234          47.500    23687114.180   124476623.868 6      2050.234          37.750    23687113.880    96994774.473 7      1597.571          45.750    23687113.830    96994774.464 6      1597.574          37.750
G24  24663121.821   129605580.147 7     -3657.125          42.750    24663122.071   129605576.130 4     -3657.125          28.250    24663127.261   100991359.607 6     -2849.660          41.750    24663127.261   100991359.600 4     -2849.644          28.250    24663126.811    96783384.997 8     -2730.892          48.250
G25  20702206.726   108790831.768 8      1402.125          53.500    20702206.476   108790829.766 7      1402.125          45.500    20702208.976    84772076.516 8      1092.561          51.750    20702208.616    84772076.515 7      1092.565          45.500    20702207.436    81239906.588 9      1047.037          57.500
G12  20402507.539   107215898.872 8     -1325.328          52.750    20402507.439   107215898.866 7     -1325.328          45.250    20402506.159    83544859.028 8     -1032.739          50.500    20402506.239    83544858.026 7     -1032.723          45.250
G29  22504846.853   118263769.115 8      2946.358          49.000    22504846.853   118263769.116 6      2946.358          40.750    22504846.443    92153587.438 7      2295.889          46.000    22504846.703    92153587.444 6      2295.899          40.750
> 2015 09 03 07 45 57.0000000  0  8       0.000054874287
G02  20789167.557   109247811.264 8       -80.354          50.500    20789167.027   109247811.255 7       -80.354          44.750                                                                    20789163.997    85128166.271 7       -62.638          44.750
G05  24388785.208   128163934.049 7      3509.109          43.250    24388785.148   128163931.057 4      3509.109          29.250    24388788.318    99868000.632 6      2734.317          39.500    24388788.378    99867998.622 4      2734.348          29.250
G06  22037198.946   115806260.227 8     -2407.378          50.750    22037199.086   115806259.219 7     -2407.378          43.250    22037202.176    90238645.577 8     -1875.874          51.750    22037201.936    90238645.575 7     -1875.869          43.250    22037201.226    86478701.476 9     -1797.706          56.000
G31  23686724.395   124474573.795 7      2049.753          47.750    23686724.355   124474573.790 6      2049.753          37.500    23686723.985    96993177.009 7      1597.214          45.750    23686723.875    96993177.005 6      1597.197          37.500
G24  24663818.233   129609237.202 7     -3657.233          42.750    24663818.313   129609233.188 4     -3657.233          28.500    24663823.093   100994209.252 6     -2849.775          41.500    24663823.163   100994209.249 4     -2849.805          28.500    24663822.593    96786115.911 8     -2731.042          48.500
G25  20701939.952   108789429.800 8      1401.662          53.500    20701939.702   108789427.798 7      1401.662          45.500    20701942.142    84770984.074 8      1092.202          52.000    20701941.952    84770984.071 7      1092.207          45.500    20701940.652    81238859.664 9      1046.700          57.500
G12  20402759.604   107217224.365 8     -1325.875          52.750    20402759.664   107217224.357 7     -1325.875          45.250    20402758.404    83545891.879 8     -1033.146          50.500    20402758.364    83545890.879 7     -1033.147          45.250
G29  22504286.127   118260822.732 8      2946.234          48.750    22504286.267   118260822.720 6      2946.234          40.750    22504285.857    92151291.557 7      2295.739          46.000    22504285.867    92151291.560 6      2295.757          40.750
> 2015 09 03 07 45 58.0000000  0  8       0.000054847673
G02  20789182.789   109247891.745 8       -80.899          50.250    20789182.209   109247891.734 7       -80.899          45.000                                                                    20789179.279    85128228.985 7       -63.028          45.000
G05  24388117.202   128160424.923 7      3509.000          43.250    24388117.502   128160421.915 4      3509.000          29.750    24388120.552    99865266.242 6      2734.284          39.750    24388120.302    99865264.248 4      2734.259          29.750
G06  22037656.711   115808667.725 8     -2407.871          50.500    22037657.121   115808666.727 7     -2407.871          43.250    22037660.311    90240521.547 8     -1876.240          51.750    22037660.101    90240521.549 7     -1876.247          43.250    22037659.351    86480499.281 9     -1798.064          56.000
G31  23686334.005   124472524.206 7      2049.225          47.500    23686333.995   124472524.194 6      2049.225          37.750    23686333.905    96991579.930 7      1596.794          45.500    23686333.705    96991579.920 6      1596.802          37.750
G24  24664514.267   129612894.235 7     -3657.155          43.000    24664514.097   129612890.215 4     -3657.155          28.500    24664518.377   100997058.887 6     -2849.760          41.500    24664519.087   100997058.897 4     -2849.840          28.500    24664518.397    96788846.808 8     -2731.013          48.250
G25  20701673.191   108788028.340 8      1401.086          53.500    20701672.891   108788026.336 7      1401.086          45.500    20701675.261    84769892.026 8      1091.754          51.750    20701675.211    84769892.026 7      1091.753          45.500    20701673.931    81237813.120 9      1046.261          57.500
G12  20403012.030   107218550.363 8     -1326.357          52.750    20403012.020   107218550.351 7     -1326.357          45.250    20403010.790    83546925.121 8     -1033.546          50.500    20403010.770    83546924.120 7     -1033.540          45.250
G29  22503725.773   118257876.524 8      2946.088          48.750    22503725.513   118257876.517 6      2946.088          40.750    22503725.253    92148995.811 7      2295.648          46.000    22503725.353    92148995.821 6      2295.646          40.750
> 2015 09 03 07 45 59.0000000  0  8       0.000054821183
G02  20789198.070   109247972.970 8       -81.532          50.250    20789197.740   109247972.959 7       -81.532          45.000                                                                    20789194.850    85128292.277 7       -63.535          45.000
G05  24387449.609   128156916.110 7      3508.740          43.250    24387449.949   128156913.098 4      3508.740          29.500    24387452.699    99862532.110 6      2734.104          39.750    24387453.009    99862530.127 4      2734.055          29.500
G06  22038115.222   115811075.857 8     -2408.365          50.500    22038115.392   115811074.853 7     -2408.365          43.250    22038118.482    90242398.015 8     -1876.677          51.750    22038118.282    90242398.017 7     -1876.688          43.250    22038117.622    86482297.561 9     -1798.484          56.000
G31  23685943.834   124470475.346 7      2048.557          47.500    23685944.274   124470475.335 6      2048.557          37.750    23685943.884    96989983.418 7      1596.276          45.500    23685943.854    96989983.409 6      1596.301          37.750
G24  24665210.040   129616551.500 7     -3657.322          43.250    24665210.320   129616547.493 4     -3657.322          28.750    24665214.400   100999908.702 6     -2849.867          41.250    24665214.950   100999908.708 4     -2849.865          28.750    24665214.380    96791577.883 8     -2731.129          48.500
G25  20701406.609   108786627.605 8      1400.484          53.500    20701406.449   108786625.604 7      1400.484          45.250    20701408.819    84768800.546 8      1091.281          51.750    20701408.689    84768800.545 7      1091.270          45.250    20701407.389    81236767.118 9      1045.811          57.500
G12  20403264.596   107219877.117 8     -1327.077          52.750    20403264.506   107219877.112 7     -1327.077          45.250    20403263.406    83547958.954 8     -1034.093          50.500    20403263.306    83547957.957 7     -1034.092          45.250
G29  22503165.392   118254930.757 8      2945.702          49.000    22503164.922   118254930.754 6      2945.702          41.000    22503164.512    92146700.413 7      2295.332          46.000    22503164.792    92146700.420 6      2295.316          41.000
> 2015 09 03 07 46  0.0000000  0  8       0.000054794853
G02  20789213.752   109248054.969 8       -82.497          50.500    20789213.252   109248054.958 7       -82.497          44.750                                                                    20789210.282    85128356.176 7       -64.331          44.750
G05  24386782.385   128153407.672 7      3508.168          43.250    24386782.315   128153404.674 4      3508.168          29.500    24386786.145    99859798.267 6      2733.581          40.000    24386785.375    99859796.267 4      2733.612          29.500
G06  22038573.440   115813484.669 8     -2409.305          50.250    22038573.730   115813483.665 7     -2409.305          43.000    22038576.920    90244275.008 8     -1877.390          51.750    22038576.710    90244275.011 7     -1877.401          43.000    22038576.020    86484096.347 9     -1799.164          56.000
G31  23685554.356   124468427.250 7      2047.606          47.500    23685554.626   124468427.248 6      2047.606          37.750    23685554.266    96988387.498 7      1595.525          45.500    23685554.106    96988387.488 6      1595.519          37.750
G24  24665905.805   129620209.007 7     -3657.745          43.250    24665905.995   129620204.993 4     -3657.745          28.750    24665910.525   101002758.710 6     -2850.213          41.250    24665910.635   101002758.701 4     -2850.199          28.750    24665910.525    96794309.130 8     -2731.434          48.250
G25  20701140.220   108785227.654 8      1399.453          53.250    20701140.030   108785225.653 7      1399.453          45.250    20701142.370    84767709.678 8      1090.479          51.750    20701142.200    84767709.676 7      1090.473          45.250    20701141.000    81235721.700 9      1045.052          57.500
G12  20403516.997   107221204.655 8     -1328.036          52.500    20403517.037   107221204.649 7     -1328.036          45.250    20403516.047    83548993.397 8     -1034.863          50.500    20403515.837    83548992.399 7     -1034.860          45.250
G29  22502604.876   118251985.442 8      2945.002          49.000    22502604.526   118251985.432 6      2945.002          41.000    22502604.086    92144405.357 7      2294.801          46.000    22502604.176    92144405.371 6      2294.776          41.000
> 2015 09 03 07 46  1.0000000  0  8       0.000054768564
G02  20789229.650   109248137.573 8       -82.973          50.500    20789229.040   109248137.567 7       -82.973          44.750                                                                    20789225.970    85128420.541 7       -64.616          44.750
G05  24386114.516   128149899.407 7      3508.202          43.500    24386114.586   128149896.410 4      3508.202          29.750    24386117.986    99857064.563 6      2733.635          40.250    24386117.776    99857062.572 4      2733.641          29.750
G06  22039031.985   115815893.990 8     -2409.615          50.000    22039032.415   115815892.992 7     -2409.615          43.000    22039035.535    90246152.400 8     -1877.614          51.750    22039035.265    90246152.401 7     -1877.612          43.000    22039034.505    86485895.512 9     -1799.379          56.000
G31  23685165.162   124466379.736 7      2047.241          47.500    23685164.712   124466379.727 6      2047.241          37.750    23685164.592    96986792.037 7      1595.273          45.250    23685164.252    96986792.025 6      1595.285          37.750
G24  24666602.405   129623866.626 7     -3657.693          43.250    24666602.395   129623862.611 4     -3657.693          28.250    24666606.315   101005608.792 6     -2850.132          41.000    24666607.155   101005608.788 4     -2850.098          28.250    24666606.315    96797040.463 8     -2731.360          48.250
G25  20700873.800   108783828.300 8      1399.103          53.250    20700873.810   108783826.302 7      1399.103          45.500    20700876.220    84766619.274 8      1090.229          51.750    20700876.060    84766619.274 7      1090.218          45.500    20700874.700    81234676.730 9      1044.796          57.500
G12  20403769.830   107222532.804 8     -1328.454          52.500    20403769.870   107222532.798 7     -1328.454          45.250    20403768.760    83550028.320 8     -1035.157          50.500    20403768.640    83550027.325 7     -1035.165          45.250
G29  22502044.492   118249040.408 8      2944.906          49.000    22502044.092   118249040.406 6      2944.906          41.000    22502043.432    92142110.526 7      2294.780          46.000    22502043.872    92142110.546 6      2294.752          41.000
> 2015 09 03 07 46  2.0000000  0  8       0.000054742325
G02  20789245.395   109248220.813 8       -83.617          50.750    20789244.895   109248220.801 7       -83.617          45.000                                                                    20789241.905    85128485.403 7       -65.202          45.000
G05  24385447.070   128146391.353 7      3507.971          43.750    24385447.440   128146388.355 5      3507.971          30.000    24385450.900    99854331.022 6      2733.422          40.750    24385450.650    99854329.018 5      2733.446          30.000
G06  22039490.496   115818303.853 8     -2410.216          50.250    22039490.946   115818302.849 7     -2410.216          43.250    22039493.956    90248030.212 8     -1878.124          52.000    22039493.786    90248030.213 7     -1878.128          43.250    22039493.076    86487695.083 9     -1799.867          56.000
G31  23684775.312   124464332.852 7      2046.504          47.500    23684775.442   124464332.843 6      2046.504          37.750    23684775.172    96985197.060 7      1594.699          45.500    23684774.822    96985197.052 6      1594.677          37.750
G24  24667298.134   129627524.373 7     -3657.931          43.250    24667298.544   129627520.364 4     -3657.931          28.250    24667302.914   101008458.983 6     -2850.323          41.000    24667303.074   101008458.981 4     -2850.313          28.250    24667302.484    96799771.896 8     -2731.548          48.250
G25  20700607.633   108782429.594 8      1398.374          53.250    20700607.623   108782427.589 7      1398.374          45.500    20700609.983    84765529.369 8      1089.628          51.750    20700609.913    84765529.368 7      1089.628          45.500    20700608.543    81233632.243 9      1044.226          57.500
G12  20404022.723   107223861.604 8     -1329.194          52.750    20404022.813   107223861.591 7     -1329.194          45.250    20404021.523    83551063.746 8     -1035.749          50.500    20404021.413    83551062.746 7     -1035.758          45.250
G29  22501484.015   118246095.696 8      2944.462          49.250    22501483.805   118246095.688 6      2944.462          41.000    22501483.325    92139815.941 7      2294.401          46.250    22501483.385    92139815.956 6      2294.404          41.000
> 2015 09 03 07 46  3.0000000  0  8       0.000054716193
G02  20789261.431   109248304.773 8       -84.424          50.750    20789260.811   109248304.758 7       -84.424          45.000                                                                    20789257.881    85128550.825 7       -65.820          45.000
G05  24384779.819   128142883.604 7      3507.508          43.500    24384779.549   128142880.597 5      3507.508          30.000    24384783.259    99851597.714 6      2733.145          41.000    24384782.629    99851595.714 5      2733.151          30.000
G06  22039949.053   115820714.329 8     -2410.889          50.250    22039949.513   115820713.322 7     -2410.889          43.250    22039952.733    90249908.506 8     -1878.658          52.000    22039952.463    90249908.503 7     -1878.629          43.250    22039951.803    86489495.116 9     -1800.375          56.000
G31  23684385.876   124462286.681 7      2045.747          47.750    23684386.036   124462286.680 6      2045.747          37.750    23684385.646    96983602.644 7      1594.060          45.250    23684385.496    96983602.632 6      1594.056          37.750
G24  24667993.967   129631182.320 7     -3658.052          43.250    24667994.287   129631178.313 4     -3658.052          28.250    24667998.627   101011309.318 6     -2850.411          41.000    24667999.117   101011309.332 4     -2850.428          28.250    24667998.567    96802503.474 8     -2731.678          48.250
G25  20700341.768   108781031.606 8      1397.559          53.250    20700341.608   108781029.605 7      1397.559          45.500    20700343.898    84764440.031 8      1088.992          51.750    20700343.838    84764440.033 7      1088.984          45.500    20700342.558    81232588.291 9      1043.610          57.500
G12  20404275.592   107225191.129 8     -1329.952          52.750    20404275.702   107225191.117 7     -1329.952          45.250    20404274.472    83552099.738 8     -1036.356          50.500    20404274.442    83552098.739 7     -1036.344          45.250
G29  22500923.592   118243151.374 8      2944.064          49.250    22500923.632   118243151.363 6      2944.064          40.750    22500923.342    92137521.669 7      2294.061          46.250    22500923.242    92137521.681 6      2294.049          40.750
> 2015 09 03 07 46  4.0000000  0  8       0.000054690172
G02  20789277.413   109248389.458 8       -84.858          50.750    20789277.133   109248389.447 7       -84.858          45.000                                                                    20789273.883    85128616.812 7       -66.130          45.000
G05  24384111.975   128139376.154 7      3507.485          43.500    24384111.905   128139373.150 5      3507.485          30.000    24384116.025    99848864.644 6      2733.096          41.000    24384115.115    99848862.649 5      2733.071          30.000
G06  22040408.077   115823125.428 8     -2411.294          50.500    22040408.367   115823124.425 7     -2411.294          43.500    22040411.427    90251787.284 8     -1878.920          52.000    22040411.217    90251787.285 7     -1878.922          43.500    22040410.577    86491295.608 9     -1800.627          56.250
G31  23683996.730   124460241.219 7      2045.267          47.500    23683996.680   124460241.208 6      2045.267          37.500    23683996.240    96982008.771 7      1593.718          45.500    23683996.380    96982008.772 6      1593.674          37.500
G24  24668689.980   129634840.506 7     -3658.073          42.750    24668690.420   129634836.490 4     -3658.073          28.250    24668694.340   101014159.864 6     -2850.506          40.750    24668694.880   101014159.856 4     -2850.465          28.250    24668694.730    96805235.231 8     -2731.706          48.000
G25  20700076.029   108779634.331 8      1397.108          53.250    20700075.759   108779632.329 7      1397.108          45.250    20700077.919    84763351.244 8      1088.685          51.750    20700077.979    84763351.247 7      1088.674          45.250    20700076.639    81231544.872 9      1043.320          57.500
G12  20404529.114   107226521.399 8     -1330.497          52.750    20404528.984   107226521.384 7     -1330.497          45.250    20404527.404    83553136.311 8     -1036.749          50.500    20404527.604    83553135.315 7     -1036.750          45.250
G29  22500363.660   118240207.459 8      2943.921          49.500    22500363.200   118240207.448 6      2943.921          40.750    22500362.960    92135227.712 7      2293.972          46.250    22500362.970    92135227.720 6      2293.976          40.750
> 2015 09 03 07 46  5.0000000  0  8       0.000054664225
G02  20789293.832   109248474.808 8       -86.113          50.750    20789293.182   109248474.799 7       -86.113          45.000                                                                    20789290.242    85128683.323 7       -67.077          45.000
G05  24383444.813   128135868.939 7      3506.775          43.750    24383444.883   128135865.943 5      3506.775          30.250    24383448.763    99846131.759 6      2732.571          41.250    24383447.983    99846129.745 5      2732.601          30.250
G06  22040866.837   115825537.086 8     -2412.357          50.500    22040867.247   115825536.078 7     -2412.357          43.500    22040870.277    90253666.494 8     -1879.729          52.000    22040870.107    90253666.499 7     -1879.735          43.500    22040869.497    86493096.521 9     -1801.417          56.250
G31  23683607.681   124458196.389 7      2044.187          47.500    23683607.721   124458196.374 6      2044.187          37.750    23683607.151    96980415.397 7      1592.916          45.250    23683607.041    96980415.391 6      1592.895          37.750
G24  24669385.978   129638498.852 7     -3658.808          42.750    24669385.838   129638494.829 4     -3658.808          28.250    24669390.638   101017010.517 6     -2851.024          40.750    24669390.708   101017010.519 4     -2851.020          28.250    24669390.848    96807967.114 8     -2732.261          48.000
G25  20699810.140   108778237.724 8      1395.895          53.500    20699809.890   108778235.726 7      1395.895          45.250    20699812.180    84762262.981 8      1087.735          51.750    20699812.310    84762262.981 7      1087.725          45.250    20699810.860    81230501.952 9      1042.406          57.500
G12  20404782.322   107227852.332 8     -1331.680          52.750    20404782.272   107227852.320 7     -1331.680          45.250    20404780.892    83554173.402 8     -1037.660          50.500    20404780.822    83554172.406 7     -1037.661          45.250
G29  22499803.246   118237263.885 8      2943.092          49.250    22499802.966   118237263.873 6      2943.092          41.000    22499802.616    92132934.018 7      2293.286          46.250    22499802.816    92132934.033 6      2293.270          41.000
> 2015 09 03 07 46  6.0000000  0  8       0.000054638297
G02  20789310.189   109248560.720 8       -86.283          50.750    20789309.489   109248560.710 7       -86.283          45.000                                                                    20789306.599    85128750.273 7       -67.258          45.000
G05  24382777.266   128132361.869 7      3506.989          44.000    24382777.566   128132358.861 5      3506.989          30.250    24382780.756    99843398.983 6      2732.739          41.250    24382781.016    99843396.980 5      2732.738          30.250
G06  22041325.991   115827949.208 8     -2412.412          50.250    22041326.221   115827948.209 7     -2412.412          43.250    22041329.281    90255546.071 8     -1879.824          52.000    22041329.241    90255546.076 7     -1879.819          43.250    22041328.521    86494897.780 9     -1801.487          56.000
G31  23683218.601   124456152.129 7      2043.932          47.750    23683218.561   124456152.119 6      2043.932          37.750    23683218.111    96978822.469 7      1592.697          45.500    23683218.101    96978822.464 6      1592.716          37.750
G24  24670082.540   129642157.253 7     -3658.506          42.750    24670082.710   129642153.244 4     -3658.506          28.000    24670086.470   101019861.221 6     -2850.763          40.500    24670086.990   101019861.225 4     -2850.764          28.000    24670087.090    96810699.032 8     -2731.941          48.000
G25  20699544.530   108776841.679 8      1395.693          53.500    20699544.280   108776839.676 7      1395.693          45.500    20699546.590    84761175.153 8      1087.547          51.750    20699546.510    84761175.153 7      1087.544          45.500    20699545.190    81229459.450 9      1042.239          57.500
G12  20405035.371   107229183.842 8     -1331.875          52.750    20405035.601   107229183.830 7     -1331.875          45.250    20405034.351    83555210.939 8     -1037.829          50.500    20405034.151    83555209.943 7     -1037.828          45.250
G29  22499242.883   118234320.560 8      2943.109          48.750    22499243.183   118234320.548 6      2943.109          40.750    22499242.393    92130640.522 7      2293.335          46.000    22499242.773    92130640.538 6      2293.312          40.750
> 2015 09 03 07 46  7.0000000  0  8       0.000054612403
G02  20789326.660   109248647.222 8       -86.844          50.750    20789326.040   109248647.214 7       -86.844          45.000                                                                    20789323.050    85128817.670 7       -67.676          45.000
G05  24382110.230   128128854.970 7      3506.752          43.750    24382110.480   128128851.965 5      3506.752          30.250    24382114.060    99840666.344 6      2732.547          41.250    24382113.060    99840664.348 5      2732.491          30.250
G06  22041784.736   115830361.823 8     -2412.938          50.250    22041785.536   115830360.821 7     -2412.938          43.250    22041788.446    90257426.028 8     -1880.192          52.000    22041788.296    90257426.033 7     -1880.200          43.250    22041787.686    86496699.406 9     -1801.850          56.000
G31  23682829.743   124454108.428 7      2043.434          47.750    23682829.923   124454108.420 6      2043.434          37.750    23682829.433    96977229.979 7      1592.280          45.500    23682829.343    96977229.971 6      1592.295          37.750
G24  24670778.790   129645815.756 7     -3658.641          42.500    24670778.510   129645811.753 4     -3658.641          27.000    24670782.740   101022711.998 6     -2850.912          40.250    24670783.140   101022711.998 4     -2850.860          27.000    24670783.250    96813431.031 8     -2732.148          48.000
G25  20699279.141   108775446.214 8      1395.152          53.500    20699278.621   108775444.211 7      1395.152          45.500    20699280.961    84760087.776 8      1087.138          51.500    20699281.021    84760087.775 7      1087.160          45.500    20699279.601    81228417.383 9      1041.840          57.500
G12  20405289.190   107230515.938 8     -1332.402          52.750    20405289.140   107230515.927 7     -1332.402          45.250    20405287.810    83556248.934 8     -1038.228          50.500    20405287.740    83556247.942 7     -1038.240          45.250
G29  22498682.628   118231377.487 8      2942.898          48.750    22498682.908   118231377.469 6      2942.898          40.750    22498682.068    92128347.218 7      2293.192          46.000    22498682.718    92128347.228 6      2293.193          40.750
> 2015 09 03 07 46  8.0000000  0  8       0.000054586684
G02  20789343.517   109248734.571 8       -87.833          50.500    20789342.687   109248734.563 7       -87.833          45.000                                                                    20789339.687    85128885.739 7       -68.464          45.000
G05  24381443.030   128125348.473 7      3506.294          43.750    24381443.560   128125345.468 5      3506.294          30.250    24381446.630    99837934.027 6      2732.145          41.500    24381446.530    99837932.021 5      2732.186          30.250
G06  22042244.255   115832775.174 8     -2413.738          50.250    22042244.705   115832774.168 7     -2413.738          43.250    22042247.455    90259306.558 8     -1880.860          51.750    22042247.535    90259306.562 7     -1880.875          43.250    22042246.885    86498501.582 9     -1802.488          56.250
G31  23682440.780   124452065.573 7      2042.451          47.750    23682440.900   124452065.556 6      2042.451          37.750    23682440.400    96975638.139 7      1591.506          45.500    23682440.550    96975638.138 6      1591.524          37.750
G24  24671474.674   129649474.539 7     -3659.007          42.250    24671474.484   129649470.535 4     -3659.007          27.000    24671479.104   101025562.995 6     -2851.079          40.500    24671479.444   101025563.003 4     -2851.120          27.000    24671479.334    96816163.226 7     -2732.300          47.750
G25  20699013.921   108774051.592 8      1394.215          53.750    20699013.331   108774049.590 7      1394.215          45.500    20699015.531    84759001.060 8      1086.389          51.500    20699015.601    84759001.059 7      1086.395          45.500    20699014.261    81227375.945 9      1041.122          57.500
G12  20405542.626   107231848.891 8     -1333.400          52.750    20405542.796   107231848.876 7     -1333.400          45.250    20405541.366    83557287.602 8     -1039.022          50.500    20405541.426    83557286.604 7     -1039.024          45.250
G29  22498122.589   118228434.934 8      2942.327          48.500    22498122.819   118228434.928 6      2942.327          40.750    22498122.469    92126054.317 7      2292.727          46.000    22498122.699    92126054.347 6      2292.699          40.750
> 2015 09 03 07 46  9.0000000  0  8       0.000054561058
G02  20789360.039   109248822.557 8       -88.247          50.500    20789359.299   109248822.551 7       -88.247          45.000                                                                    20789356.529    85128954.301 7       -68.785          45.000
G05  24380775.866   128121842.243 7      3506.142          44.000    24380775.916   128121839.247 5      3506.142          30.250    24380779.436    99835201.903 6      2731.995          41.250    24380779.236    99835199.892 5      2732.023          30.250
G06  22042703.702   115835189.077 8     -2414.152          50.250    22042704.192   115835188.072 7     -2414.152          43.500    22042706.862    90261187.518 8     -1881.154          51.750    22042706.942    90261187.524 7     -1881.163          43.500    22042706.242    86500304.169 9     -1802.775          56.250
G31  23682052.381   124450023.354 7      2041.943          47.750    23682052.241   124450023.343 6      2041.943          38.000    23682052.061    96974046.802 7      1591.122          45.500    23682051.651    96974046.800 6      1591.145          38.000
G24  24672171.173   129653133.508 7     -3658.975          42.250    24672171.083   129653129.518 4     -3658.975          27.500    24672175.453   101028414.133 6     -2851.120          40.250    24672175.243   101028414.123 4     -2851.130          27.500    24672175.563    96818895.575 7     -2732.346          47.750
G25  20698748.631   108772657.619 8      1393.698          53.750    20698747.991   108772655.615 7      1393.698          45.500    20698750.311    84757914.847 8      1085.997          51.500    20698750.361    84757914.847 7      1085.995          45.500    20698748.961    81226334.993 9      1040.744          57.500
G12  20405796.487   107233182.511 8     -1333.920          52.750    20405796.397   107233182.499 7     -1333.920          45.250    20405795.177    83558326.786 8     -1039.438          50.500    20405795.197    83558325.788 7     -1039.435          45.250
G29  22497562.783   118225492.736 8      2942.022          48.250    22497563.033   118225492.725 6      2942.022          40.750    22497562.353    92123761.701 7      2292.534          46.000    22497562.853    92123761.713 6      2292.523          40.750
> 2015 09 03 07 46 10.0000000  0  8       0.000054535454
G02  20789376.905   109248911.172 8       -88.441          50.500    20789376.295   109248911.163 7       -88.441          45.000                                                                    20789373.255    85129023.350 7       -68.946          45.000
G05  24380108.486   128118336.183 7      3506.404          43.750    24380108.436   128118333.174 5      3506.404          30.500    24380112.186    99832469.907 6      2732.289          41.000    24380111.236    99832467.899 5      2732.282          30.500
G06  22043163.170   115837603.492 8     -2414.278          50.250    22043163.590   115837602.487 7     -2414.278          43.500    22043166.170    90263068.882 8     -1881.250          51.750    22043166.380    90263068.887 7     -1881.255          43.500    22043165.660    86502107.140 9     -1802.864          56.250
G31  23681663.946   124447981.731 7      2041.784          47.750    23681663.726   124447981.722 6      2041.784          37.750    23681663.336    96972455.924 7      1591.037          45.500    23681663.256    96972455.923 6      1591.056          37.750
G24  24672867.303   129656792.560 7     -3658.689          42.250    24672867.763   129656788.563 4     -3658.689          27.500    24672871.953   101031265.351 6     -2850.871          40.250    24672871.713   101031265.354 4     -2850.867          27.500    24672871.843    96821627.980 7     -2732.115          47.750
G25  20698483.429   108771264.266 8      1393.535          53.750    20698482.869   108771262.264 7      1393.535          45.500    20698485.109    84756829.117 8      1085.867          51.500    20698485.239    84756829.115 7      1085.884          45.500    20698483.789    81225294.501 9      1040.629          57.500
G12  20406050.438   107234516.757 8     -1334.131          52.750    20406050.328   107234516.745 7     -1334.131          45.250    20406049.108    83559366.457 8     -1039.566          50.500    20406049.038    83559365.457 7     -1039.566          45.250
G29  22497003.131   118222550.835 8      2942.238          48.250    22497003.321   118222550.821 6      2942.238          40.500    22497002.281    92121469.309 7      2292.681          46.000    22497002.971    92121469.319 6      2292.694          40.500
> 2015 09 03 07 46 11.0000000  0  8       0.000054509882
G02  20789393.933   109249000.373 8       -89.570          50.500    20789393.243   109249000.363 7       -89.570          44.750                                                                    20789390.263    85129092.855 7       -69.792          44.750
G05  24379441.163   128114830.291 7      3505.775          43.750    24379441.023   128114827.284 5      3505.775          30.500    24379444.953    99829738.051 6      2731.802          41.000    24379444.573    99829736.040 5      2731.821          30.500
G06  22043622.767   115840018.399 8     -2415.236          50.250    22043623.097   115840017.393 7     -2415.236          43.250    22043625.947    90264950.627 8     -1882.025          51.750    22043625.927    90264950.629 7     -1882.026          43.250    22043625.187    86503910.479 9     -1803.606          56.250
G31  23681275.766   124445940.689 8      2040.692          48.000    23681275.546   124445940.683 6      2040.692          37.750    23681274.826    96970865.503 7      1590.164          45.500    23681274.986    96970865.508 6      1590.123          37.750
G24  24673563.715   129660451.657 7     -3659.126          42.500    24673564.165   129660447.671 4     -3659.126          27.000    24673568.205   101034116.598 6     -2851.280          40.000    24673567.815   101034116.588 4     -2851.216          27.000    24673568.115    96824360.417 7     -2732.457          47.750
G25  20698218.308   108769871.493 8      1392.473          53.750    20698217.958   108769869.491 7      1392.473          45.500    20698220.048    84755743.841 8      1085.068          51.750    20698220.148    84755743.840 7      1085.071          45.500    20698218.788    81224254.444 9      1039.859          57.500
G12  20406304.380   107235851.589 8     -1335.167          52.750    20406304.310   107235851.574 7     -1335.167          45.250    20406303.230    83560406.586 8     -1040.379          50.750    20406303.030    83560405.589 7     -1040.392          45.250
G29  22496443.400   118219609.195 8      2941.541          48.250    22496443.600   118219609.184 6      2941.541          40.500    22496443.060    92119177.127 7      2292.109          45.750    22496443.430    92119177.142 6      2292.087          40.500
> 2015 09 03 07 46 12.0000000  0  8       0.000054484232
G02  20789410.703   109249089.980 8       -89.957          50.750    20789410.163   109249089.972 7       -89.957          45.000                                                                    20789407.353    85129162.683 7       -70.139          45.000
G05  24378774.422   128111324.407 7      3505.757          44.000    24378774.522   128111321.401 5      3505.757          30.500    24378777.552    99827006.192 6      2731.751          41.250    24378777.412    99827004.202 5      2731.715          30.500
G06  22044082.052   115842433.612 8     -2415.542          50.250    22044082.722   115842432.608 7     -2415.542          43.250    22044085.462    90266832.606 8     -1882.247          51.750    22044085.532    90266832.609 7     -1882.246          43.250    22044084.812    86505714.042 9     -1803.814          56.250
G31  23680887.466   124443900.051 7      2040.276          47.750    23680887.036   124443900.043 6      2040.276          37.750    23680886.746    96969275.398 7      1589.808          45.250    23680886.646    96969275.391 6      1589.817          37.750
G24  24674260.763   129664110.672 7     -3659.164          42.500    24674259.983   129664106.673 4     -3659.164          28.000    24674264.473   101036967.767 6     -2851.243          40.250    24674264.983   101036967.776 4     -2851.363          28.000    24674264.413    96827092.787 7     -2732.454          47.500
G25  20697953.255   108768479.144 8      1391.992          53.750    20697953.005   108768477.145 7      1391.992          45.500    20697955.215    84754658.894 8      1084.658          51.750    20697955.125    84754658.892 7      1084.659          45.500    20697953.815    81223214.703 9      1039.467          57.500
G12  20406558.685   107237186.855 8     -1335.620          52.750    20406558.485   107237186.843 7     -1335.620          45.250    20406557.355    83561447.052 8     -1040.771          50.750    20406557.125    83561446.055 7     -1040.769          45.250
G29  22495883.679   118216667.671 8      2941.291          48.250    22495883.819   118216667.666 6      2941.291          40.500    22495883.209    92116885.037 7      2291.889          46.000    22495883.459    92116885.048 6      2291.914          40.500
> 2015 09 03 07 46 13.0000000  0  8       0.000054458729
G02  20789427.977   109249180.391 8       -90.728          50.500    20789427.347   109249180.384 7       -90.728          45.000                                                                    20789424.527    85129233.136 7       -70.748          45.000
G05  24378107.240   128107818.891 7      3505.411          43.750    24378107.460   128107815.871 5      3505.411          30.250    24378110.530    99824274.628 6      2731.524          41.000    24378109.850    99824272.629 5      2731.506          30.250
G06  22044541.990   115844849.522 8     -2416.198          50.500    22044542.470   115844848.520 7     -2416.198          43.250    22044545.150    90268715.137 8     -1882.767          51.750    22044545.220    90268715.137 7     -1882.755          43.250    22044544.510    86507518.131 9     -1804.304          56.250
G31  23680499.034   124441860.189 7      2039.603          47.500    23680499.024   124441860.180 6      2039.603          37.750    23680498.354    96967685.886 7      1589.342          45.250    23680498.434    96967685.892 6      1589.305          37.750
G24  24674956.368   129667769.954 7     -3659.375          42.500    24674956.718   129667765.955 4     -3659.375          27.500    24674961.558   101039819.165 6     -2851.511          40.500    24674960.558   101039819.155 4     -2851.543          27.500    24674960.708    96829825.369 7     -2732.676          47.250
G25  20697688.499   108767087.589 8      1391.245          53.750    20697688.119   108767085.589 7      1391.245          45.500    20697690.429    84753574.567 8      1084.073          51.750    20697690.269    84753574.565 7      1084.072          45.500    20697689.009    81222175.554 9      1038.901          57.500
G12  20406812.933   107238522.924 8     -1336.417          52.500    20406812.733   107238522.913 7     -1336.417          45.250    20406811.533    83562488.147 8     -1041.377          50.500    20406811.433    83562487.149 7     -1041.367          45.250
G29  22495323.990   118213726.605 8      2940.878          48.250    22495323.980   118213726.599 6      2940.878          40.750    22495323.470    92114593.296 7      2291.607          46.000    22495323.920    92114593.305 6      2291.624          40.750
> 2015 09 03 07 46 14.0000000  0  8       0.000054433315
G02  20789445.347   109249271.469 8       -91.226          50.500    20789444.777   109249271.459 7       -91.226          45.000                                                                    20789441.797    85129304.100 7       -71.117          45.000
G05  24377440.024   128104313.619 7      3505.417          43.750    24377440.494   128104310.618 5      3505.417          30.500    24377443.624    99821543.253 6      2731.425          41.000    24377443.434    99821541.240 5      2731.484          30.500
G06  22045002.214   115847266.005 8     -2416.561          50.500    22045002.374   115847264.993 7     -2416.561          43.250    22045005.174    90270598.106 8     -1883.043          51.750    22045005.094    90270598.106 7     -1883.022          43.250    22045004.364    86509322.646 9     -1804.579          56.250
G31  23680111.009   124439821.000 7      2039.081          47.750    23680111.119   124439820.987 6      2039.081          37.500    23680110.609    96966096.911 7      1588.881          45.250    23680110.459    96966096.907 6      1588.948          37.500
G24  24675652.999   129671429.394 7     -3659.303          42.500    24675653.239   129671425.388 4     -3659.303          27.750    24675657.179   101042670.672 6     -2851.484          40.500    24675656.949   101042670.664 4     -2851.458          27.750    24675657.049    96832558.066 7     -2732.648          47.500
G25  20697423.747   108765696.699 8      1390.803          53.750    20697423.507   108765694.693 7      1390.803          45.500    20697425.747    84752490.751 8      1083.718          51.750    20697425.687    84752490.753 7      1083.715          45.500    20697424.347    81221136.902 9      1038.558          57.500
G12  20407067.052   107239859.670 8     -1336.878          52.500    20407067.072   107239859.659 7     -1336.878          45.250    20407065.962    83563529.768 8     -1041.728          50.750    20407065.772    83563528.771 7     -1041.737          45.250
G29  22494764.191   118210785.892 8      2940.840          48.000    22494764.511   118210785.886 6      2940.840          40.750    22494763.901    92112301.831 7      2291.522          46.000    22494764.091    92112301.846 6      2291.507          40.750
> 2015 09 03 07 46 15.0000000  0  8       0.000054407900
G02  20789462.729   109249363.099 8       -91.881          50.500    20789462.199   109249363.091 7       -91.881          45.000                                                                    20789459.259    85129375.502 7       -71.574          45.000
G05  24376772.989   128100808.497 7      3505.120          43.750    24376773.199   128100805.495 5      3505.120          30.750    24376776.599    99818811.988 6      2731.285          41.250    24376776.279    99818809.984 5      2731.272          30.750
G06  22045461.840   115849682.949 8     -2417.126          50.750    22045462.180   115849681.946 7     -2417.126          43.250    22045465.000    90272481.442 8     -1883.492          51.750    22045465.030    90272481.442 7     -1883.481          43.250    22045464.270    86511127.507 9     -1805.008          56.250
G31  23679722.577   124437782.341 7      2038.472          47.500    23679723.177   124437782.336 6      2038.472          37.500    23679722.677    96964508.352 7      1588.420          45.250    23679722.647    96964508.343 6      1588.444          37.500
G24  24676349.084   129675088.893 7     -3659.434          42.500    24676350.204   129675084.881 4     -3659.434          28.000    24676353.594   101045522.222 6     -2851.483          40.750    24676354.304   101045522.211 4     -2851.515          28.000    24676353.274    96835290.800 7     -2732.685          47.250
G25  20697159.192   108764306.368 8      1390.125          53.750    20697158.872   108764304.363 7      1390.125          45.500    20697161.242    84751407.378 8      1083.238          51.750    20697161.112    84751407.378 7      1083.230          45.500    20697159.762    81220098.666 9      1038.098          57.500
G12  20407321.534   107241196.992 8     -1337.551          52.500    20407321.534   107241196.985 7     -1337.551          45.250    20407320.554    83564571.838 8     -1042.254          50.750    20407320.284    83564570.836 7     -1042.241          45.250
G29  22494204.769   118207845.425 8      2940.431          48.250    22494204.999   118207845.420 6      2940.431          40.750    22494204.699    92110010.562 7      2291.253          46.250    22494204.739    92110010.577 6      2291.233          40.750
> 2015 09 03 07 46 16.0000000  0  8       0.000054382610
G02  20789480.234   109249455.463 8       -92.688          50.250    20789479.774   109249455.451 7       -92.688          45.000                                                                    20789476.874    85129447.475 7       -72.248          45.000
G05  24376105.789   128097303.673 7      3504.754          43.500    24376106.319   128097300.657 5      3504.754          30.750    24376109.199    99816080.966 6      2730.943          41.250    24376109.129    99816078.961 5      2730.988          30.750
G06  22045921.986   115852100.524 8     -2417.816          50.500    22045922.236   115852099.516 7     -2417.816          43.250    22045925.056    90274365.263 8     -1884.041          51.750    22045925.206    90274365.264 7     -1884.044          43.250    22045924.386    86512932.834 9     -1805.527          56.250
G31  23679335.149   124435744.407 7      2037.664          47.500    23679335.149   124435744.401 6      2037.664          37.500    23679334.639    96962920.347 7      1587.782          45.250    23679334.959    96962920.348 6      1587.791          37.500
G24  24677044.552   129678748.602 7     -3659.773          42.250    24677046.072   129678744.589 4     -3659.773          28.000    24677049.942   101048373.948 6     -2851.829          40.500    24677050.762   101048373.930 4     -2851.787          28.000    24677049.862    96838023.697 7     -2732.980          47.500
G25  20696894.877   108762916.766 8      1389.261          53.750    20696894.427   108762914.759 7      1389.261          45.500    20696896.737    84750324.573 8      1082.545          51.750    20696896.687    84750324.574 7      1082.537          45.500    20696895.347    81219060.977 9      1037.439          57.500
G12  20407576.100   107242535.053 8     -1338.394          52.500    20407576.200   107242535.038 7     -1338.394          45.250    20407575.330    83565614.479 8     -1042.900          50.750    20407574.900    83565613.479 7     -1042.906          45.250
G29  22493645.413   118204905.369 8      2939.880          48.250    22493645.573   118204905.365 6      2939.880          40.750    22493644.933    92107719.610 7      2290.782          46.250    22493645.183    92107719.621 6      2290.805          40.750
> 2015 09 03 07 46 17.0000000  0  8       0.000054357328
G02  20789497.877   109249548.388 8       -93.371          50.500    20789497.477   109249548.378 7       -93.371          45.000                                                                    20789494.447    85129519.887 7       -72.777          45.000
G05  24375438.904   128093798.993 7      3504.494          43.250    24375439.244   128093795.982 5      3504.494          30.750    24375442.084    99813350.052 6      2730.783          41.250    24375442.224    99813348.049 5      2730.783          30.750
G06  22046381.825   115854518.564 8     -2418.453          50.250    22046382.445   115854517.552 7     -2418.453          43.250    22046385.315    90276249.446 8     -1884.526          51.750    22046385.275    90276249.446 7     -1884.532          43.250    22046384.485    86514738.509 9     -1806.003          56.250
G31  23678947.416   124433707.030 7      2036.995          47.750    23678947.346   124433707.025 6      2036.995          37.750    23678947.166    96961332.780 7      1587.256          45.500    23678947.226    96961332.788 6      1587.241          37.750
G24  24677741.866   129682408.362 6     -3659.936          41.750    24677742.526   129682404.362 4     -3659.936          28.000    24677746.616   101051225.697 6     -2851.890          40.750    24677747.376   101051225.686 4     -2851.896          28.000    24677746.146    96840756.631 7     -2733.076          47.250
G25  20696630.571   108761527.731 8      1388.583          53.750    20696630.061   108761525.729 7      1388.583          45.500    20696632.371    84749242.209 8      1082.020          51.750    20696632.321    84749242.206 7      1082.019          45.500    20696631.011    81218023.713 9      1036.933          57.750
G12  20407830.768   107243873.696 8     -1339.085          52.250    20407830.928   107243873.682 7     -1339.085          45.250    20407829.808    83566657.575 8     -1043.460          50.500    20407829.638    83566656.576 7     -1043.463          45.250
G29  22493086.049   118201965.554 8      2939.544          48.500    22493086.109   118201965.542 6      2939.544          40.750    22493085.279    92105428.848 7      2290.538          46.250    22493085.609    92105428.864 6      2290.527          40.750
> 2015 09 03 07 46 18.0000000  0  8       0.000054332140
G02  20789515.661   109249641.996 8       -93.850          50.500    20789515.161   109249641.985 7       -93.850          45.000                                                                    20789512.351    85129592.829 7       -73.143          45.000
G05  24374771.683   128090294.590 7      3504.374          43.250    24374772.373   128090291.587 5      3504.374          30.500    24374775.893    99810619.361 6      2730.661          41.250    24374775.453    99810617.354 5      2730.720          30.500
G06  22046842.217   115856937.191 8     -2418.855          50.250    22046842.697   115856936.188 7     -2418.855          43.250    22046845.627    90278134.092 8     -1884.805          51.750    22046845.517    90278134.091 7     -1884.807          43.250    22046844.707    86516544.627 9     -1806.273          56.250
G31  23678559.853   124431670.335 7      2036.415          47.750    23678559.953   124431670.340 6      2036.415          37.750    23678559.183    96959745.749 7      1586.831          45.500    23678559.443    96959745.748 6      1586.859          37.750
G24  24678438.317   129686068.318 7     -3659.981          42.000    24678438.547   129686064.308 4     -3659.981          27.500    24678442.707   101054077.610 6     -2851.876          40.750    24678443.047   101054077.604 4     -2851.912          27.500    24678442.637    96843489.708 7     -2733.048          47.500
G25  20696366.379   108760139.389 8      1388.099          53.750    20696365.959   108760137.384 7      1388.099          45.500    20696368.199    84748160.385 8      1081.627          51.750    20696368.149    84748160.384 7      1081.625          45.500    20696366.819    81216986.965 9      1036.561          57.750
G12  20408085.846   107245213.033 8     -1339.600          52.250    20408085.716   107245213.022 7     -1339.600          45.250    20408084.866    83567701.216 8     -1043.830          50.750    20408084.476    83567700.213 7     -1043.829          45.250
G29  22492526.804   118199026.113 8      2939.393          48.500    22492526.644   118199026.105 6      2939.393          40.750    22492526.504    92103138.381 7      2290.414          46.250    22492526.354    92103138.392 6      2290.419          40.750
> 2015 09 03 07 46 19.0000000  0  8       0.000054307026
G02  20789533.624   109249736.262 8       -94.616          50.500    20789533.164   109249736.251 7       -94.616          45.000                                                                    20789530.264    85129666.281 7       -73.747          45.000
G05  24374105.259   128086790.413 7      3504.060          43.250    24374106.079   128086787.405 5      3504.060          30.750    24374108.619    99807888.836 6      2730.460          41.250    24374109.269    99807886.830 5      2730.521          30.750
G06  22047302.407   115859356.374 8     -2419.507          50.500    22047302.897   115859355.363 7     -2419.507          43.250    22047305.927    90280019.169 8     -1885.350          51.750    22047305.877    90280019.167 7     -1885.351          43.250    22047305.067    86518351.157 9     -1806.787          56.250
G31  23678172.419   124429634.271 7      2035.787          47.500    23678172.519   124429634.268 6      2035.787          37.750    23678171.869    96958159.205 7      1586.316          45.750    23678172.149    96958159.213 6      1586.308          37.750
G24  24679135.133   129689728.449 6     -3660.229          41.750    24679135.043   129689724.437 4     -3660.229          27.500    24679139.853   101056929.650 6     -2852.185          41.000    24679139.793   101056929.631 4     -2852.173          27.500    24679139.083    96846222.924 7     -2733.363          47.500
G25  20696102.390   108758751.696 8      1387.323          53.750    20696101.840   108758749.694 7      1387.323          45.250    20696104.090    84747079.068 8      1081.050          51.750    20696104.180    84747079.067 7      1081.052          45.250    20696102.760    81215950.702 9      1036.001          57.750
G12  20408340.799   107246553.038 8     -1340.398          52.250    20408340.799   107246553.024 7     -1340.398          45.250    20408339.859    83568745.375 8     -1044.445          50.500    20408339.499    83568744.375 7     -1044.454          45.250
G29  22491967.493   118196086.998 8      2938.965          48.750    22491967.423   118196086.994 6      2938.965          40.750    22491966.963    92100848.161 7      2290.128          46.250    22491967.113    92100848.168 6      2290.115          40.750
> 2015 09 03 07 46 20.0000000  0  8       0.000054282001
G02  20789551.669   109249831.212 8       -95.033          50.500    20789551.299   109249831.203 7       -95.033          45.000                                                                    20789548.349    85129740.272 7       -74.080          45.000
G05  24373438.281   128083286.530 7      3503.990          43.500    24373439.491   128083283.533 5      3503.990          30.250    24373442.441    99805158.537 6      2730.433          41.250    24373442.611    99805156.537 5      2730.483          30.250
G06  22047763.119   115861776.142 8     -2419.810          50.500    22047763.529   115861775.134 7     -2419.810          43.250    22047766.559    90281904.702 8     -1885.622          51.750    22047766.319    90281904.701 7     -1885.616          43.250    22047765.549    86520158.129 9     -1807.045          56.250
G31  23677785.375   124427598.895 7      2035.321          47.500    23677784.925   124427598.892 6      2035.321          37.750    23677784.985    96956573.204 7      1585.933          45.750    23677784.705    96956573.206 6      1585.946          37.750
G24  24679831.077   129693388.742 6     -3660.245          41.750    24679831.127   129693384.732 4     -3660.245          27.500    24679836.507   101059781.812 6     -2852.010          41.250    24679836.477   101059781.810 4     -2852.016          27.500    24679835.577    96848956.249 7     -2733.205          47.500
G25  20695838.282   108757364.701 8      1386.949          53.750    20695838.002   108757362.699 7      1386.949          45.250    20695840.072    84745998.291 8      1080.728          51.750    20695840.212    84745998.292 7      1080.709          45.250    20695838.792    81214914.959 9      1035.698          57.750
G12  20408595.715   107247893.732 8     -1340.766          52.250    20408595.925   107247893.726 7     -1340.766          45.250    20408594.715    83569790.074 8     -1044.766          50.500    20408594.675    83569789.072 7     -1044.761          45.250
G29  22491408.212   118193148.262 8      2938.834          49.000    22491408.152   118193148.260 6      2938.834          40.750    22491407.832    92098558.242 7      2289.968          46.250    22491407.902    92098558.248 6      2289.984          40.750
> 2015 09 03 07 46 21.0000000  0  8       0.000054256867
G02  20789569.818   109249926.554 8       -95.646          50.750    20789569.428   109249926.537 7       -95.646          45.000                                                                    20789566.438    85129814.560 7       -74.538          45.000
G05  24372771.767   128079782.596 7      3503.870          43.750    24372772.497   128079779.593 5      3503.870          30.750    24372775.057    99802428.215 6      2730.250          41.500    24372775.297    99802426.213 5      2730.279          30.750
G06  22048223.633   115864196.188 8     -2420.282          50.250    22048224.103   115864195.179 7     -2420.282          43.250    22048227.193    90283790.449 8     -1885.920          51.750    22048227.033    90283790.447 7     -1885.921          43.250    22048226.063    86521965.302 9     -1807.338          56.250
G31  23677397.819   124425563.886 7      2034.696          47.500    23677397.659   124425563.879 6      2034.696          37.750    23677397.629    96954987.478 7      1585.481          45.750    23677397.579    96954987.477 6      1585.498          37.750
G24  24680527.169   129697048.916 6     -3660.310          41.500    24680527.349   129697044.901 4     -3660.310          28.000    24680532.769   101062633.888 6     -2852.174          41.250    24680532.519   101062633.876 4     -2852.173          28.000    24680531.949    96851689.486 7     -2733.309          47.250
G25  20695574.384   108755978.082 8      1386.335          53.750    20695574.074   108755976.078 7      1386.335          45.500    20695576.284    84744917.810 8      1080.252          51.500    20695576.294    84744917.810 7      1080.251          45.500    20695574.924    81213879.498 9      1035.243          57.750
G12  20408851.117   107249234.840 8     -1341.431          52.250    20408851.227   107249234.823 7     -1341.431          45.250    20408850.067    83570835.089 8     -1045.262          50.500    20408849.837    83570834.087 7     -1045.255          45.250
G29  22490849.228   118190209.588 8      2938.535          49.000    22490849.008   118190209.586 6      2938.535          40.750    22490848.438    92096268.369 7      2289.767          46.250    22490848.668    92096268.377 6      2289.753          40.750
> 2015 09 03 07 46 22.0000000  0  8       0.000054231857
G02  20789588.151   109250022.608 8       -96.215          50.750    20789587.691   109250022.602 7       -96.215          44.750                                                                    20789584.711    85129889.410 7       -74.982          44.750
G05  24372105.404   128076278.961 7      3503.737          44.000    24372105.384   128076275.976 5      3503.737          30.750    24372109.054    99799698.123 6      2730.157          41.500    24372108.624    99799696.130 5      2730.153          30.750
G06  22048684.202   115866616.871 8     -2420.789          50.250    22048684.592   115866615.859 7     -2420.789          43.500    22048687.802    90285676.696 8     -1886.381          51.750    22048687.402    90285676.695 7     -1886.391          43.500    22048686.702    86523772.955 9     -1807.774          56.250
G31  23677010.376   124423529.582 7      2034.166          47.500    23677010.716   124423529.573 6      2034.166          37.750    23677010.556    96953402.309 7      1585.050          46.000    23677010.616    96953402.313 6      1585.039          37.750
G24  24681224.084   129700709.289 6     -3660.294          41.750    24681224.444   129700705.278 4     -3660.294          27.500    24681229.364   101065486.130 6     -2852.233          41.000    24681229.534   101065486.123 4     -2852.237          27.500    24681228.534    96854422.883 7     -2733.399          47.500
G25  20695310.752   108754592.184 8      1385.819          53.750    20695310.372   108754590.184 7      1385.819          45.500    20695312.492    84743837.892 8      1079.830          51.500    20695312.462    84743837.891 7      1079.836          45.500    20695311.182    81212844.576 9      1034.845          57.750
G12  20409106.358   107250576.669 8     -1341.955          52.250    20409106.488   107250576.660 7     -1341.955          45.250    20409105.268    83571880.673 8     -1045.703          50.500    20409105.228    83571879.675 7     -1045.699          45.250
G29  22490290.418   118187271.314 8      2938.348          49.250    22490289.768   118187271.309 6      2938.348          40.750    22490289.628    92093978.809 7      2289.586          46.250    22490289.498    92093978.812 6      2289.579          40.750
> 2015 09 03 07 46 23.0000000  0  8       0.000054206927
G02  20789606.675   109250119.359 8       -96.957          50.750    20789606.075   109250119.350 7       -96.957          44.750                                                                    20789603.155    85129964.802 7       -75.560          44.750
G05  24371438.245   128072775.609 7      3503.427          43.500    24371438.495   128072772.608 5      3503.427          30.500    24371442.345    99796968.244 6      2729.883          41.250    24371441.635    99796966.249 5      2729.863          30.500
G06  22049144.836   115869038.121 8     -2421.404          50.250    22049145.526   115869037.111 7     -2421.404          43.500    22049148.546    90287563.381 8     -1886.798          51.750    22049148.276    90287563.376 7     -1886.774          43.500    22049147.446    86525581.028 9     -1808.186          56.250
G31  23676623.506   124421495.964 7      2033.398          47.500    23676623.536   124421495.955 6      2033.398          37.750    23676623.936    96951817.674 7      1584.518          46.000    23676623.356    96951817.673 6      1584.507          37.750
G24  24681920.826   129704369.819 6     -3660.524          41.750    24681921.126   129704365.796 4     -3660.524          27.500    24681925.676   101068338.484 6     -2852.297          41.000    24681925.696   101068338.471 4     -2852.215          27.500    24681925.106    96857156.392 7     -2733.432          47.250
G25  20695047.079   108753206.993 8      1384.983          53.750    20695046.769   108753204.992 7      1384.983          45.500    20695049.019    84742758.518 8      1079.216          51.500    20695048.929    84742758.519 7      1079.214          45.500    20695047.599    81211810.178 9      1034.243          57.750
G12  20409362.051   107251919.212 8     -1342.753          52.250    20409361.921   107251919.201 7     -1342.753          45.250    20409360.751    83572926.809 8     -1046.308          50.500    20409360.621    83572925.812 7     -1046.316          45.250
G29  22489731.173   118184333.420 8      2937.822          49.250    22489730.803   118184333.408 6      2937.822          41.000    22489730.233    92091689.532 7      2289.257          46.250    22489730.363    92091689.545 6      2289.233          41.000
> 2015 09 03 07 46 24.0000000  0  8       0.000054181905
G02  20789625.196   109250216.483 8       -97.509          51.000    20789624.636   109250216.477 7       -97.509          44.750                                                                    20789621.626    85130040.484 7       -75.996          44.750
G05  24370771.966   128069272.208 7      3503.179          44.000    24370772.016   128069269.221 5      3503.179          30.500    24370775.316    99794238.320 6      2729.778          41.000    24370774.776    99794236.320 5      2729.788          30.500
G06  22049605.842   115871459.659 8     -2421.895          50.250    22049606.212   115871458.648 7     -2421.895          43.500    22049609.372    90289450.295 8     -1887.202          51.750    22049608.862    90289450.294 7     -1887.207          43.500    22049608.192    86527389.321 9     -1808.566          56.250
G31  23676236.788   124419462.701 7      2032.949          47.500    23676236.808   124419462.692 6      2032.949          37.750    23676236.468    96950233.314 7      1584.115          46.250    23676236.588    96950233.311 6      1584.106          37.750
G24  24682617.187   129708030.236 6     -3660.488          41.250    24682617.637   129708026.241 4     -3660.488          27.250    24682622.517   101071190.755 6     -2852.365          41.000    24682622.807   101071190.758 4     -2852.374          27.250    24682621.657    96859889.820 7     -2733.493          47.500
G25  20694783.738   108751822.167 8      1384.420          53.750    20694783.258   108751820.162 7      1384.420          45.500    20694785.368    84741679.437 8      1078.740          51.500    20694785.458    84741679.437 7      1078.741          45.500    20694784.108    81210776.057 9      1033.804          57.750
G12  20409617.522   107253262.124 8     -1343.291          52.500    20409617.502   107253262.111 7     -1343.291          45.000    20409616.382    83573973.235 8     -1046.725          50.250    20409616.132    83573972.235 7     -1046.724          45.000
G29  22489172.123   118181395.571 8      2937.632          49.250    22489171.703   118181395.562 6      2937.632          40.750    22489171.383    92089400.307 7      2289.045          46.250    22489171.313    92089400.313 6      2289.052          40.750
> 2015 09 03 07 46 25.0000000  0  8       0.000054157004
G02  20789643.666   109250314.342 8       -98.182          51.000    20789643.236   109250314.337 7       -98.182          44.750                                                                    20789640.306    85130116.741 7       -76.527          44.750
G05  24370105.779   128065769.116 7      3503.039          44.000    24370105.379   128065766.123 5      3503.039          30.750    24370108.559    99791508.650 6      2729.615          41.000    24370108.599    99791506.654 5      2729.595          30.750
G06  22050066.461   115873881.822 8     -2422.438          50.250    22050066.881   115873880.821 7     -2422.438          43.250    22050070.141    90291337.695 8     -1887.636          51.750    22050069.971    90291337.692 7     -1887.620          43.250    22050069.171    86529198.078 9     -1808.984          56.250
G31  23675850.038   124417430.173 7      2032.319          47.500    23675849.778   124417430.153 6      2032.319          37.500    23675850.288    96948649.524 7      1583.605          46.250    23675849.798    96948649.526 6      1583.599          37.500
G24  24683313.727   129711690.884 6     -3660.747          41.250    24683313.917   129711686.871 4     -3660.747          26.750    24683319.047   101074043.193 6     -2852.479          41.000    24683320.117   101074043.204 4     -2852.522          26.750    24683318.447    96862623.410 7     -2733.645          47.500
G25  20694520.158   108750438.062 8      1383.799          53.750    20694519.758   108750436.060 7      1383.799          45.500    20694522.058    84740600.912 8      1078.287          51.500    20694522.048    84740600.911 7      1078.291          45.500    20694520.708    81209742.471 9      1033.357          57.750
G12  20409873.161   107254605.782 8     -1343.922          52.500    20409873.371   107254605.775 7     -1343.922          45.250    20409872.011    83575020.241 8     -1047.210          50.500    20409871.811    83575019.243 7     -1047.218          45.250
G29  22488612.785   118178458.137 8      2937.363          49.250    22488612.625   118178458.122 6      2937.363          41.000    22488612.085    92087111.399 7      2288.846          46.000    22488612.385    92087111.404 6      2288.821          41.000
> 2015 09 03 07 46 26.0000000  0  8       0.000054132084
G02  20789662.442   109250412.738 8       -98.692          51.000    20789661.942   109250412.726 7       -98.692          45.000                                                                    20789659.062    85130193.408 7       -76.886          45.000
G05  24369438.297   128062266.151 7      3502.976          44.250    24369438.727   128062263.149 5      3502.976          30.750    24369442.007    99788779.069 6      2729.580          41.250    24369441.947    99788777.070 5      2729.571          30.750
G06  22050527.299   115876304.423 8     -2422.832          50.250    22050528.149   115876303.415 7     -2422.832          43.250    22050531.079    90293225.432 8     -1887.892          51.750    22050531.109    90293225.433 7     -1887.899          43.250    22050530.179    86531007.159 9     -1809.222          56.250
G31  23675463.297   124415398.155 7      2031.832          47.000    23675463.067   124415398.144 6      2031.832          37.500    23675463.257    96947066.139 7      1583.282          46.250    23675463.107    96947066.131 6      1583.281          37.500
G24  24684010.664   129715351.559 6     -3660.732          41.000    24684010.464   129715347.553 4     -3660.732          27.750    24684015.694   101076895.656 6     -2852.474          41.000    24684015.984   101076895.663 4     -2852.525          27.750    24684015.014    96865357.030 7     -2733.637          47.500
G25  20694257.060   108749054.512 8      1383.319          53.750    20694256.550   108749052.504 7      1383.319          45.500    20694258.800    84739522.818 8      1077.929          51.500    20694258.780    84739522.814 7      1077.939          45.500    20694257.420    81208709.300 9      1033.017          57.750
G12  20410128.977   107255949.990 8     -1344.459          52.500    20410129.127   107255949.982 7     -1344.459          45.250    20410127.917    83576067.676 8     -1047.641          50.500    20410127.737    83576066.676 7     -1047.630          45.250
G29  22488053.888   118175520.925 8      2937.171          49.000    22488053.618   118175520.917 6      2937.171          41.000    22488053.468    92084822.662 7      2288.717          46.000    22488053.448    92084822.667 6      2288.714          41.000
> 2015 09 03 07 46 27.0000000  0  8       0.000054107115
G02  20789681.344   109250511.575 8       -98.882          51.000    20789680.734   109250511.570 7       -98.882          45.000                                                                    20789677.884    85130270.427 7       -77.092          45.000
G05  24368772.011   128058763.213 7      3503.178          44.000    24368772.501   128058760.216 5      3503.178          30.500    24368775.441    99786049.517 6      2729.687          41.000    24368775.541    99786047.527 5      2729.668          30.500
G06  22050988.655   115878727.376 8     -2422.954          50.250    22050989.115   115878726.369 7     -2422.954          43.500    22050992.205    90295113.444 8     -1888.011          51.750    22050992.015    90295113.444 7     -1888.016          43.500    22050991.225    86532816.506 9     -1809.342          56.250
G31  23675076.583   124413366.595 7      2031.550          47.000    23675076.313   124413366.597 6      2031.550          37.750    23675077.203    96945483.113 7      1583.000          46.250    23675076.653    96945483.101 6      1583.022          37.750
G24  24684707.124   129719012.148 6     -3660.343          41.000    24684707.294   129719008.147 4     -3660.343          27.500    24684711.984   101079748.066 6     -2852.206          41.000    24684712.944   101079748.068 4     -2852.196          27.500    24684711.564    96868090.584 7     -2733.359          47.750
G25  20693994.001   108747671.402 8      1383.051          53.750    20693993.461   108747669.401 7      1383.051          45.500    20693995.621    84738445.076 8      1077.698          51.500    20693995.561    84738445.076 7      1077.703          45.500    20693994.201    81207676.463 9      1032.795          57.750
G12  20410384.751   107257294.657 8     -1344.697          52.500    20410384.941   107257294.648 7     -1344.697          45.250    20410383.831    83577115.466 8     -1047.835          50.750    20410383.591    83577114.465 7     -1047.823          45.250
G29  22487495.123   118172583.849 8      2937.202          49.000    22487494.843   118172583.838 6      2937.202          41.000    22487494.613    92082534.034 7      2288.721          46.000    22487494.593    92082534.043 6      2288.694          41.000
> 2015 09 03 07 46 28.0000000  0  8       0.000054082243
G02  20789700.327   109250611.119 8       -99.985          51.000    20789699.617   109250611.111 7       -99.985          45.000                                                                    20789696.797    85130347.991 7       -77.897          45.000
G05  24368105.908   128055260.575 7      3502.408          44.000    24368105.628   128055257.568 5      3502.408          30.750    24368108.428    99783320.194 6      2729.179          40.750    24368109.108    99783318.194 5      2729.176          30.750
G06  22051449.934   115881150.931 8     -2423.925          50.250    22051450.294   115881149.925 7     -2423.925          43.500    22051453.284    90297001.928 8     -1888.796          51.750    22051453.134    90297001.929 7     -1888.801          43.500    22051452.424    86534626.302 9     -1810.094          56.250
G31  23674689.832   124411335.723 7      2030.444          46.750    23674690.172   124411335.712 6      2030.444          37.750    23674689.952    96943900.613 7      1582.200          46.000    23674690.142    96943900.607 6      1582.170          37.750
G24  24685403.617   129722672.946 6     -3660.938          41.000    24685403.617   129722668.933 4     -3660.938          27.750    24685409.327   101082600.627 6     -2852.637          41.000    24685409.217   101082600.632 4     -2852.630          27.750    24685408.277    96870824.288 7     -2733.794          47.750
G25  20693730.645   108746288.999 8      1382.008          53.750    20693730.305   108746286.998 7      1382.008          45.500    20693732.475    84737367.878 8      1076.878          51.500    20693732.525    84737367.880 7      1076.878          45.500    20693731.135    81206644.147 9      1032.012          57.750
G12  20410640.965   107258640.041 8     -1345.797          52.500    20410640.985   107258640.032 7     -1345.797          45.250    20410639.755    83578163.814 8     -1048.688          50.750    20410639.615    83578162.817 7     -1048.697          45.250
G29  22486935.923   118169647.161 8      2936.423          49.000    22486936.093   118169647.156 6      2936.423          41.000    22486935.963    92080245.706 7      2288.085          46.250    22486935.823    92080245.708 6      2288.110          41.000
> 2015 09 03 07 46 29.0000000  0  8       0.000054057405
G02  20789719.256   109250711.260 8      -100.391          51.250    20789718.806   109250711.249 7      -100.391          45.000                                                                    20789715.816    85130426.024 7       -78.238          45.000
G05  24367439.344   128051758.110 7      3502.424          44.250    24367439.674   128051755.112 5      3502.424          30.750    24367442.564    99780591.002 6      2729.185          41.000    24367442.144    99780588.999 5      2729.204          30.750
G06  22051911.081   115883574.979 8     -2424.257          50.500    22051911.731   115883573.971 7     -2424.257          43.250    22051914.651    90298890.796 8     -1889.018          51.750    22051914.611    90298890.797 7     -1889.028          43.250    22051913.731    86536436.467 9     -1810.313          56.250
G31  23674303.939   124409305.441 7      2030.074          46.750    23674303.599   124409305.432 6      2030.074          37.750    23674304.009    96942318.576 7      1581.843          46.000    23674303.609    96942318.572 6      1581.828          37.750
G24  24686100.238   129726333.832 6     -3660.741          41.000    24686099.918   129726329.807 4     -3660.741          27.250    24686104.958   101085453.264 6     -2852.588          40.750    24686105.668   101085453.266 4     -2852.604          27.250    24686104.928    96873558.061 7     -2733.717          47.750
G25  20693467.700   108744907.202 8      1381.610          53.750    20693467.410   108744905.197 7      1381.610          45.500    20693469.440    84736291.152 8      1076.567          51.500    20693469.540    84736291.152 7      1076.564          45.500    20693468.180    81205612.286 9      1031.710          57.750
G12  20410896.973   107259986.033 8     -1346.260          52.500    20410896.973   107259986.025 7     -1346.260          45.250    20410895.713    83579212.642 8     -1049.069          50.500    20410895.673    83579211.643 7     -1049.060          45.250
G29  22486376.963   118166710.743 8      2936.375          48.750    22486377.143   118166710.738 6      2936.375          41.000    22486376.873    92077957.589 7      2288.082          46.250    22486376.953    92077957.600 6      2288.069          41.000
> 2015 09 03 07 46 30.0000000  0  8       0.000054032551
G02  20789738.179   109250811.924 8      -101.180          51.250    20789738.019   109250811.919 7      -101.180          45.000                                                                    20789734.979    85130504.466 7       -78.852          45.000
G05  24366772.803   128048255.745 7      3502.117          44.250    24366772.713   128048252.744 5      3502.117          30.250    24366775.383    99777861.886 6      2728.954          40.750    24366775.983    99777859.867 5      2729.021          30.250
G06  22052372.590   115885999.464 8     -2424.944          50.500    22052372.940   115885998.457 7     -2424.944          43.250    22052375.880    90300780.001 8     -1889.613          51.750    22052375.860    90300780.000 7     -1889.611          43.250    22052375.060    86538246.956 9     -1810.884          56.250
G31  23673917.426   124407275.669 7      2029.334          46.750    23673917.266   124407275.658 6      2029.334          37.250    23673917.316    96940736.937 7      1581.283          46.000    23673917.426    96940736.934 6      1581.299          37.250
G24  24686796.917   129729994.756 6     -3661.175          41.250    24686797.097   129729990.758 4     -3661.175          27.250    24686801.677   101088305.928 6     -2852.880          40.750    24686802.397   101088305.930 4     -2852.963          27.250    24686801.727    96876291.868 7     -2734.029          47.750
G25  20693205.034   108743525.938 8      1380.772          53.500    20693204.664   108743523.937 7      1380.772          45.500    20693206.784    84735214.845 8      1075.912          51.500    20693206.744    84735214.843 7      1075.929          45.500    20693205.384    81204580.824 9      1031.092          57.750
G12  20411153.293   107261332.554 8     -1346.996          52.750    20411153.383   107261332.548 7     -1346.996          45.250    20411152.083    83580261.878 8     -1049.616          50.500    20411151.963    83580260.878 7     -1049.599          45.250
G29  22485818.333   118163774.546 8      2935.886          48.750    22485818.493   118163774.542 6      2935.886          41.000    22485818.283    92075669.646 7      2287.691          46.250    22485818.293    92075669.662 6      2287.655          41.000
> 2015 09 03 07 46 31.0000000  0  8       0.000054007778
G02  20789757.773   109250913.283 8      -101.802          51.250    20789757.243   109250913.268 7      -101.802          44.750                                                                    20789754.373    85130583.446 7       -79.338          44.750
G05  24366106.176   128044753.667 7      3501.906          44.250    24366106.176   128044750.656 5      3501.906          30.250    24366108.456    99775132.997 6      2728.725          40.250    24366109.386    99775131.005 5      2728.710          30.250
G06  22052834.286   115888424.520 8     -2425.451          50.750    22052834.496   115888423.514 7     -2425.451          43.250    22052837.626    90302669.654 8     -1889.976          51.750    22052837.356    90302669.653 7     -1889.976          43.250    22052836.586    86540057.874 9     -1811.233          56.250
G31  23673531.278   124405246.580 7      2028.712          46.500    23673531.368   124405246.569 6      2028.712          37.500    23673531.748    96939155.826 7      1580.831          46.000    23673531.478    96939155.821 6      1580.821          37.500
G24  24687493.230   129733655.831 6     -3661.211          41.250    24687494.560   129733651.830 4     -3661.211          27.500    24687498.700   101091158.709 6     -2852.918          40.750    24687498.950   101091158.700 4     -2852.948          27.500    24687498.450    96879025.780 8     -2734.032          48.000
G25  20692942.128   108742145.350 8      1380.181          53.500    20692941.808   108742143.344 7      1380.181          45.250    20692944.118    84734139.064 8      1075.471          51.500    20692943.938    84734139.061 7      1075.484          45.250    20692942.658    81203549.866 9      1030.663          57.750
G12  20411409.660   107262679.783 8     -1347.614          52.750    20411409.560   107262679.770 7     -1347.614          45.250    20411408.450    83581311.664 8     -1050.093          50.500    20411408.260    83581310.664 7     -1050.078          45.250
G29  22485259.658   118160838.719 8      2935.563          48.750    22485259.758   118160838.712 6      2935.563          40.750    22485259.428    92073381.990 7      2287.454          46.250    22485259.468    92073382.002 6      2287.428          40.750
> 2015 09 03 07 46 32.0000000  0  8       0.000053983170
G02  20789777.179   109251015.431 8      -102.383          51.250    20789776.629   109251015.423 7      -102.383          44.750                                                                    20789773.739    85130663.044 7       -79.781          44.750
G05  24365439.590   128041251.967 7      3501.623          44.000    24365439.860   128041248.965 5      3501.623          30.500    24365442.580    99772404.407 6      2728.524          40.000    24365442.670    99772402.418 5      2728.470          30.500
G06  22053295.543   115890850.277 8     -2425.936          50.750    22053296.133   115890849.270 7     -2425.936          43.250    22053299.033    90304559.853 8     -1890.364          51.750    22053298.903    90304559.858 7     -1890.380          43.250    22053298.143    86541869.315 9     -1811.601          56.250
G31  23673145.044   124403218.283 7      2028.038          46.750    23673145.164   124403218.277 6      2028.038          37.500    23673145.564    96937575.336 7      1580.292          46.000    23673145.344    96937575.340 6      1580.287          37.500
G24  24688190.391   129737317.196 6     -3661.353          41.250    24688190.581   129737313.191 4     -3661.353          28.000    24688195.311   101094011.713 6     -2852.991          40.500    24688195.951   101094011.703 4     -2853.007          28.000    24688195.281    96881759.913 7     -2734.128          47.750
G25  20692679.543   108740765.575 8      1379.555          53.500    20692679.353   108740763.571 7      1379.555          45.500    20692681.403    84733063.912 8      1074.981          51.750    20692681.493    84733063.911 7      1074.976          45.500    20692680.073    81202519.514 9      1030.190          57.750
G12  20411666.142   107264027.817 8     -1348.267          53.000    20411666.172   107264027.808 7     -1348.267          45.250    20411665.072    83582362.081 8     -1050.572          50.500    20411664.912    83582361.084 7     -1050.574          45.250
G29  22484701.051   118157903.358 8      2935.295          48.750    22484701.191   118157903.354 6      2935.295          41.000    22484700.781    92071094.700 7      2287.252          46.250    22484700.861    92071094.708 6      2287.241          41.000
> 2015 09 03 07 46 33.0000000  0  8       0.000053958661
G02  20789796.578   109251118.270 8      -103.352          51.250    20789796.078   109251118.259 7      -103.352          44.750                                                                    20789793.278    85130743.173 7       -80.507          44.750
G05  24364773.817   128037750.518 7      3501.205          44.000    24364773.977   128037747.521 5      3501.205          30.000    24364776.487    99769676.007 6      2728.182          40.000    24364776.407    99769674.024 5      2728.122          30.000
G06  22053757.346   115893276.611 8     -2426.761          50.750    22053757.756   115893275.602 7     -2426.761          43.250    22053760.726    90306450.501 8     -1890.987          51.750    22053760.696    90306450.504 7     -1890.991          43.250    22053759.846    86543681.186 9     -1812.197          56.250
G31  23672759.454   124401190.648 7      2027.225          46.750    23672759.234   124401190.632 6      2027.225          37.500    23672759.774    96935995.360 7      1579.664          46.000    23672759.674    96935995.364 6      1579.635          37.500
G24  24688887.019   129740978.716 6     -3661.721          41.250    24688887.879   129740974.712 4     -3661.721          27.750    24688892.229   101096864.854 6     -2853.324          40.500    24688892.309   101096864.834 4     -2853.279          27.750    24688892.029    96884494.156 8     -2734.400          48.000
G25  20692417.117   108739386.471 8      1378.675          53.500    20692416.787   108739384.467 7      1378.675          45.500    20692419.037    84731989.287 8      1074.282          51.500    20692419.007    84731989.288 7      1074.284          45.500    20692417.627    81201489.664 9      1029.525          57.750
G12  20411922.821   107265376.547 8     -1349.189          52.750    20411922.861   107265376.536 7     -1349.189          45.250    20411921.701    83583413.041 8     -1051.326          50.500    20411921.471    83583412.043 7     -1051.336          45.250
G29  22484142.511   118154968.358 8      2934.805          48.750    22484142.741   118154968.360 6      2934.805          41.000    22484142.431    92068807.688 7      2286.833          46.250    22484142.461    92068807.698 6      2286.827          41.000
> 2015 09 03 07 46 34.0000000  0  8       0.000053934078
G02  20789816.347   109251221.544 8      -103.758          51.000    20789815.787   109251221.537 7      -103.758          45.000                                                                    20789812.937    85130823.652 7       -80.866          45.000
G05  24364107.241   128034249.090 7      3501.180          44.000    24364107.481   128034246.086 5      3501.180          30.500    24364110.411    99766947.634 6      2728.187          40.000    24364109.751    99766945.636 5      2728.180          30.500
G06  22054219.324   115895703.290 8     -2427.078          50.500    22054219.744   115895702.285 7     -2427.078          43.000    22054222.584    90308341.421 8     -1891.269          51.750    22054222.414    90308341.425 7     -1891.272          43.000    22054221.644    86545493.317 9     -1812.456          56.250
G31  23672373.183   124399163.452 7      2026.794          46.500    23672373.853   124399163.438 6      2026.794          37.500    23672374.183    96934415.735 7      1579.304          46.000    23672373.723    96934415.731 6      1579.347          37.500
G24  24689583.986   129744640.169 6     -3661.710          41.250    24689584.726   129744636.158 4     -3661.710          27.500    24689588.436   101099717.922 6     -2853.279          40.500    24689589.076   101099717.908 4     -2853.234          27.500    24689588.776    96887228.357 7     -2734.408          47.750
G25  20692154.792   108738007.819 8      1378.206          53.500    20692154.512   108738005.817 7      1378.206          45.500    20692156.722    84730915.015 8      1073.938          51.750    20692156.632    84730915.009 7      1073.944          45.500    20692155.322    81200460.151 9      1029.188          57.750
G12  20412179.401   107266725.729 8     -1349.657          52.750    20412179.511   107266725.721 7     -1349.657          45.250    20412178.521    83584464.350 8     -1051.691          50.500    20412178.081    83584463.351 7     -1051.676          45.250
G29  22483583.989   118152033.499 8      2934.627          48.750    22483584.249   118152033.498 6      2934.627          41.000    22483583.999    92066520.793 7      2286.675          46.250    22483584.259    92066520.792 6      2286.683          41.000
> 2015 09 03 07 46 35.0000000  0  8       0.000053909539
G02  20789836.133   109251325.430 8      -104.238          51.000    20789835.593   109251325.423 7      -104.238          44.750                                                                    20789832.703    85130904.603 7       -81.263          44.750
G05  24363441.180   128030747.851 7      3501.150          43.750    24363441.020   128030744.855 5      3501.150          30.500    24363443.550    99764219.397 6      2728.149          40.000    24363443.490    99764217.410 5      2728.108          30.500
G06  22054681.076   115898130.477 8     -2427.511          50.250    22054681.486   115898129.468 7     -2427.511          43.000    22054684.256    90310232.730 8     -1891.536          51.750    22054684.256    90310232.732 7     -1891.530          43.000    22054683.596    86547305.822 9     -1812.721          56.250
G31  23671988.181   124397136.852 7      2026.307          46.500    23671987.811   124397136.842 6      2026.307          37.500    23671988.311    96932836.570 7      1578.897          46.000    23671988.141    96932836.565 6      1578.935          37.500
G24  24690280.323   129748301.704 6     -3661.565          41.250    24690281.173   129748297.690 4     -3661.565          27.750    24690285.323   101102571.056 6     -2853.163          40.500    24690286.103   101102571.039 4     -2853.149          27.750    24690285.673    96889962.611 8     -2734.285          48.000
G25  20691892.522   108736629.778 8      1377.725          53.750    20691892.332   108736627.774 7      1377.725          45.500    20691894.342    84729841.213 8      1073.556          51.750    20691894.462    84729841.212 7      1073.550          45.500    20691893.122    81199431.094 9      1028.815          57.750
G12  20412436.227   107268075.527 8     -1350.137          52.500    20412436.357   107268075.519 7     -1350.137          45.250    20412435.347    83585516.140 8     -1052.056          50.750    20412435.127    83585515.144 7     -1052.062          45.250
G29  22483025.772   118149098.928 8      2934.354          48.750    22483025.812   118149098.929 6      2934.354          41.250    22483025.702    92064234.114 7      2286.477          46.250    22483025.522    92064234.117 6      2286.491          41.250
> 2015 09 03 07 46 36.0000000  0  8       0.000053885028
G02  20789855.916   109251429.898 8      -104.936          51.000    20789855.536   109251429.895 7      -104.936          45.000                                                                    20789852.536    85130986.008 7       -81.792          45.000
G05  24362774.894   128027246.792 7      3500.847          43.750    24362774.024   128027243.788 5      3500.847          30.500    24362777.294    99761491.307 6      2727.890          40.000    24362776.894    99761489.313 5      2727.914          30.500
G06  22055142.912   115900558.149 8     -2428.160          50.000    22055143.382   115900557.144 7     -2428.160          43.250    22055146.422    90312124.425 8     -1892.064          51.750    22055146.152    90312124.426 7     -1892.063          43.250    22055145.512    86549118.696 9     -1813.228          56.250
G31  23671602.138   124395110.828 7      2025.594          46.250    23671602.148   124395110.810 6      2025.594          37.500    23671602.798    96931257.849 7      1578.422          46.000    23671602.648    96931257.847 6      1578.390          37.500
G24  24690977.331   129751963.352 6     -3661.947          41.500    24690977.941   129751959.348 4     -3661.947          28.000    24690982.681   101105424.287 6     -2853.406          40.500    24690982.891   101105424.295 4     -2853.446          28.000    24690982.451    96892696.956 7     -2734.542          47.750
G25  20691630.554   108735252.316 8      1377.016          53.750    20691630.134   108735250.311 7      1377.016          45.500    20691632.234    84728767.869 8      1073.015          51.750    20691632.274    84728767.869 7      1073.006          45.500    20691630.954    81198402.469 9      1028.308          57.500
G12  20412693.299   107269425.931 8     -1350.903          52.500    20412693.369   107269425.919 7     -1350.903          45.250    20412692.279    83586568.404 8     -1052.657          50.750    20412692.009    83586567.404 7     -1052.654          45.250
G29  22482467.193   118146164.616 8      2933.911          48.750    22482467.423   118146164.618 6      2933.911          41.250    22482467.033    92061947.644 7      2286.194          46.250    22482467.353    92061947.652 6      2286.188          41.250
> 2015 09 03 07 46 37.0000000  0  8       0.000053860589
G02  20789875.927   109251535.010 8      -105.526          51.000    20789875.527   109251534.995 7      -105.526          44.750                                                                    20789872.517    85131067.912 7       -82.236          44.750
G05  24362108.848   128023745.962 7      3500.529          43.500    24362108.458   128023742.965 5      3500.529          30.250    24362111.208    99758763.390 6      2727.774          39.750    24362110.978    99758761.396 5      2727.749          30.250
G06  22055604.967   115902986.352 8     -2428.546          50.000    22055605.517   115902985.346 7     -2428.546          43.250    22055608.377    90314016.529 8     -1892.381          51.750    22055608.467    90314016.527 7     -1892.366          43.250    22055607.557    86550931.960 9     -1813.525          56.250
G31  23671216.518   124393085.439 7      2024.931          46.000    23671216.768   124393085.426 6      2024.931          37.750    23671217.278    96929679.634 7      1577.907          45.750    23671217.268    96929679.627 6      1577.890          37.750
G24  24691674.678   129755625.100 6     -3661.928          41.750    24691675.298   129755621.090 4     -3661.928          27.000    24691679.188   101108277.591 6     -2853.410          40.250    24691679.218   101108277.591 4     -2853.451          27.000    24691679.078    96895431.364 7     -2734.520          47.750
G25  20691368.521   108733875.499 8      1376.390          53.500    20691368.161   108733873.497 7      1376.390          45.500    20691370.261    84727695.029 8      1072.493          51.750    20691370.311    84727695.026 7      1072.505          45.500    20691368.951    81197374.333 9      1027.809          57.750
G12  20412950.422   107270776.972 8     -1351.454          52.250    20412950.522   107270776.965 7     -1351.454          45.000    20412949.272    83587621.161 8     -1053.074          50.750    20412949.222    83587620.165 7     -1053.081          45.000
G29  22481909.189   118143230.621 8      2933.785          48.750    22481909.229   118143230.619 6      2933.785          41.250    22481908.749    92059661.411 7      2286.067          46.500    22481908.979    92059661.422 6      2286.056          41.250
> 2015 09 03 07 46 38.0000000  0  8       0.000053836136
G02  20789895.918   109251640.654 8      -105.853          51.000    20789895.598   109251640.649 7      -105.853          44.750                                                                    20789892.628    85131150.238 7       -82.528          44.750
G05  24361442.400   128020245.235 7      3500.730          43.500    24361441.860   128020242.230 5      3500.730          30.000    24361444.380    99756035.564 6      2727.780          39.750    24361445.150    99756033.555 5      2727.838          30.000
G06  22056067.169   115905414.989 8     -2428.800          50.000    22056067.629   115905413.984 7     -2428.800          43.250    22056070.549    90315908.972 8     -1892.595          51.750    22056070.529    90315908.974 7     -1892.591          43.250    22056069.729    86552745.552 9     -1813.734          56.250
G31  23670831.440   124391060.558 7      2024.659          46.000    23670831.550   124391060.557 6      2024.659          37.500    23670832.080    96928101.809 7      1577.605          45.750    23670831.890    96928101.806 6      1577.622          37.500
G24  24692371.306   129759286.834 6     -3661.635          41.500    24692371.626   129759282.825 4     -3661.635          27.000    24692375.856   101111130.893 6     -2853.139          40.250    24692376.286   101111130.896 4     -2853.172          27.000    24692376.056    96898165.775 7     -2734.270          47.750
G25  20691106.571   108732499.211 8      1376.111          53.500    20691106.261   108732497.213 7      1376.111          45.500    20691108.231    84726622.598 8      1072.271          51.750    20691108.331    84726622.598 7      1072.270          45.500    20691107.031    81196346.585 9      1027.598          57.750
G12  20413207.692   107272128.558 8     -1351.792          52.250    20413207.682   107272128.547 7     -1351.792          45.000    20413206.512    83588674.343 8     -1053.356          50.750    20413206.322    83588673.345 7     -1053.362          45.000
G29  22481350.964   118140296.851 8      2933.755          49.000    22481351.004   118140296.851 6      2933.755          41.250    22481350.664    92057375.360 7      2286.016          46.500    22481350.744    92057375.367 6      2286.005          41.250
> 2015 09 03 07 46 39.0000000  0  8       0.000053811796
G02  20789916.222   109251746.999 8      -106.992          51.250    20789915.802   109251746.994 7      -106.992          45.000                                                                    20789912.982    85131233.101 7       -83.366          45.000
G05  24360776.402   128016744.779 7      3500.070          43.500    24360776.212   128016741.791 5      3500.070          30.000    24360778.242    99753307.937 6      2727.331          39.500    24360779.042    99753305.950 5      2727.307          30.000
G06  22056529.572   115907844.225 8     -2429.847          50.000    22056529.832   115907843.218 7     -2429.847          43.250    22056532.922    90317801.882 8     -1893.372          51.750    22056532.772    90317801.882 7     -1893.364          43.250    22056532.012    86554559.593 9     -1814.477          56.250
G31  23670446.153   124389036.377 7      2023.535          46.250    23670446.003   124389036.369 6      2023.535          37.500    23670446.983    96926524.524 7      1576.745          45.750    23670447.003    96926524.515 6      1576.765          37.500
G24  24693068.336   129762948.788 7     -3662.428          42.000    24693068.746   129762944.768 4     -3662.428          27.500    24693072.756   101113984.372 6     -2853.897          40.250    24693073.066   101113984.354 4     -2853.853          27.500    24693072.796    96900900.354 7     -2734.968          47.750
G25  20690844.711   108731123.625 8      1374.995          53.500    20690844.481   108731121.627 7      1374.995          45.500    20690846.651    84725550.710 8      1071.432          51.750    20690846.661    84725550.710 7      1071.429          45.500    20690845.281    81195319.361 9      1026.784          57.500
G12  20413465.055   107273480.867 8     -1352.960          52.000    20413465.025   107273480.858 7     -1352.960          45.000    20413463.695    83589728.092 8     -1054.264          50.750    20413463.595    83589727.090 7     -1054.251          45.000
G29  22480792.750   118137363.472 8      2932.891          49.000    22480792.740   118137363.474 6      2932.891          41.250    22480792.320    92055089.613 7      2285.346          46.750    22480792.700    92055089.613 6      2285.368          41.250
> 2015 09 03 07 46 40.0000000  0  8       0.000053787639
G02  20789936.605   109251854.216 8      -107.580          51.250    20789936.245   109251854.204 7      -107.580          44.750                                                                    20789933.335    85131316.648 7       -83.855          44.750
G05  24360110.458   128013244.788 7      3499.877          43.500    24360110.348   128013241.795 4      3499.877          29.250    24360112.598    99750580.678 6      2727.196          39.500    24360112.568    99750578.671 4      2727.207          29.250
G06  22056992.014   115910274.221 8     -2430.314          50.000    22056992.244   115910273.209 7     -2430.314          43.250    22056995.334    90319695.380 8     -1893.712          51.750    22056995.334    90319695.384 7     -1893.716          43.250    22056994.434    86556374.195 9     -1814.809          56.250
G31  23670061.292   124387013.046 7      2022.946          46.250    23670061.402   124387013.040 6      2022.946          37.500    23670061.652    96924947.906 7      1576.314          45.750    23670061.782    96924947.901 6      1576.344          37.500
G24  24693765.293   129766611.049 7     -3662.438          42.000    24693764.843   129766607.041 4     -3662.438          27.500    24693769.583   101116838.070 6     -2853.782          40.500    24693770.363   101116838.075 4     -2853.842          27.500    24693769.733    96903635.151 7     -2734.899          47.750
G25  20690583.058   108729748.912 8      1374.384          53.500    20690582.828   108729746.910 7      1374.384          45.500    20690585.048    84724479.505 8      1070.959          51.750    20690585.088    84724479.504 7      1070.962          45.500    20690583.708    81194292.789 9      1026.339          57.500
G12  20413722.532   107274834.042 8     -1353.558          52.250    20413722.512   107274834.029 7     -1353.558          45.000    20413721.302    83590782.511 8     -1054.697          50.500    20413721.162    83590781.510 7     -1054.688          45.000
G29  22480234.641   118134430.637 8      2932.608          49.000    22480234.601   118134430.634 6      2932.608          41.250    22480234.161    92052804.283 7      2285.158          46.750    22480234.271    92052804.293 6      2285.166          41.250
> 2015 09 03 07 46 41.0000000  0  8       0.000053763354
G02  20789956.946   109251961.748 8      -107.766          51.000    20789956.716   109251961.741 7      -107.766          45.000                                                                    20789953.746    85131400.440 7       -83.960          45.000
G05  24359444.499   128009744.721 7      3500.135          43.500    24359444.139   128009741.724 4      3500.135          29.750    24359446.249    99747853.350 6      2727.340          39.750    24359446.839    99747851.359 4      2727.403          29.750
G06  22057454.477   115912704.438 8     -2430.378          50.250    22057454.787   115912703.432 7     -2430.378          43.000    22057458.007    90321589.060 8     -1893.798          51.750    22057457.557    90321589.062 7     -1893.807          43.000    22057456.877    86558188.970 9     -1814.889          56.250
G31  23669676.589   124384990.037 7      2022.880          46.250    23669676.359   124384990.029 6      2022.880          37.750    23669677.039    96923371.530 7      1576.230          45.750    23669676.819    96923371.528 6      1576.178          37.750
G24  24694462.164   129770273.113 7     -3662.008          42.000    24694462.324   129770269.101 4     -3662.008          27.500    24694466.574   101119691.627 6     -2853.500          40.500    24694467.124   101119691.631 4     -2853.531          27.500    24694466.764    96906369.804 7     -2734.575          47.750
G25  20690321.606   108728374.514 8      1374.239          53.500    20690321.316   108728372.514 7      1374.239          45.750    20690323.456    84723408.550 8      1070.834          51.750    20690323.476    84723408.552 7      1070.818          45.750    20690322.116    81193266.456 9      1026.218          57.500
G12  20413980.135   107276187.553 8     -1353.708          52.250    20413980.005   107276187.544 7     -1353.708          45.000    20413979.035    83591837.196 8     -1054.847          50.750    20413978.835    83591836.194 7     -1054.832          45.000
G29  22479676.350   118131497.799 8      2932.851          49.000    22479676.680   118131497.798 6      2932.851          41.500    22479676.190    92050518.958 7      2285.297          46.750    22479676.230    92050518.968 6      2285.312          41.500
> 2015 09 03 07 46 42.0000000  0  8       0.000053739067
G02  20789977.635   109252069.822 8      -108.419          51.000    20789977.275   109252069.815 7      -108.419          45.000                                                                    20789974.395    85131484.650 7       -84.493          45.000
G05  24358778.406   128006244.749 7      3499.829          43.250    24358778.366   128006241.741 4      3499.829          29.500    24358780.576    99745126.105 6      2727.198          39.750    24358780.916    99745124.108 4      2727.194          29.500
G06  22057917.051   115915135.101 8     -2431.015          50.250    22057917.251   115915134.098 7     -2431.015          43.250    22057920.521    90323483.081 8     -1894.321          51.750    22057920.221    90323483.086 7     -1894.331          43.250    22057919.371    86560004.074 9     -1815.399          56.250
G31  23669291.766   124382967.563 7      2022.097          46.250    23669291.216   124382967.554 6      2022.097          37.750    23669291.996    96921795.573 7      1575.647          46.000    23669291.916    96921795.576 6      1575.631          37.750
G24  24695159.016   129773935.237 7     -3662.279          42.000    24695158.706   129773931.223 4     -3662.279          27.750    24695163.736   101122545.229 6     -2853.715          40.750    24695163.916   101122545.218 4     -2853.687          27.750    24695163.526    96909104.504 7     -2734.812          47.750
G25  20690060.061   108727000.668 8      1373.441          53.500    20690059.931   108726998.670 7      1373.441          45.500    20690062.101    84722338.020 8      1070.219          51.750    20690062.041    84722338.020 7      1070.212          45.500    20690060.711    81192240.532 9      1025.636          57.500
G12  20414237.689   107277541.611 8     -1354.446          52.250    20414237.749   107277541.597 7     -1354.446          45.250    20414236.749    83592892.302 8     -1055.418          50.500    20414236.409    83592891.302 7     -1055.403          45.250
G29  22479118.553   118128565.202 8      2932.325          49.250    22479118.553   118128565.199 6      2932.325          41.500    22479118.193    92048233.814 7      2284.943          46.750    22479118.233    92048233.828 6      2284.920          41.500
> 2015 09 03 07 46 43.0000000  0  8       0.000053714896
G02  20789998.492   109252178.658 8      -109.234          51.000    20789997.962   109252178.650 7      -109.234          45.000                                                                    20789995.092    85131569.461 7       -85.120          45.000
G05  24358112.354   128002745.146 7      3499.457          43.500    24358112.504   128002742.142 4      3499.457          29.750    24358114.314    99742399.142 6      2726.883          39.750    24358114.794    99742397.148 4      2726.890          29.750
G06  22058379.747   115917566.418 8     -2431.649          50.500    22058379.977   115917565.410 7     -2431.649          43.250    22058383.187    90325377.607 8     -1894.796          51.750    22058382.837    90325377.614 7     -1894.798          43.250    22058382.087    86561819.662 9     -1815.839          56.250
G31  23668906.635   124380945.816 7      2021.431          46.250    23668906.415   124380945.802 6      2021.431          37.750    23668906.825    96920220.194 7      1575.159          46.000    23668907.415    96920220.190 6      1575.159          37.750
G24  24695855.791   129777597.597 7     -3662.448          42.000    24695856.101   129777593.589 4     -3662.448          27.750    24695860.461   101125398.999 6     -2853.831          40.500    24695860.211   101125399.009 4     -2853.927          27.750    24695860.501    96911839.373 7     -2734.951          47.750
G25  20689798.624   108725627.584 8      1372.755          53.500    20689798.584   108725625.581 7      1372.755          45.500    20689800.664    84721268.084 8      1069.675          51.750    20689800.744    84721268.079 7      1069.672          45.500    20689799.434    81191215.176 9      1025.098          57.250
G12  20414495.388   107278896.438 8     -1355.171          52.250    20414495.578   107278896.426 7     -1355.171          45.250    20414494.428    83593948.011 8     -1055.989          50.500    20414494.258    83593947.014 7     -1055.980          45.250
G29  22478560.777   118125633.032 8      2931.979          49.250    22478560.527   118125633.025 6      2931.979          41.500    22478560.057    92045949.009 7      2284.652          47.000    22478560.317    92045949.018 6      2284.636          41.500
> 2015 09 03 07 46 44.0000000  0  8       0.000053690720
G02  20790019.447   109252287.993 8      -109.628          51.250    20790018.897   109252287.982 7      -109.628          44.750                                                                    20790015.927    85131654.655 7       -85.446          44.750
G05  24357446.209   127999245.628 7      3499.377          43.250    24357446.369   127999242.633 4      3499.377          29.500    24357448.299    99739672.243 6      2726.821          40.000    24357448.849    99739670.251 4      2726.783          29.500
G06  22058842.471   115919998.120 8     -2431.903          50.500    22058842.771   115919997.112 7     -2431.903          43.250    22058845.761    90327272.442 8     -1894.998          51.750    22058845.691    90327272.444 7     -1895.002          43.250    22058844.811    86563635.544 9     -1816.034          56.250
G31  23668522.283   124378924.576 7      2021.022          46.250    23668521.923   124378924.565 6      2021.022          37.500    23668522.823    96918645.203 7      1574.796          46.250    23668522.733    96918645.197 6      1574.809          37.500
G24  24696552.922   129781259.971 7     -3662.416          42.000    24696553.002   129781255.953 4     -3662.416          27.000    24696558.372   101128252.797 6     -2853.837          40.500    24696557.302   101128252.800 4     -2853.853          27.000    24696557.672    96914574.253 8     -2734.949          48.000
G25  20689537.625   108724254.996 8      1372.309          53.500    20689537.455   108724252.995 7      1372.309          45.500    20689539.555    84720198.534 8      1069.342          51.750    20689539.605    84720198.534 7      1069.337          45.500    20689538.235    81190190.194 9      1024.781          57.500
G12  20414753.407   107280251.783 8     -1355.668          52.250    20414753.487   107280251.771 7     -1355.668          45.250    20414752.347    83595004.123 8     -1056.365          50.500    20414752.147    83595003.123 7     -1056.356          45.250
G29  22478002.588   118122701.050 8      2931.853          49.250    22478002.598   118122701.045 6      2931.853          41.750    22478002.668    92043664.347 7      2284.590          47.000    22478002.308    92043664.358 6      2284.570          41.750
> 2015 09 03 07 46 45.0000000  0  8       0.000053666511
G02  20790040.471   109252397.828 8      -110.094          51.000    20790039.591   109252397.819 7      -110.094          44.750                                                                    20790036.731    85131740.241 7       -85.784          44.750
G05  24356780.577   127995746.180 7      3499.476          43.250    24356780.107   127995743.185 5      3499.476          30.000    24356783.127    99736945.404 6      2726.883          40.250    24356782.717    99736943.416 5      2726.884          30.000
G06  22059305.201   115922430.241 8     -2432.354          50.500    22059305.411   115922429.235 7     -2432.354          43.250    22059308.651    90329167.600 8     -1895.333          51.750    22059308.391    90329167.599 7     -1895.334          43.250    22059307.581    86565451.736 9     -1816.368          56.250
G31  23668137.448   124376903.843 7      2020.469          46.000    23668137.358   124376903.832 6      2020.469          37.750    23668138.298    96917070.609 7      1574.363          46.250    23668138.128    96917070.602 6      1574.358          37.750
G24  24697249.385   129784922.305 7     -3662.407          42.000    24697250.355   129784918.290 4     -3662.407          27.000    24697254.685   101131106.567 6     -2853.815          40.750    24697254.345   101131106.567 4     -2853.809          27.000    24697254.335    96917309.117 7     -2734.907          47.750
G25  20689276.488   108722882.912 8      1371.852          53.500    20689276.358   108722880.913 7      1371.852          45.750    20689278.428    84719129.380 8      1068.962          51.750    20689278.558    84719129.379 7      1068.962          45.750    20689277.128    81189165.586 9      1024.422          57.500
G12  20415011.529   107281607.635 8     -1356.120          52.500    20415011.489   107281607.626 7     -1356.120          45.250    20415010.099    83596060.633 8     -1056.716          50.500    20415010.269    83596059.638 7     -1056.715          45.250
G29  22477444.770   118119769.254 8      2931.717          49.250    22477444.660   118119769.254 6      2931.717          41.500    22477444.400    92041379.841 7      2284.437          47.000    22477444.500    92041379.846 6      2284.431          41.500
> 2015 09 03 07 46 46.0000000  0  8       0.000053642412
G02  20790061.322   109252508.416 8      -110.962          51.000    20790060.702   109252508.411 7      -110.962          45.000                                                                    20790057.942    85131826.413 7       -86.469          45.000
G05  24356114.618   127992247.075 7      3498.986          43.250    24356114.438   127992244.074 4      3498.986          29.750    24356116.548    99734218.834 6      2726.436          40.250    24356116.798    99734216.847 4      2726.488          29.750
G06  22059767.963   115924862.987 8     -2433.065          50.250    22059768.433   115924861.984 7     -2433.065          43.250    22059771.423    90331063.247 8     -1895.886          51.500    22059771.373    90331063.245 7     -1895.879          43.250    22059770.533    86567268.396 9     -1816.898          56.250
G31  23667753.093   124374883.830 7      2019.626          46.000    23667753.293   124374883.824 6      2019.626          37.500    23667753.833    96915496.578 7      1573.733          46.250    23667753.463    96915496.570 6      1573.736          37.500
G24  24697946.978   129788584.872 7     -3662.587          42.250    24697947.288   129788580.861 4     -3662.587          27.750    24697951.578   101133960.507 6     -2853.991          40.750    24697951.368   101133960.485 4     -2853.960          27.750    24697951.298    96920044.139 7     -2735.063          47.750
G25  20689015.606   108721511.578 8      1371.014          53.500    20689015.436   108721509.578 7      1371.014          45.750    20689017.576    84718060.808 8      1068.341          51.750    20689017.606    84718060.808 7      1068.329          45.750    20689016.176    81188141.538 9      1023.828          57.500
G12  20415269.641   107282964.248 8     -1356.974          52.500    20415269.771   107282964.237 7     -1356.974          45.250    20415268.331    83597117.729 8     -1057.382          50.500    20415268.351    83597116.735 7     -1057.390          45.250
G29  22476886.931   118116837.885 8      2931.220          49.250    22476886.831   118116837.878 6      2931.220          41.500    22476886.821    92039095.655 7      2284.094          47.000    22476886.801    92039095.667 6      2284.067          41.500
> 2015 09 03 07 46 47.0000000  0  8       0.000053618303
G02  20790082.469   109252619.525 8      -111.544          51.250    20790081.769   109252619.512 7      -111.544          44.750                                                                    20790078.909    85131912.990 7       -86.906          44.750
G05  24355448.404   127988748.074 7      3498.802          43.250    24355448.734   127988745.073 4      3498.802          29.750    24355451.244    99731492.350 6      2726.347          40.500    24355451.054    99731490.359 4      2726.323          29.750
G06  22060231.041   115927296.163 8     -2433.557          50.250    22060231.251   115927295.162 7     -2433.557          43.250    22060234.511    90332959.227 8     -1896.269          51.500    22060234.551    90332959.228 7     -1896.272          43.250    22060233.621    86569085.376 9     -1817.263          56.250
G31  23667368.655   124372864.334 7      2019.145          46.000    23667368.935   124372864.329 6      2019.145          37.750    23667369.445    96913922.949 7      1573.338          46.000    23667369.495    96913922.940 6      1573.359          37.750
G24  24698643.987   129792247.471 7     -3662.704          42.250    24698643.857   129792243.457 4     -3662.704          27.250    24698648.077   101136814.485 6     -2854.098          40.750    24698648.277   101136814.476 4     -2854.105          27.250    24698648.467    96922779.197 7     -2735.179          47.750
G25  20688754.945   108720140.789 8      1370.375          53.750    20688754.575   108720138.786 7      1370.375          45.500    20688756.545    84716992.657 8      1067.830          51.750    20688756.645    84716992.655 7      1067.837          45.500    20688755.325    81187117.896 9      1023.332          57.500
G12  20415527.759   107284321.393 8     -1357.558          52.250    20415527.809   107284321.383 7     -1357.558          45.250    20415526.609    83598175.246 8     -1057.840          50.500    20415526.519    83598174.253 7     -1057.853          45.250
G29  22476329.035   118113906.725 8      2930.953          49.250    22476329.135   118113906.718 6      2930.953          41.500    22476329.075    92036811.639 7      2283.861          47.000    22476328.935    92036811.639 6      2283.873          41.500
> 2015 09 03 07 46 48.0000000  0  8       0.000053594221
G02  20790103.764   109252731.205 8      -112.053          51.000    20790103.174   109252731.197 7      -112.053          44.750                                                                    20790100.204    85132000.016 7       -87.279          44.750
G05  24354782.550   127985249.243 7      3498.658          43.250    24354783.170   127985246.244 4      3498.658          29.750    24354785.870    99728765.993 6      2726.246          40.500    24354785.090    99728764.003 4      2726.245          29.750
G06  22060694.184   115929729.816 8     -2433.952          50.250    22060694.664   115929728.810 7     -2433.952          43.250    22060697.514    90334855.577 8     -1896.600          51.500    22060697.514    90334855.576 7     -1896.586          43.250    22060696.664    86570902.711 9     -1817.568          56.000
G31  23666985.040   124370845.415 7      2018.603          46.500    23666984.940   124370845.404 6      2018.603          37.500    23666985.360    96912349.763 7      1572.953          46.000    23666985.190    96912349.762 6      1572.920          37.500
G24  24699340.374   129795910.132 7     -3662.709          42.000    24699341.394   129795906.117 4     -3662.709          27.500    24699345.634   101139668.493 6     -2854.004          40.750    24699345.334   101139668.491 4     -2854.020          27.500    24699345.364    96925514.288 7     -2735.085          47.750
G25  20688494.108   108718770.564 8      1369.890          53.750    20688493.778   108718768.565 7      1369.890          45.500    20688495.858    84715924.951 8      1067.435          51.750    20688495.958    84715924.952 7      1067.422          45.500    20688494.568    81186094.676 9      1022.960          57.500
G12  20415786.330   107285679.132 8     -1358.139          52.250    20415786.290   107285679.123 7     -1358.139          45.250    20415784.760    83599233.227 8     -1058.318          50.250    20415785.020    83599232.233 7     -1058.328          45.250
G29  22475771.139   118110975.825 8      2930.779          49.250    22475771.299   118110975.820 6      2930.779          41.500    22475771.269    92034527.824 7      2283.674          47.000    22475771.129    92034527.826 6      2283.687          41.500
> 2015 09 03 07 46 49.0000000  0  8       0.000053570208
G02  20790124.998   109252843.542 8      -112.745          50.750    20790124.538   109252843.537 7      -112.745          44.750                                                                    20790121.558    85132087.556 7       -87.834          44.750
G05  24354116.858   127981750.643 7      3498.407          43.500    24354116.598   127981747.630 4      3498.407          29.750    24354120.638    99726039.817 6      2726.085          41.000    24354119.818    99726037.819 4      2726.074          29.750
G06  22061157.588   115932164.010 8     -2434.489          50.500    22061157.808   115932163.001 7     -2434.489          43.250    22061160.738    90336752.350 8     -1897.000          51.500    22061160.748    90336752.355 7     -1897.009          43.250    22061159.868    86572720.453 9     -1817.966          56.000
G31  23666600.559   124368827.128 7      2017.950          46.500    23666600.869   124368827.127 6      2017.950          37.750    23666601.379    96910777.073 7      1572.477          46.000    23666601.229    96910777.078 6      1572.436          37.750
G24  24700037.326   129799572.954 6     -3662.907          41.750    24700037.826   129799568.950 4     -3662.907          27.500    24700042.946   101142522.638 6     -2854.187          40.750    24700042.886   101142522.632 4     -2854.167          27.500    24700042.286    96928249.510 7     -2735.254          47.750
G25  20688233.618   108717400.996 8      1369.236          53.750    20688233.118   108717398.992 7      1369.236          45.500    20688235.318    84714857.754 8      1066.965          51.750    20688235.238    84714857.750 7      1066.974          45.500    20688233.928    81185071.945 9      1022.504          57.500
G12  20416044.844   107287037.518 8     -1358.747          52.250    20416044.794   107287037.507 7     -1358.747          45.250    20416043.374    83600291.706 8     -1058.771          50.250    20416043.304    83600290.712 7     -1058.782          45.250
G29  22475213.597   118108045.254 8      2930.386          49.000    22475213.627   118108045.252 6      2930.386          41.500    22475213.727    92032244.262 7      2283.443          47.000    22475213.517    92032244.272 6      2283.429          41.500
> 2015 09 03 07 46 50.0000000  0  8       0.000053546279
G02  20790146.640   109252956.531 8      -113.224          50.750    20790146.000   109252956.526 7      -113.224          45.000                                                                    20790143.200    85132175.594 7       -88.273          45.000
G05  24353450.980   127978252.297 7      3498.229          43.000    24353451.310   127978249.292 4      3498.229          29.750    24353454.970    99723313.848 6      2725.837          41.250    24353454.000    99723311.853 4      2725.850          29.750
G06  22061620.753   115934598.763 8     -2434.979          50.500    22061620.983   115934597.757 7     -2434.979          43.250    22061623.963    90338649.561 8     -1897.395          51.500    22061624.063    90338649.559 7     -1897.383          43.250    22061623.223    86574538.612 9     -1818.338          56.250
G31  23666216.864   124366809.500 7      2017.361          46.750    23666217.204   124366809.496 6      2017.361          37.750    23666217.334    96909204.903 7      1571.970          46.000    23666217.354    96909204.895 6      1571.988          37.750
G24  24700734.245   129803235.942 6     -3663.165          41.750    24700734.475   129803231.932 4     -3663.165          27.750    24700739.625   101145376.908 6     -2854.357          40.750    24700739.745   101145376.900 4     -2854.370          27.750    24700739.185    96930984.856 7     -2735.448          47.750
G25  20687973.005   108716032.093 8      1368.622          53.750    20687972.625   108716030.088 7      1368.622          45.500    20687974.665    84713791.082 8      1066.425          51.750    20687974.945    84713791.076 7      1066.443          45.500    20687973.445    81184049.715 9      1022.000          57.500
G12  20416303.556   107288396.575 8     -1359.336          52.250    20416303.326   107288396.564 7     -1359.336          45.250    20416302.176    83601350.713 8     -1059.254          50.250    20416302.096    83601349.716 7     -1059.234          45.250
G29  22474655.977   118105115.026 8      2930.133          49.250    22474656.107   118105115.021 6      2930.133          41.500    22474656.047    92029960.967 7      2283.195          47.000    22474655.897    92029960.973 6      2283.180          41.500
> 2015 09 03 07 46 51.0000000  0  8       0.000053522423
G02  20790167.943   109253070.206 8      -113.944          50.750    20790167.623   109253070.205 7      -113.944          44.750                                                                    20790164.753    85132264.179 7       -88.761          44.750
G05  24352785.093   127974754.189 7      3498.191          43.000    24352785.733   127974751.188 4      3498.191          29.750    24352788.953    99720588.053 6      2725.864          41.000    24352788.723    99720586.059 4      2725.831          29.750
G06  22062084.112   115937034.094 8     -2435.527          50.750    22062084.502   115937033.086 7     -2435.527          43.250    22062087.372    90340547.220 8     -1897.782          51.750    22062087.542    90340547.218 7     -1897.772          43.250    22062086.602    86576357.201 9     -1818.707          56.250
G31  23665833.331   124364792.554 7      2016.759          47.000    23665833.131   124364792.546 6      2016.759          37.750    23665833.561    96907633.254 7      1571.498          46.000    23665833.271    96907633.244 6      1571.513          37.750
G24  24701431.736   129806899.086 6     -3663.212          41.750    24701431.826   129806895.067 4     -3663.212          27.750    24701436.866   101148231.301 6     -2854.413          41.000    24701437.076   101148231.289 4     -2854.393          27.750    24701436.426    96933720.310 7     -2735.475          47.750
G25  20687712.618   108714663.856 8      1368.092          53.750    20687712.248   108714661.853 7      1368.092          45.500    20687714.368    84712724.919 8      1066.069          51.750    20687714.448    84712724.915 7      1066.069          45.500    20687713.128    81183027.978 9      1021.648          57.500
G12  20416562.061   107289756.332 8     -1359.983          52.250    20416562.081   107289756.324 7     -1359.983          45.250    20416560.611    83602410.260 8     -1059.739          50.250    20416560.781    83602409.262 7     -1059.736          45.250
G29  22474098.345   118102185.156 8      2929.804          49.250    22474098.475   118102185.151 6      2929.804          41.500    22474098.095    92027677.955 7      2282.994          46.750    22474098.185    92027677.961 6      2283.007          41.500
> 2015 09 03 07 46 52.0000000  0  8       0.000053498598
G02  20790189.837   109253184.452 8      -114.459          50.750    20790189.367   109253184.450 7      -114.459          44.750                                                                    20790186.457    85132353.201 7       -89.202          44.750
G05  24352119.976   127971256.247 7      3498.056          43.000    24352119.856   127971253.245 5      3498.056          30.000    24352122.916    99717862.394 6      2725.750          40.750    24352122.916    99717860.396 5      2725.773          30.000
G06  22062547.609   115939469.885 8     -2435.947          50.500    22062548.049   115939468.880 7     -2435.947          43.250    22062550.949    90342445.238 8     -1898.162          51.500    22062550.919    90342445.238 7     -1898.182          43.250    22062550.089    86578176.136 9     -1819.079          56.250
G31  23665449.440   124362776.151 7      2016.251          47.250    23665449.740   124362776.145 6      2016.251          37.750    23665449.510    96906062.030 7      1571.082          45.750    23665449.640    96906062.027 6      1571.081          37.750
G24  24702129.338   129810562.265 7     -3663.114          42.000    24702128.958   129810558.257 4     -3663.114          27.750    24702133.998   101151085.714 6     -2854.337          41.000    24702134.488   101151085.705 4     -2854.365          27.750    24702133.338    96936455.795 7     -2735.413          47.750
G25  20687452.287   108713296.205 8      1367.485          53.750    20687452.037   108713294.203 7      1367.485          45.750    20687454.257    84711659.218 8      1065.570          51.750    20687454.207    84711659.213 7      1065.570          45.750    20687452.847    81182006.682 9      1021.164          57.500
G12  20416820.707   107291116.655 8     -1360.540          52.250    20416821.017   107291116.644 7     -1360.540          45.250    20416819.527    83603470.252 8     -1060.161          50.250    20416819.667    83603469.258 7     -1060.166          45.250
G29  22473540.848   118099255.532 8      2929.615          49.000    22473540.828   118099255.526 6      2929.615          41.500    22473540.768    92025395.133 7      2282.856          47.000    22473540.738    92025395.136 6      2282.871          41.500
> 2015 09 03 07 46 53.0000000  0  8       0.000053474809
G02  20790211.908   109253299.312 8      -115.151          50.750    20790211.218   109253299.306 7      -115.151          44.750                                                                    20790208.278    85132442.705 7       -89.745          44.750
G05  24351454.470   127967758.519 7      3497.697          42.500    24351454.430   127967755.511 4      3497.697          29.500    24351457.010    99715136.898 6      2725.493          40.750    24351457.160    99715134.914 4      2725.409          29.500
G06  22063011.427   115941906.195 8     -2436.607          50.250    22063011.617   115941905.193 7     -2436.607          43.250    22063014.517    90344343.667 8     -1898.690          51.750    22063014.577    90344343.661 7     -1898.676          43.250    22063013.757    86579995.458 9     -1819.576          56.000
G31  23665065.685   124360760.354 7      2015.578          47.000    23665065.805   124360760.345 6      2015.578          37.500    23665066.065    96904491.283 7      1570.535          45.750    23665066.165    96904491.274 6      1570.557          37.500
G24  24702826.193   129814225.534 7     -3663.223          42.000    24702826.173   129814221.523 4     -3663.223          27.750    24702831.423   101153940.206 6     -2854.472          41.250    24702831.453   101153940.192 4     -2854.444          27.750    24702830.443    96939191.348 7     -2735.530          47.750
G25  20687192.217   108711929.166 8      1366.793          53.750    20687191.877   108711927.157 7      1366.793          45.500    20687193.937    84710593.992 8      1065.029          51.750    20687194.077    84710593.985 7      1065.051          45.500    20687192.687    81180985.841 9      1020.650          57.500
G12  20417079.707   107292477.606 8     -1361.200          52.000    20417080.027   107292477.588 7     -1361.200          45.250    20417078.527    83604530.732 8     -1060.693          50.250    20417078.617    83604529.731 7     -1060.669          45.250
G29  22472983.423   118096326.214 8      2929.227          49.250    22472983.453   118096326.210 6      2929.227          41.250    22472983.383    92023112.548 7      2282.522          47.000    22472983.393    92023112.553 6      2282.517          41.250
> 2015 09 03 07 46 54.0000000  0  8       0.000053451009
G02  20790233.778   109253414.671 8      -115.745          50.750    20790233.118   109253414.666 7      -115.745          44.750                                                                    20790230.268    85132532.590 7       -90.204          44.750
G05  24350788.862   127964260.878 7      3497.389          42.750    24350788.642   127964257.893 5      3497.389          30.000    24350790.912    99712411.476 6      2725.230          40.500    24350791.692    99712409.494 5      2725.173          30.000
G06  22063475.140   115944342.898 8     -2437.051          50.250    22063475.260   115944341.892 7     -2437.051          43.250    22063478.510    90346242.390 8     -1899.035          51.750    22063478.310    90346242.386 7     -1899.032          43.250    22063477.420    86581815.070 9     -1819.913          56.250
G31  23664682.559   124358745.050 7      2015.042          47.000    23664682.489   124358745.042 6      2015.042          37.750    23664682.559    96902920.913 7      1570.146          45.750    23664682.629    96902920.905 6      1570.145          37.750
G24  24703523.532   129817888.806 7     -3663.483          42.500    24703523.782   129817884.794 4     -3663.483          28.000    24703528.412   101156794.699 6     -2854.649          41.250    24703528.492   101156794.693 4     -2854.688          28.000    24703527.592    96941926.908 7     -2735.731          47.750
G25  20686932.204   108710562.635 8      1366.170          53.750    20686931.824   108710560.630 7      1366.170          45.500    20686934.054    84709529.164 8      1064.535          51.750    20686933.984    84709529.164 7      1064.532          45.500    20686932.654    81179965.380 9      1020.176          57.750
G12  20417339.012   107293839.072 8     -1361.823          52.000    20417338.952   107293839.061 7     -1361.823          45.000    20417337.582    83605591.611 8     -1061.174          50.250    20417337.692    83605590.621 7     -1061.198          45.000
G29  22472425.917   118093397.080 8      2928.910          49.250    22472426.107   118093397.069 6      2928.910          41.250    22472425.857    92020830.107 7      2282.261          46.750    22472425.727    92020830.113 6      2282.262          41.250
> 2015 09 03 07 46 55.0000000  0  8       0.000053427275
G02  20790256.118   109253530.707 8      -116.104          50.500    20790255.168   109253530.702 7      -116.104          45.000                                                                    20790252.408    85132623.009 7       -90.465          45.000
G05  24350123.364   127960763.474 7      3497.508          42.750    24350123.004   127960760.475 5      3497.508          30.250    24350125.784    99709686.234 6      2725.353          40.750    24350126.064    99709684.237 5      2725.348          30.250
G06  22063938.607   115946780.166 8     -2437.257          50.250    22063939.017   115946779.158 7     -2437.257          43.250    22063942.287    90348141.556 8     -1899.170          51.750    22063942.107    90348141.550 7     -1899.152          43.250    22063941.247    86583635.105 9     -1820.047          56.250
G31  23664298.714   124356730.423 7      2014.642          47.000    23664299.284   124356730.412 6      2014.642          37.750    23664299.394    96901351.076 7      1569.822          45.750    23664299.194    96901351.073 6      1569.853          37.750
G24  24704220.606   129821552.224 7     -3663.233          42.750    24704220.976   129821548.208 4     -3663.233          27.750    24704225.416   101159649.299 6     -2854.416          41.000    24704225.666   101159649.300 4     -2854.429          27.750    24704224.726    96944662.571 7     -2735.513          47.750
G25  20686672.236   108709196.774 8      1365.809          53.750    20686672.056   108709194.771 7      1365.809          45.500    20686674.136    84708464.857 8      1064.278          51.750    20686674.096    84708464.854 7      1064.275          45.500    20686672.716    81178945.420 9      1019.938          57.750
G12  20417598.306   107295201.220 8     -1362.199          52.000    20417598.266   107295201.203 7     -1362.199          45.000    20417596.876    83606653.026 8     -1061.431          50.250    20417596.816    83606652.033 7     -1061.430          45.000
G29  22471868.663   118090468.301 8      2928.878          49.250    22471868.633   118090468.296 6      2928.878          41.250    22471868.423    92018547.947 7      2282.260          46.500    22471868.503    92018547.950 6      2282.271          41.250
> 2015 09 03 07 46 56.0000000  0  8       0.000053403582
G02  20790277.952   109253647.335 8      -117.281          50.500    20790277.402   109253647.328 7      -117.281          45.000                                                                    20790274.532    85132713.888 7       -91.395          45.000
G05  24349457.894   127957266.262 7      3496.790          43.000    24349457.474   127957263.271 5      3496.790          30.000    24349460.744    99706961.140 6      2724.762          41.000    24349460.364    99706959.154 5      2724.699          30.000
G06  22064402.680   115949217.930 8     -2438.369          50.250    22064403.200   115949216.927 7     -2438.369          43.250    22064406.100    90350041.111 8     -1899.995          51.750    22064406.060    90350041.111 7     -1900.005          43.250    22064405.140    86585455.512 9     -1820.838          56.250
G31  23663915.612   124354716.377 7      2013.382          47.000    23663915.652   124354716.365 6      2013.382          37.500    23663915.952    96899781.689 7      1568.894          46.000    23663915.922    96899781.685 6      1568.875          37.500
G24  24704917.827   129825215.696 7     -3663.811          42.500    24704918.087   129825211.678 4     -3663.811          28.000    24704922.727   101162503.963 6     -2854.891          41.250    24704923.287   101162503.948 4     -2854.887          28.000    24704921.867    96947398.280 8     -2735.927          48.000
G25  20686412.670   108707831.515 9      1364.631          54.000    20686412.110   108707829.514 7      1364.631          45.750    20686414.320    84707401.020 8      1063.337          51.750    20686414.230    84707401.021 7      1063.335          45.750    20686412.920    81177925.910 9      1019.037          57.750
G12  20417857.527   107296563.973 8     -1363.399          52.000    20417857.517   107296563.963 7     -1363.399          45.000    20417856.287    83607714.914 8     -1062.388          50.250    20417856.267    83607713.918 7     -1062.396          45.000
G29  22471311.388   118087539.804 8      2928.021          49.500    22471311.458   118087539.798 6      2928.021          41.000    22471311.028    92016266.005 7      2281.529          46.750    22471311.348    92016266.009 6      2281.509          41.000
> 2015 09 03 07 46 57.0000000  0  8       0.000053380037
G02  20790300.242   109253764.745 8      -117.661          50.500    20790299.742   109253764.737 7      -117.661          44.750                                                                    20790296.972    85132805.377 7       -91.690          44.750
G05  24348791.899   127953769.427 7      3496.730          43.000    24348792.479   127953766.422 5      3496.730          30.250    24348794.799    99704236.345 6      2724.728          41.000    24348795.339    99704234.346 5      2724.730          30.250
G06  22064866.492   115951656.376 8     -2438.667          50.000    22064867.012   115951655.365 7     -2438.667          43.250    22064870.112    90351941.199 8     -1900.265          51.750    22064869.902    90351941.198 7     -1900.269          43.250    22064869.122    86587276.428 9     -1821.089          56.250
G31  23663532.561   124352703.110 7      2013.029          47.250    23663532.601   124352703.094 6      2013.029          37.500    23663532.771    96898212.907 7      1568.625          46.000    23663532.731    96898212.904 6      1568.617          37.500
G24  24705614.557   129828879.481 7     -3663.799          42.500    24705614.697   129828875.463 4     -3663.799          27.750    24705619.527   101165358.848 6     -2854.906          41.000    24705619.497   101165358.854 4     -2854.937          27.750    24705619.157    96950134.217 7     -2735.950          47.750
G25  20686153.052   108706467.048 9      1364.160          54.000    20686152.422   108706465.040 7      1364.160          45.750    20686154.552    84706337.794 8      1063.003          51.750    20686154.752    84706337.795 7      1062.992          45.750    20686153.302    81176906.987 9      1018.706          57.750
G12  20418117.157   107297927.530 8     -1363.847          52.000    20418117.057   107297927.522 7     -1363.847          45.000    20418115.797    83608777.426 8     -1062.739          50.250    20418115.697    83608776.432 7     -1062.744          45.000
G29  22470754.275   118084611.773 8      2927.896          49.250    22470754.345   118084611.762 6      2927.896          41.000    22470754.045    92013984.419 7      2281.519          46.750    22470754.065    92013984.423 6      2281.497          41.000
> 2015 09 03 07 46 58.0000000  0  8       0.000053356580
G02  20790322.783   109253882.844 8      -118.443          50.500    20790322.153   109253882.835 7      -118.443          44.750                                                                    20790319.373    85132897.402 7       -92.292          44.750
G05  24348126.714   127950272.855 7      3496.472          43.250    24348126.894   127950269.860 5      3496.472          30.000    24348129.634    99701511.754 6      2724.487          40.750    24348129.884    99701509.748 5      2724.493          30.000
G06  22065331.026   115954095.413 8     -2439.347          50.250    22065331.146   115954094.401 7     -2439.347          43.250    22065334.246    90353841.743 8     -1900.805          51.750    22065334.196    90353841.745 7     -1900.815          43.250    22065333.246    86589097.784 9     -1821.606          56.250
G31  23663149.370   124350690.528 7      2012.258          47.000    23663149.880   124350690.520 6      2012.258          37.750    23663149.920    96896644.665 7      1567.976          46.000    23663149.890    96896644.666 6      1567.979          37.750
G24  24706311.967   129832543.458 7     -3664.238          42.500    24706311.787   129832539.433 4     -3664.238          27.750    24706317.317   101168213.889 6     -2855.257          41.000    24706316.477   101168213.880 4     -2855.267          27.750    24706316.417    96952870.294 7     -2736.270          47.750
G25  20685893.306   108705103.262 9      1363.437          54.000    20685892.916   108705101.252 7      1363.437          45.750    20685895.256    84705275.107 8      1062.401          51.750    20685895.166    84705275.104 7      1062.417          45.750    20685893.766    81175888.578 9      1018.141          57.500
G12  20418376.627   107299291.778 8     -1364.588          52.000    20418376.667   107299291.770 7     -1364.588          45.000    20418375.457    83609840.476 8     -1063.337          50.250    20418375.287    83609839.481 7     -1063.346          45.000
G29  22470197.143   118081684.117 8      2927.468          49.250    22470197.133   118081684.109 6      2927.468          41.000    22470197.093    92011703.131 7      2281.188          46.750    22470197.153    92011703.135 6      2281.156          41.000
> 2015 09 03 07 46 59.0000000  0  8       0.000053333237
G02  20790345.336   109254001.670 8      -118.983          50.250    20790344.736   109254001.662 7      -118.983          45.000                                                                    20790341.996    85132989.993 7       -92.743          45.000
G05  24347461.747   127946776.606 7      3496.263          43.500    24347461.987   127946773.602 5      3496.263          30.250    24347463.677    99698787.404 6      2724.417          40.500    24347464.667    99698785.417 5      2724.357          30.250
G06  22065795.333   115956535.057 8     -2439.830          50.250    22065795.403   115956534.043 7     -2439.830          43.250    22065798.693    90355742.764 8     -1901.131          51.750    22065798.433    90355742.764 7     -1901.133          43.250    22065797.523    86590919.595 9     -1821.919          56.250
G31  23662766.529   124348678.648 7      2011.762          46.750    23662766.959   124348678.638 6      2011.762          37.500    23662767.229    96895076.970 7      1567.600          46.000    23662766.659    96895076.963 6      1567.621          37.500
G24  24707009.039   129836207.583 7     -3664.025          42.250    24707009.289   129836203.571 4     -3664.025          27.500    24707014.279   101171069.058 6     -2855.088          41.000    24707013.949   101171069.043 4     -2855.087          27.500    24707013.749    96955606.494 7     -2736.111          47.750
G25  20685633.872   108703740.207 9      1362.858          54.000    20685633.682   108703738.206 7      1362.858          45.750    20685635.962    84704212.989 8      1061.972          51.750    20685635.812    84704212.988 7      1061.969          45.750    20685634.382    81174870.712 9      1017.723          57.750
G12  20418636.331   107300656.756 8     -1365.158          52.000    20418636.421   107300656.746 7     -1365.158          45.000    20418635.261    83610904.098 8     -1063.773          50.250    20418634.931    83610903.099 7     -1063.752          45.000
G29  22469640.081   118078756.870 8      2927.228          49.250    22469640.081   118078756.868 6      2927.228          41.000    22469640.131    92009422.165 7      2280.964          46.500    22469639.991    92009422.166 6      2280.958          41.000
> 2015 09 03 07 47  0.0000000  0  8       0.000053309969
G02  20790368.217   109254121.143 8      -119.996          50.500    20790367.547   109254121.137 7      -119.996          44.750                                                                    20790364.717    85133083.092 7       -93.532          44.750
G05  24346796.645   127943280.590 7      3495.772          43.500    24346796.505   127943277.604 5      3495.772          30.000    24346799.435    99696063.240 6      2723.981          40.750    24346799.615    99696061.244 5      2723.943          30.000
G06  22066259.435   115958975.257 8     -2440.678          50.250    22066259.725   115958974.249 7     -2440.678          43.250    22066262.865    90357644.218 8     -1901.837          51.750    22066262.745    90357644.213 7     -1901.813          43.250    22066261.845    86592741.823 9     -1822.590          56.250
G31  23662383.754   124346667.422 7      2010.718          47.000    23662383.864   124346667.410 6      2010.718          37.500    23662384.384    96893509.784 7      1566.806          46.250    23662384.324    96893509.780 6      1566.835          37.500
G24  24707706.293   129839871.900 7     -3664.622          42.000    24707707.183   129839867.889 4     -3664.622          27.000    24707711.143   101173924.358 6     -2855.489          40.750    24707710.953   101173924.346 4     -2855.507          27.000    24707711.123    96958342.828 7     -2736.538          47.750
G25  20685374.650   108702377.805 9      1361.899          54.000    20685374.290   108702375.803 7      1361.899          45.750    20685376.690    84703151.379 8      1061.226          51.750    20685376.520    84703151.377 7      1061.225          45.750    20685375.120    81173853.334 9      1017.013          57.500
G12  20418895.984   107302022.410 8     -1366.208          52.000    20418896.304   107302022.399 7     -1366.208          45.000    20418894.894    83611968.238 8     -1064.575          50.250    20418894.894    83611967.243 7     -1064.584          45.000
G29  22469083.150   118075829.965 8      2926.565          49.250    22469083.110   118075829.961 6      2926.565          41.000    22469082.740    92007141.458 7      2280.414          46.500    22469082.840    92007141.464 6      2280.421          41.000
> 2015 09 03 07 47  1.0000000  0  8       0.000053286876
G02  20790391.184   109254241.444 8      -120.499          50.500    20790390.454   109254241.437 7      -120.499          44.750                                                                    20790387.744    85133176.831 7       -93.880          44.750
G05  24346130.905   127939784.992 7      3495.644          43.500    24346131.415   127939782.002 5      3495.644          30.500    24346134.285    99693339.413 6      2723.861          40.500    24346134.175    99693337.416 5      2723.829          30.500
G06  22066724.024   115961416.181 8     -2441.073          50.250    22066724.184   115961415.175 7     -2441.073          43.250    22066727.314    90359546.239 8     -1902.154          51.750    22066727.324    90359546.236 7     -1902.165          43.250    22066726.394    86594564.591 9     -1822.898          56.250
G31  23662001.341   124344657.017 7      2010.270          47.000    23662001.481   124344657.005 6      2010.270          37.500    23662001.921    96891943.235 7      1566.438          46.250    23662001.921    96891943.228 6      1566.475          37.500
G24  24708403.520   129843536.508 7     -3664.432          42.000    24708404.020   129843532.498 4     -3664.432          27.500    24708408.930   101176779.890 6     -2855.389          41.000    24708408.670   101176779.875 4     -2855.393          27.500    24708408.650    96961079.375 8     -2736.397          48.000
G25  20685115.480   108701016.240 9      1361.418          54.000    20685115.290   108701014.235 7      1361.418          45.500    20685117.480    84702090.418 8      1060.858          51.750    20685117.350    84702090.415 7      1060.872          45.500    20685115.990    81172836.581 9      1016.668          57.500
G12  20419156.114   107303388.891 8     -1366.628          52.000    20419156.274   107303388.881 7     -1366.628          45.000    20419155.094    83613033.028 8     -1064.900          50.250    20419155.014    83613032.034 7     -1064.905          45.000
G29  22468526.301   118072903.569 8      2926.413          49.500    22468526.371   118072903.556 6      2926.413          41.000    22468526.431    92004861.150 7      2280.329          46.500    22468526.201    92004861.148 6      2280.339          41.000
> 2015 09 03 07 47  2.0000000  0  8       0.000053263649
G02  20790413.953   109254362.038 8      -120.891          50.500    20790413.503   109254362.039 7      -120.891          44.750                                                                    20790410.613    85133270.803 7       -94.215          44.750
G05  24345466.418   127936289.282 7      3495.672          43.500    24345466.558   127936286.284 5      3495.672          30.750    24345468.598    99690615.486 6      2723.871          40.750    24345468.878    99690613.497 5      2723.875          30.750
G06  22067188.447   115963857.285 8     -2441.337          50.250    22067188.677   115963856.282 7     -2441.337          43.250    22067191.807    90361448.394 8     -1902.307          51.750    22067191.787    90361448.395 7     -1902.307          43.250    22067190.917    86596387.491 9     -1823.045          56.250
G31  23661618.758   124342646.893 7      2009.856          47.000    23661618.658   124342646.885 6      2009.856          37.500    23661619.478    96890376.908 7      1566.135          46.000    23661619.158    96890376.904 6      1566.109          37.500
G24  24709100.691   129847200.888 6     -3664.241          41.750    24709101.141   129847196.877 4     -3664.241          27.500    24709105.651   101179635.251 6     -2855.278          41.000    24709106.181   101179635.238 4     -2855.280          27.500    24709105.881    96963815.759 8     -2736.283          48.000
G25  20684856.540   108699654.974 9      1361.041          54.000    20684856.200   108699652.974 7      1361.041          45.750    20684858.580    84701029.691 8      1060.536          51.750    20684858.360    84701029.690 7      1060.542          45.750    20684856.970    81171820.053 9      1016.347          57.500
G12  20419416.343   107304755.678 8     -1367.067          52.000    20419416.403   107304755.669 7     -1367.067          45.000    20419415.323    83614098.058 8     -1065.259          50.250    20419415.113    83614097.060 7     -1065.240          45.000
G29  22467969.625   118069977.147 8      2926.337          49.500    22467969.345   118069977.132 6      2926.337          41.000    22467969.165    92002580.821 7      2280.270          46.500    22467969.235    92002580.837 6      2280.252          41.000
> 2015 09 03 07 47  3.0000000  0  8       0.000053240455
G02  20790437.181   109254483.238 8      -121.639          50.500    20790436.601   109254483.230 7      -121.639          44.750                                                                    20790433.631    85133365.243 7       -94.782          44.750
G05  24344800.840   127932793.771 7      3495.257          43.500    24344801.370   127932790.779 5      3495.257          30.500    24344803.510    99687891.716 6      2723.571          40.750    24344804.210    99687889.716 5      2723.585          30.500
G06  22067653.045   115966298.916 8     -2441.993          50.000    22067653.395   115966297.913 7     -2441.993          43.250    22067656.625    90363350.964 8     -1902.877          51.750    22067656.445    90363350.961 7     -1902.862          43.250    22067655.565    86598210.787 9     -1823.586          56.000
G31  23661236.532   124340637.368 7      2009.142          47.250    23661236.522   124340637.355 6      2009.142          37.750    23661237.022    96888811.044 7      1565.581          46.000    23661236.642    96888811.041 6      1565.560          37.750
G24  24709798.122   129850865.376 7     -3664.573          42.000    24709798.182   129850861.346 4     -3664.573          27.250    24709803.252   101182490.688 6     -2855.440          41.000    24709803.292   101182490.675 4     -2855.417          27.250    24709803.262    96966552.222 8     -2736.469          48.000
G25  20684597.465   108698294.318 9      1360.297          54.000    20684597.235   108698292.313 7      1360.297          45.500    20684599.405    84699969.439 8      1059.951          51.750    20684599.525    84699969.439 7      1059.951          45.500    20684598.045    81170803.978 9      1015.781          57.500
G12  20419676.644   107306123.078 8     -1367.786          52.250    20419676.794   107306123.065 7     -1367.786          45.000    20419675.344    83615163.561 8     -1065.799          50.250    20419675.234    83615162.568 7     -1065.802          45.000
G29  22467412.617   118067051.018 8      2925.878          49.750    22467412.537   118067051.009 6      2925.878          41.000    22467412.637    92000300.727 7      2279.893          46.500    22467412.357    92000300.730 6      2279.913          41.000
> 2015 09 03 07 47  4.0000000  0  8       0.000053217384
G02  20790460.283   109254605.190 8      -122.211          50.250    20790459.653   109254605.185 7      -122.211          45.000                                                                    20790456.913    85133460.273 7       -95.226          45.000
G05  24344136.032   127929298.592 7      3495.050          43.500    24344135.812   127929295.604 5      3495.050          30.250    24344138.882    99685168.198 6      2723.472          40.750    24344138.942    99685166.201 5      2723.485          30.250
G06  22068117.636   115968741.189 8     -2442.519          50.000    22068118.276   115968740.185 7     -2442.519          43.250    22068121.376    90365254.030 8     -1903.262          51.750    22068121.286    90365254.031 7     -1903.269          43.250    22068120.216    86600034.561 9     -1823.965          56.000
G31  23660854.434   124338628.591 7      2008.495          47.000    23660854.034   124338628.575 6      2008.495          37.500    23660854.454    96887245.773 7      1565.114          46.000    23660854.454    96887245.769 6      1565.119          37.500
G24  24710495.343   129854530.097 6     -3664.641          41.750    24710495.353   129854526.084 4     -3664.641          27.000    24710501.703   101185346.314 6     -2855.592          41.250    24710500.343   101185346.296 4     -2855.594          27.000    24710500.663    96969288.861 8     -2736.601          48.000
G25  20684338.921   108696934.422 9      1359.642          54.000    20684338.521   108696932.420 7      1359.642          45.750    20684340.701    84698909.781 8      1059.481          51.750    20684340.741    84698909.780 7      1059.470          45.750    20684339.251    81169788.473 9      1015.328          57.500
G12  20419937.065   107307491.253 8     -1368.418          52.250    20419936.965   107307491.241 7     -1368.418          45.000    20419935.655    83616229.674 8     -1066.317          50.250    20419935.635    83616228.683 7     -1066.330          45.000
G29  22466855.860   118064125.327 8      2925.617          49.500    22466855.860   118064125.322 6      2925.617          41.250    22466855.280    91998020.969 7      2279.708          46.500    22466855.700    91998020.969 6      2279.681          41.250
> 2015 09 03 07 47  5.0000000  0  8       0.000053194286
G02  20790483.619   109254727.629 8      -122.765          50.500    20790482.949   109254727.625 7      -122.765          44.750                                                                    20790480.159    85133555.681 7       -95.686          44.750
G05  24343470.634   127925803.479 7      3495.015          43.500    24343470.704   127925800.481 5      3495.015          30.500    24343473.564    99682444.741 6      2723.301          40.750    24343473.604    99682442.756 5      2723.274          30.500
G06  22068582.272   115971183.842 8     -2442.952          50.000    22068583.072   115971182.837 7     -2442.952          43.250    22068585.922    90367157.397 8     -1903.628          51.750    22068585.992    90367157.397 7     -1903.631          43.250    22068585.062    86601858.617 9     -1824.308          56.250
G31  23660471.896   124336620.291 7      2007.990          47.000    23660471.656   124336620.282 6      2007.990          37.500    23660472.396    96885680.864 7      1564.637          45.750    23660472.496    96885680.864 6      1564.625          37.500
G24  24711193.158   129858194.796 7     -3664.902          42.000    24711193.048   129858190.781 4     -3664.902          26.750    24711198.128   101188201.916 6     -2855.757          41.250    24711198.018   101188201.897 4     -2855.699          26.750    24711198.038    96972025.473 8     -2736.722          48.250
G25  20684080.026   108695575.016 8      1359.043          53.750    20684079.726   108695573.013 7      1359.043          45.750    20684081.926    84697850.505 8      1058.963          52.000    20684081.896    84697850.502 7      1058.969          45.750    20684080.566    81168773.332 9      1014.845          57.500
G12  20420197.434   107308859.912 8     -1368.984          52.250    20420197.454   107308859.901 7     -1368.984          45.000    20420196.194    83617296.164 8     -1066.756          50.250    20420196.094    83617295.167 7     -1066.756          45.000
G29  22466299.296   118061199.801 8      2925.396          49.500    22466299.066   118061199.792 6      2925.396          41.000    22466298.846    91995741.337 7      2279.513          46.500    22466298.906    91995741.336 6      2279.523          41.000
> 2015 09 03 07 47  6.0000000  0  8       0.000053171237
G02  20790506.982   109254850.693 8      -123.522          50.250    20790506.372   109254850.687 7      -123.522          44.750                                                                    20790503.602    85133651.572 7       -96.273          44.750
G05  24342806.012   127922308.571 7      3494.717          43.500    24342805.712   127922305.557 5      3494.717          30.000    24342808.352    99679721.442 6      2723.141          40.750    24342808.792    99679719.444 5      2723.145          30.000
G06  22069047.565   115973627.008 8     -2443.546          49.750    22069047.895   115973626.000 7     -2443.546          43.250    22069050.945    90369061.156 8     -1904.068          51.750    22069050.845    90369061.159 7     -1904.070          43.250    22069050.015    86603683.055 9     -1824.726          56.000
G31  23660089.835   124334612.609 7      2007.250          47.250    23660090.225   124334612.598 6      2007.250          37.500    23660090.155    96884116.436 7      1564.088          45.750    23660089.945    96884116.434 6      1564.108          37.500
G24  24711890.484   129861859.567 7     -3664.813          42.000    24711890.014   129861855.532 4     -3664.813          27.250    24711895.304   101191057.562 6     -2855.715          41.250    24711896.194   101191057.552 4     -2855.721          27.250    24711895.444    96974762.143 8     -2736.748          48.250
G25  20683821.482   108694216.222 8      1358.370          53.750    20683821.362   108694214.218 7      1358.370          45.500    20683823.552    84696791.700 8      1058.462          52.000    20683823.372    84696791.704 7      1058.450          45.500    20683821.992    81167758.650 9      1014.357          57.500
G12  20420458.092   107310229.213 8     -1369.741          52.250    20420457.922   107310229.205 7     -1369.741          45.000    20420456.722    83618363.150 8     -1067.348          50.250    20420456.672    83618362.154 7     -1067.340          45.000
G29  22465742.479   118058274.586 8      2924.976          49.500    22465742.639   118058274.576 6      2924.976          41.250    22465741.769    91993461.952 7      2279.210          46.250    22465742.219    91993461.950 6      2279.205          41.250
> 2015 09 03 07 47  7.0000000  0  8       0.000053148107
G02  20790530.632   109254974.166 8      -123.768          50.250    20790529.962   109254974.162 7      -123.768          44.750                                                                    20790527.012    85133747.787 7       -96.437          44.750
G05  24342140.038   127918813.676 7      3494.899          43.250    24342139.898   127918810.669 5      3494.899          30.250    24342142.858    99676998.146 6      2723.239          40.500    24342143.378    99676996.134 5      2723.253          30.250
G06  22069512.522   115976070.489 8     -2443.688          50.000    22069512.942   115976069.478 7     -2443.688          43.500    22069515.922    90370965.165 8     -1904.199          51.750    22069515.792    90370965.168 7     -1904.187          43.500    22069514.972    86605507.730 9     -1824.861          56.250
G31  23659707.917   124332605.339 7      2007.022          47.250    23659707.967   124332605.333 6      2007.022          37.750    23659708.267    96882552.332 7      1563.910          45.750    23659708.197    96882552.323 6      1563.935          37.750
G24  24712588.155   129865524.290 7     -3664.825          42.250    24712587.685   129865520.276 4     -3664.825          27.000    24712592.675   101193913.199 6     -2855.736          41.000    24712593.545   101193913.188 4     -2855.764          27.000    24712592.665    96977498.785 8     -2736.723          48.250
G25  20683563.106   108692857.867 8      1358.057          53.750    20683562.856   108692855.868 7      1358.057          45.500    20683564.866    84695733.244 8      1058.236          52.000    20683564.946    84695733.247 7      1058.227          45.500    20683563.496    81166744.295 9      1014.133          57.500
G12  20420718.648   107311598.936 8     -1369.995          52.250    20420718.738   107311598.928 7     -1369.995          45.000    20420717.328    83619430.469 8     -1067.534          50.250    20420717.328    83619429.471 7     -1067.526          45.000
G29  22465185.839   118055349.473 8      2925.018          49.500    22465186.119   118055349.460 6      2925.018          41.250    22465185.209    91991182.641 7      2279.265          46.250    22465185.469    91991182.643 6      2279.276          41.250
> 2015 09 03 07 47  8.0000000  0  8       0.000053125124
G02  20790554.130   109255098.409 8      -124.654          50.250    20790553.550   109255098.404 7      -124.654          44.750                                                                    20790550.690    85133844.599 7       -97.145          44.750
G05  24341475.332   127915319.129 7      3494.374          43.000    24341475.132   127915316.130 5      3494.374          30.000    24341478.322    99674275.129 6      2722.811          40.500    24341478.192    99674273.129 5      2722.851          30.000
G06  22069977.806   115978514.641 8     -2444.533          49.750    22069978.156   115978513.637 7     -2444.533          43.250    22069981.066    90372869.700 8     -1904.872          51.750    22069980.816    90372869.706 7     -1904.889          43.250    22069980.116    86607332.911 9     -1825.502          56.000
G31  23659326.362   124330598.825 7      2006.129          47.250    23659326.432   124330598.813 6      2006.129          37.500    23659326.522    96880988.812 7      1563.219          45.500    23659326.322    96880988.812 6      1563.232          37.500
G24  24713285.718   129869189.256 7     -3665.150          42.250    24713285.168   129869185.234 4     -3665.150          27.000    24713290.288   101196769.010 6     -2856.022          40.750    24713290.628   101196768.997 4     -2856.018          27.000    24713290.168    96980235.603 8     -2737.016          48.250
G25  20683304.772   108691500.275 9      1357.195          54.000    20683304.362   108691498.274 7      1357.195          45.500    20683306.562    84694675.382 8      1057.537          52.000    20683306.522    84694675.381 7      1057.543          45.500    20683305.162    81165730.508 9      1013.479          57.500
G12  20420979.335   107312969.436 8     -1370.920          52.250    20420979.495   107312969.423 7     -1370.920          45.000    20420978.255    83620498.387 8     -1068.260          50.250    20420978.035    83620497.392 7     -1068.258          45.000
G29  22464629.569   118052424.810 8      2924.428          49.750    22464629.319   118052424.798 6      2924.428          41.250    22464628.969    91988903.682 7      2278.770          46.250    22464629.049    91988903.688 6      2278.769          41.250
> 2015 09 03 07 47  9.0000000  0  8       0.000053102178
G02  20790577.918   109255223.277 8      -125.330          50.250    20790577.298   109255223.271 7      -125.330          44.750                                                                    20790574.448    85133941.902 7       -97.672          44.750
G05  24340810.216   127911824.797 7      3494.061          43.000    24340810.546   127911821.798 4      3494.061          29.750    24340812.706    99671552.277 6      2722.591          40.500    24340812.766    99671550.272 4      2722.639          29.750
G06  22070442.629   115980959.301 8     -2445.044          49.750    22070443.179   115980958.296 7     -2445.044          43.250    22070446.299    90374774.628 8     -1905.280          51.750    22070446.069    90374774.635 7     -1905.291          43.250    22070445.329    86609158.467 9     -1825.893          56.000
G31  23658944.511   124328592.934 7      2005.448          47.250    23658944.401   124328592.924 6      2005.448          37.250    23658944.501    96879425.785 7      1562.683          45.500    23658944.391    96879425.779 6      1562.711          37.250
G24  24713982.616   129872854.320 7     -3665.306          42.250    24713982.796   129872850.306 4     -3665.306          27.250    24713987.546   101199624.906 6     -2856.138          40.750    24713987.976   101199624.893 4     -2856.106          27.250    24713987.646    96982972.496 8     -2737.092          48.000
G25  20683046.531   108690143.313 9      1356.539          54.000    20683046.121   108690141.309 7      1356.539          45.750    20683048.301    84693618.009 8      1057.020          52.000    20683048.351    84693618.010 7      1057.009          45.750    20683046.951    81164717.193 9      1012.976          57.500
G12  20421240.349   107314340.571 8     -1371.609          52.250    20421240.429   107314340.567 7     -1371.609          45.000    20421239.059    83621566.806 8     -1068.813          50.250    20421238.959    83621565.808 7     -1068.810          45.000
G29  22464072.803   118049500.444 8      2924.093          49.750    22464073.053   118049500.431 6      2924.093          41.250    22464072.643    91986624.958 7      2278.546          46.250    22464072.553    91986624.957 6      2278.565          41.250
> 2015 09 03 07 47 10.0000000  0  8       0.000053079198
G02  20790601.872   109255348.619 8      -125.517          50.500    20790601.242   109255348.615 7      -125.517          44.750                                                                    20790598.372    85134039.568 7       -97.834          44.750
G05  24340145.360   127908330.514 7      3494.392          43.000    24340145.280   127908327.520 5      3494.392          30.000    24340148.590    99668829.458 6      2722.872          40.500    24340148.150    99668827.460 5      2722.859          30.000
G06  22070908.179   115983404.338 8     -2445.193          49.750    22070908.539   115983403.329 7     -2445.193          43.250    22070911.489    90376679.846 8     -1905.343          51.750    22070911.349    90376679.847 7     -1905.343          43.250    22070910.629    86610984.301 9     -1825.949          56.000
G31  23658562.941   124326587.512 7      2005.317          47.000    23658562.911   124326587.507 6      2005.317          37.500    23658562.751    96877863.118 7      1562.524          45.500    23658562.861    96877863.112 6      1562.549          37.500
G24  24714680.689   129876519.353 7     -3664.940          42.500    24714680.709   129876515.332 4     -3664.940          27.000    24714684.959   101202480.767 6     -2855.837          40.750    24714685.439   101202480.753 4     -2855.841          27.000    24714684.899    96985709.361 8     -2736.819          48.000
G25  20682788.323   108688786.832 9      1356.320          54.000    20682788.073   108688784.824 7      1356.320          45.500    20682790.423    84692561.008 8      1056.862          52.000    20682790.263    84692561.003 7      1056.881          45.500    20682788.813    81163704.235 9      1012.831          57.500
G12  20421501.427   107315712.183 8     -1371.801          52.250    20421501.337   107315712.173 7     -1371.801          45.000    20421499.997    83622635.595 8     -1068.955          50.250    20421499.997    83622634.598 7     -1068.963          45.000
G29  22463516.745   118046576.248 8      2924.208          49.750    22463516.525   118046576.231 6      2924.208          41.250    22463516.175    91984346.362 7      2278.621          46.250    22463516.045    91984346.362 6      2278.632          41.250
> 2015 09 03 07 47 11.0000000  0  8       0.000053056278
G02  20790625.834   109255474.591 8      -126.300          50.250    20790625.114   109255474.583 7      -126.300          45.000                                                                    20790622.324    85134137.728 7       -98.387          45.000
G05  24339480.249   127904836.465 7      3493.969          42.750    24339480.619   127904833.457 4      3493.969          29.750    24339483.199    99666106.830 6      2722.587          40.500    24339483.439    99666104.842 4      2722.551          29.750
G06  22071373.388   115985849.903 8     -2445.873          49.750    22071373.848   115985848.897 7     -2445.873          43.250    22071376.858    90378585.481 8     -1905.879          51.750    22071376.738    90378585.486 7     -1905.885          43.250    22071375.968    86612810.532 9     -1826.460          56.000
G31  23658181.356   124324582.720 7      2004.494          47.000    23658181.256   124324582.716 6      2004.494          37.500    23658181.236    96876300.942 7      1561.935          45.500    23658181.446    96876300.938 6      1561.977          37.500
G24  24715378.114   129880184.500 7     -3665.222          42.750    24715378.084   129880180.481 4     -3665.222          27.250    24715382.104   101205336.722 6     -2856.009          40.750    24715383.144   101205336.714 4     -2855.970          27.250    24715382.524    96988446.321 8     -2736.982          48.000
G25  20682530.378   108687430.984 9      1355.549          54.000    20682530.008   108687428.978 7      1355.549          45.500    20682532.148    84691504.504 8      1056.287          52.000    20682532.248    84691504.507 7      1056.268          45.500    20682530.808    81162691.752 9      1012.266          57.500
G12  20421762.534   107317084.439 8     -1372.582          52.250    20421762.464   107317084.432 7     -1372.582          45.000    20421761.104    83623704.886 8     -1069.550          50.250    20421761.304    83623703.891 7     -1069.563          45.000
G29  22462960.051   118043652.372 8      2923.770          49.500    22462960.181   118043652.358 6      2923.770          41.500    22462959.641    91982068.020 7      2278.231          46.250    22462959.611    91982068.024 6      2278.235          41.500
> 2015 09 03 07 47 12.0000000  0  8       0.000053033402
G02  20790649.845   109255601.175 8      -126.942          50.500    20790649.285   109255601.164 7      -126.942          45.000                                                                    20790646.385    85134236.367 7       -98.884          45.000
G05  24338815.726   127901342.627 7      3493.632          42.750    24338815.956   127901339.617 5      3493.632          30.000    24338818.736    99663384.355 6      2722.335          40.500    24338818.686    99663382.350 5      2722.323          30.000
G06  22071839.197   115988295.968 8     -2446.369          49.750    22071839.097   115988294.959 7     -2446.369          43.000    22071842.097    90380491.504 8     -1906.267          51.500    22071842.187    90380491.506 7     -1906.265          43.000    22071841.387    86614637.139 9     -1826.840          56.000
G31  23657800.077   124322578.526 7      2003.886          47.000    23657800.177   124322578.518 6      2003.886          37.500    23657799.907    96874739.230 7      1561.479          45.500    23657799.977    96874739.230 6      1561.461          37.500
G24  24716075.404   129883849.717 7     -3665.241          42.500    24716075.864   129883845.717 4     -3665.241          27.500    24716080.634   101208192.737 6     -2856.006          41.000    24716080.074   101208192.720 4     -2855.996          27.500    24716079.754    96991183.331 7     -2736.987          47.750
G25  20682272.542   108686075.751 9      1354.924          54.000    20682272.122   108686073.743 7      1354.924          45.500    20682274.432    84690448.476 8      1055.804          52.000    20682274.302    84690448.479 7      1055.796          45.500    20682272.912    81161679.727 9      1011.810          57.500
G12  20422023.857   107318457.313 8     -1373.225          52.250    20422023.837   107318457.305 7     -1373.225          45.000    20422022.397    83624774.661 8     -1070.041          50.000    20422022.337    83624773.661 7     -1070.031          45.000
G29  22462403.667   118040728.788 8      2923.476          49.250    22462403.877   118040728.771 6      2923.476          41.500    22462403.577    91979789.897 7      2278.023          46.500    22462403.547    91979789.905 6      2278.023          41.500
> 2015 09 03 07 47 13.0000000  0  8       0.000053010567
G02  20790673.858   109255728.380 8      -127.375          50.250    20790673.478   109255728.371 7      -127.375          44.750                                                                    20790670.618    85134335.484 7       -99.189          44.750
G05  24338150.145   127897848.970 7      3493.631          42.000    24338150.175   127897845.965 4      3493.631          29.750    24338154.345    99660662.040 6      2722.398          40.500    24338153.705    99660660.033 4      2722.414          29.750
G06  22072304.541   115990742.544 8     -2446.680          49.500    22072304.801   115990741.536 7     -2446.680          43.000    22072307.801    90382397.923 8     -1906.451          51.500    22072307.891    90382397.929 7     -1906.472          43.000    22072307.021    86616464.127 9     -1827.023          56.000
G31  23657418.957   124320574.951 7      2003.456          46.750    23657418.487   124320574.951 6      2003.456          37.750    23657418.897    96873178.012 7      1561.131          45.750    23657418.917    96873178.008 6      1561.149          37.750
G24  24716773.582   129887515.033 7     -3665.075          42.750    24716772.672   129887511.019 4     -3665.075          27.500    24716777.802   101211048.826 6     -2855.884          40.750    24716777.332   101211048.805 4     -2855.783          27.500    24716777.242    96993920.416 7     -2736.884          47.750
G25  20682014.780   108684721.149 9      1354.494          54.000    20682014.360   108684719.143 7      1354.494          45.750    20682016.510    84689392.942 8      1055.457          52.000    20682016.580    84689392.945 7      1055.448          45.750    20682015.110    81160668.175 9      1011.474          57.750
G12  20422285.153   107319830.820 8     -1373.620          52.250    20422285.123   107319830.811 7     -1373.620          45.000    20422283.583    83625844.923 8     -1070.360          50.250    20422283.813    83625843.925 7     -1070.371          45.000
G29  22461847.525   118037805.513 8      2923.364          49.250    22461847.555   118037805.505 6      2923.364          41.500    22461847.135    91977512.026 7      2277.917          46.500    22461847.065    91977512.035 6      2277.923          41.500
> 2015 09 03 07 47 14.0000000  0  8       0.000052987633
G02  20790698.405   109255855.973 8      -127.873          50.250    20790697.825   109255855.969 7      -127.873          45.000                                                                    20790694.895    85134434.913 7       -99.657          45.000
G05  24337485.185   127894355.299 7      3493.620          42.000    24337485.415   127894352.295 4      3493.620          29.250    24337488.865    99657939.708 6      2722.220          40.500    24337489.085    99657937.700 4      2722.257          29.250
G06  22072770.064   115993189.414 8     -2447.079          49.500    22072770.444   115993188.405 7     -2447.079          43.000    22072773.404    90384304.573 8     -1906.790          51.500    22072773.394    90384304.576 7     -1906.788          43.000    22072772.614    86618291.331 9     -1827.348          56.000
G31  23657037.962   124318571.753 7      2002.916          46.750    23657037.482   124318571.743 6      2002.916          37.500    23657037.402    96871617.077 7      1560.714          45.500    23657037.492    96871617.071 6      1560.718          37.500
G24  24717470.863   129891180.237 7     -3665.091          42.500    24717470.233   129891176.220 4     -3665.091          27.250    24717475.133   101213904.823 6     -2855.953          40.500    24717475.003   101213904.820 4     -2855.994          27.250    24717474.573    96996657.416 7     -2736.951          47.750
G25  20681757.093   108683366.931 9      1353.956          54.000    20681756.653   108683364.923 7      1353.956          45.750    20681758.873    84688337.708 8      1055.039          52.000    20681758.833    84688337.707 7      1055.058          45.750    20681757.433    81159656.908 9      1011.076          57.750
G12  20422546.644   107321204.727 8     -1374.215          52.250    20422546.544   107321204.718 7     -1374.215          45.000    20422544.984    83626915.497 8     -1070.840          50.250    20422545.204    83626914.498 7     -1070.830          45.000
G29  22461291.122   118034882.304 8      2923.073          49.000    22461291.082   118034882.295 6      2923.073          41.250    22461290.842    91975234.207 7      2277.719          46.500    22461290.872    91975234.206 6      2277.726          41.250
> 2015 09 03 07 47 15.0000000  0  8       0.000052964872
G02  20790722.703   109255984.373 8      -129.074          50.500    20790722.093   109255984.363 7      -129.074          45.000                                                                    20790719.263    85134534.964 7      -100.562          45.000
G05  24336820.587   127890862.039 7      3492.782          42.000    24336821.067   127890859.030 4      3492.782          29.500    24336824.207    99655217.687 6      2721.625          40.500    24336824.407    99655215.689 4      2721.607          29.500
G06  22073236.143   115995636.999 8     -2448.224          49.500    22073236.153   115995635.991 7     -2448.224          43.000    22073239.193    90386211.781 8     -1907.683          51.750    22073239.243    90386211.781 7     -1907.670          43.000    22073238.423    86620119.071 9     -1828.198          56.000
G31  23656656.324   124316569.367 7      2001.736          46.500    23656656.284   124316569.353 6      2001.736          37.250    23656656.484    96870056.774 7      1559.814          45.250    23656656.544    96870056.768 6      1559.821          37.250
G24  24718168.567   129894845.767 7     -3665.990          42.500    24718168.137   129894841.748 4     -3665.990          27.750    24718172.667   101216761.082 6     -2856.629          40.500    24718172.397   101216761.069 4     -2856.627          27.750    24718172.107    96999394.663 7     -2737.609          47.750
G25  20681499.326   108682013.537 9      1352.730          54.000    20681499.036   108682011.530 7      1352.730          45.750    20681501.276    84687283.114 8      1054.075          51.750    20681501.426    84687283.116 7      1054.080          45.750    20681499.876    81158646.256 9      1010.152          57.750
G12  20422808.369   107322579.457 8     -1375.449          52.250    20422808.279   107322579.452 7     -1375.449          45.000    20422806.849    83627986.714 8     -1071.795          50.250    20422806.899    83627985.717 7     -1071.799          45.000
G29  22460734.890   118031959.602 8      2922.194          49.000    22460735.130   118031959.594 6      2922.194          41.250    22460734.790    91972956.776 7      2277.014          46.500    22460734.770    91972956.779 6      2277.029          41.250
> 2015 09 03 07 47 16.0000000  0  8       0.000052942255
G02  20790747.289   109256113.573 8      -129.420          50.500    20790746.719   109256113.567 7      -129.420          44.750                                                                    20790743.859    85134635.639 7      -100.856          44.750
G05  24336155.437   127887369.151 6      3492.843          41.750    24336156.037   127887366.143 4      3492.843          29.250    24336159.697    99652495.969 6      2721.750          40.500    24336159.707    99652493.980 4      2721.666          29.250
G06  22073701.747   115998085.275 8     -2448.509          49.500    22073702.317   115998084.266 7     -2448.509          43.000    22073704.937    90388119.529 8     -1907.909          51.750    22073705.087    90388119.530 7     -1907.914          43.000    22073704.327    86621947.328 9     -1828.418          56.000
G31  23656275.455   124314567.774 7      2001.366          46.500    23656275.335   124314567.765 6      2001.366          37.500    23656275.565    96868497.092 7      1559.497          45.250    23656275.375    96868497.095 6      1559.452          37.500
G24  24718865.842   129898511.553 7     -3665.701          42.500    24718865.702   129898507.547 4     -3665.701          27.750    24718870.222   101219617.537 6     -2856.450          40.500    24718869.812   101219617.522 4     -2856.429          27.750    24718869.482    97002132.093 7     -2737.400          47.500
G25  20681242.041   108680660.933 9      1352.370          54.000    20681241.711   108680658.929 7      1352.370          45.750    20681244.001    84686229.140 8      1053.806          52.000    20681243.981    84686229.141 7      1053.808          45.750    20681242.461    81157636.197 9      1009.897          57.750
G12  20423070.064   107323954.985 8     -1375.760          52.250    20423069.874   107323954.974 7     -1375.760          45.000    20423068.534    83629058.553 8     -1072.015          50.500    20423068.644    83629057.558 7     -1072.037          45.000
G29  22460178.556   118029037.362 8      2922.212          49.000    22460178.996   118029037.350 6      2922.212          41.250    22460178.616    91970679.710 7      2277.103          46.750    22460178.436    91970679.713 6      2277.098          41.250
> 2015 09 03 07 47 17.0000000  0  8       0.000052919555
G02  20790772.100   109256243.201 8      -130.023          50.500    20790771.380   109256243.195 7      -130.023          44.750                                                                    20790768.490    85134736.653 7      -101.352          44.750
G05  24335490.608   127883876.296 7      3492.700          42.000    24335491.548   127883873.285 4      3492.700          29.750    24335495.178    99649774.268 6      2721.587          40.750    24335494.878    99649772.269 4      2721.623          29.750
G06  22074168.017   116000533.859 8     -2448.931          49.500    22074168.117   116000532.848 7     -2448.931          43.250    22074171.087    90390027.515 8     -1908.228          51.750    22074171.067    90390027.519 7     -1908.237          43.250    22074170.267    86623775.814 9     -1828.727          56.000
G31  23655894.494   124312566.590 7      2000.821          46.250    23655894.914   124312566.585 6      2000.821          37.250    23655894.734    96866937.733 7      1559.068          45.500    23655894.594    96866937.733 6      1559.079          37.250
G24  24719562.749   129902177.242 7     -3665.756          42.500    24719563.279   129902173.240 4     -3665.756          27.750    24719567.689   101222473.912 6     -2856.412          40.500    24719567.879   101222473.895 4     -2856.409          27.750    24719567.019    97004869.459 7     -2737.400          47.500
G25  20680984.624   108679308.767 8      1351.803          53.750    20680984.374   108679306.760 7      1351.803          45.750    20680986.554    84685175.505 8      1053.370          52.000    20680986.724    84685175.504 7      1053.386          45.750    20680985.164    81156626.463 9      1009.482          57.750
G12  20423331.702   107325330.954 8     -1376.357          52.250    20423331.822   107325330.948 7     -1376.357          45.000    20423330.612    83630130.736 8     -1072.469          50.500    20423330.372    83630129.738 7     -1072.477          45.000
G29  22459622.759   118026115.259 8      2921.880          49.000    22459622.889   118026115.253 6      2921.880          41.500    22459622.599    91968402.750 7      2276.800          46.750    22459622.579    91968402.758 6      2276.800          41.500
> 2015 09 03 07 47 18.0000000  0  8       0.000052896895
G02  20790796.833   109256373.433 8      -130.389          50.750    20790796.163   109256373.425 7      -130.389          44.750                                                                    20790793.433    85134838.126 7      -101.595          44.750
G05  24334826.289   127880383.624 7      3492.771          42.000    24334826.799   127880380.623 4      3492.771          29.250    24334829.759    99647052.715 6      2721.664          41.000    24334830.789    99647050.712 4      2721.590          29.250
G06  22074633.964   116002982.957 8     -2449.158          49.500    22074634.214   116002981.942 7     -2449.158          43.250    22074637.114    90391935.902 8     -1908.458          51.750    22074637.074    90391935.903 7     -1908.455          43.250    22074636.364    86625604.684 9     -1828.932          56.000
G31  23655513.904   124310566.011 7      2000.501          46.000    23655514.074   124310566.006 6      2000.501          37.500    23655513.984    96865378.841 7      1558.853          45.500    23655513.824    96865378.842 6      1558.851          37.500
G24  24720260.531   129905843.031 7     -3665.682          42.250    24720260.801   129905839.020 4     -3665.682          27.500    24720265.551   101225330.369 6     -2856.355          40.750    24720265.611   101225330.364 4     -2856.364          27.500    24720264.691    97007606.895 7     -2737.331          47.500
G25  20680727.591   108677957.207 8      1351.454          53.750    20680727.231   108677955.200 7      1351.454          45.750    20680729.491    84684122.342 8      1053.101          51.750    20680729.431    84684122.344 7      1053.093          45.750    20680727.971    81155617.181 9      1009.231          57.750
G12  20423593.789   107326707.542 8     -1376.716          52.000    20423593.729   107326707.534 7     -1376.716          45.000    20423592.509    83631203.401 8     -1072.739          50.250    20423592.369    83631202.403 7     -1072.734          45.000
G29  22459066.524   118023193.430 8      2921.904          48.750    22459066.714   118023193.421 6      2921.904          41.250    22459066.494    91966126.000 7      2276.833          46.500    22459066.504    91966126.007 6      2276.826          41.250
> 2015 09 03 07 47 19.0000000  0  8       0.000052874146
G02  20790821.572   109256504.045 8      -131.132          50.750    20790821.012   109256504.037 7      -131.132          44.750                                                                    20790818.392    85134939.905 7      -102.195          44.750
G05  24334161.643   127876890.923 7      3492.474          42.000    24334162.603   127876887.915 4      3492.474          29.000    24334166.213    99644331.133 6      2721.391          41.000    24334165.303    99644329.130 4      2721.423          29.000
G06  22075099.880   116005432.319 8     -2449.805          49.250    22075100.210   116005431.310 7     -2449.805          43.250    22075103.180    90393844.494 8     -1908.932          51.750    22075103.050    90393844.497 7     -1908.928          43.250    22075102.430    86627433.751 9     -1829.392          56.000
G31  23655133.060   124308565.815 7      1999.763          46.000    23655133.430   124308565.809 6      1999.763          37.250    23655133.590    96863820.244 7      1558.299          45.500    23655133.170    96863820.245 6      1558.215          37.250
G24  24720958.687   129909508.677 7     -3665.782          42.500    24720958.217   129909504.676 4     -3665.782          27.000    24720963.347   101228186.717 6     -2856.529          40.750    24720962.757   101228186.701 4     -2856.494          27.000    24720962.257    97010344.227 7     -2737.512          47.500
G25  20680470.204   108676606.044 9      1350.711          54.000    20680470.144   108676604.040 7      1350.711          45.750    20680472.314    84683069.487 8      1052.503          52.000    20680472.404    84683069.492 7      1052.498          45.750    20680470.864    81154608.196 9      1008.648          57.500
G12  20423855.715   107328084.518 8     -1377.412          52.000    20423855.835   107328084.504 7     -1377.412          45.000    20423854.505    83632276.369 8     -1073.326          50.250    20423854.365    83632275.374 7     -1073.340          45.000
G29  22458510.493   118020271.672 8      2921.505          49.000    22458510.803   118020271.660 6      2921.505          41.500    22458510.783    91963849.304 7      2276.537          46.500    22458510.523    91963849.314 6      2276.526          41.500
> 2015 09 03 07 47 20.0000000  0  8       0.000052851493
G02  20790846.499   109256635.329 8      -131.510          50.750    20790846.059   109256635.321 7      -131.510          45.000                                                                    20790843.189    85135042.202 7      -102.466          45.000
G05  24333497.405   127873398.484 7      3492.469          42.250    24333497.945   127873395.472 4      3492.469          29.500    24333501.415    99641609.757 6      2721.439          41.000    24333501.455    99641607.755 4      2721.431          29.500
G06  22075566.303   116007882.254 8     -2450.068          49.250    22075566.493   116007881.245 7     -2450.068          43.250    22075569.493    90395753.535 8     -1909.144          51.750    22075569.283    90395753.537 7     -1909.151          43.250    22075568.673    86629263.248 9     -1829.601          56.000
G31  23654752.653   124306566.283 7      1999.371          46.250    23654752.673   124306566.271 6      1999.371          37.500    23654753.133    96862262.170 7      1557.934          45.500    23654752.683    96862262.168 6      1557.948          37.500
G24  24721656.325   129913174.492 7     -3665.816          42.500    24721655.685   129913170.478 4     -3665.816          27.250    24721660.995   101231043.195 6     -2856.464          40.750    24721660.595   101231043.182 4     -2856.533          27.250    24721660.005    97013081.678 7     -2737.426          47.500
G25  20680213.381   108675255.551 8      1350.347          53.750    20680213.011   108675253.544 7      1350.347          45.750    20680215.221    84682017.154 8      1052.217          51.750    20680215.361    84682017.157 7      1052.203          45.750    20680213.851    81153599.710 9      1008.361          57.500
G12  20424117.928   107329462.178 8     -1377.868          51.750    20424117.968   107329462.170 7     -1377.868          45.000    20424116.778    83633349.871 8     -1073.665          50.500    20424116.548    83633348.875 7     -1073.672          45.000
G29  22457954.788   118017350.286 8      2921.398          49.000    22457954.908   118017350.276 6      2921.398          41.250    22457954.628    91961572.899 7      2276.385          46.750    22457954.388    91961572.910 6      2276.383          41.250
> 2015 09 03 07 47 21.0000000  0  8       0.000052828854
G02  20790871.643   109256767.203 8      -132.240          50.750    20790871.213   109256767.197 7      -132.240          45.000                                                                    20790868.253    85135144.965 7      -103.041          45.000
G05  24332832.586   127869906.244 7      3492.067          42.250    24332832.976   127869903.239 4      3492.067          29.500    24332836.376    99638888.542 6      2721.097          41.000    24332836.826    99638886.545 4      2721.049          29.500
G06  22076032.592   116010332.671 8     -2450.722          49.250    22076032.802   116010331.663 7     -2450.722          43.250    22076035.842    90397662.950 8     -1909.658          51.500    22076035.612    90397662.952 7     -1909.651          43.250    22076034.972    86631093.104 9     -1830.091          56.000
G31  23654371.974   124304567.337 7      1998.585          46.250    23654372.214   124304567.329 6      1998.585          37.250    23654372.944    96860704.555 7      1557.364          45.750    23654372.494    96860704.544 6      1557.372          37.250
G24  24722353.895   129916840.371 7     -3665.880          42.250    24722353.195   129916836.367 4     -3665.880          26.750    24722358.755   101233899.723 6     -2856.594          41.000    24722358.145   101233899.712 4     -2856.575          26.750    24722357.535    97015819.189 7     -2737.555          47.500
G25  20679956.591   108673905.665 9      1349.532          54.000    20679956.221   108673903.662 7      1349.532          45.750    20679958.471    84680965.298 8      1051.611          51.750    20679958.461    84680965.297 7      1051.617          45.750    20679957.021    81152591.680 9      1007.789          57.750
G12  20424380.214   107330840.451 8     -1378.685          51.750    20424380.184   107330840.445 7     -1378.685          45.000    20424379.044    83634423.850 8     -1074.311          50.500    20424378.834    83634422.851 7     -1074.296          45.000
G29  22457398.751   118014429.167 8      2920.915          49.250    22457398.761   118014429.159 6      2920.915          41.250    22457398.851    91959296.704 7      2276.042          46.750    22457398.771    91959296.715 6      2276.058          41.250
> 2015 09 03 07 47 22.0000000  0  8       0.000052806279
G02  20790897.122   109256899.731 8      -132.734          50.750    20790896.282   109256899.725 7      -132.734          45.000                                                                    20790893.442    85135248.233 7      -103.437          45.000
G05  24332168.644   127866414.223 7      3492.075          42.250    24332168.374   127866411.225 4      3492.075          29.250    24332172.674    99636167.494 6      2721.067          41.000    24332172.134    99636165.485 4      2721.058          29.250
G06  22076498.982   116012783.632 8     -2451.119          49.250    22076499.202   116012782.626 7     -2451.119          43.000    22076502.162    90399572.790 8     -1909.961          51.500    22076502.022    90399572.789 7     -1909.945          43.000    22076501.382    86632923.367 9     -1830.384          56.000
G31  23653992.242   124302569.024 7      1998.153          46.250    23653992.352   124302569.028 6      1998.153          37.500    23653992.622    96859147.437 7      1556.962          46.000    23653992.322    96859147.430 6      1557.002          37.500
G24  24723050.564   129920506.409 7     -3666.017          42.250    24723050.764   129920502.400 4     -3666.017          27.500    24723055.214   101236756.365 6     -2856.626          40.750    24723055.674   101236756.354 4     -2856.586          27.500    24723055.154    97018556.804 7     -2737.584          47.500
G25  20679699.648   108672556.418 9      1349.099          54.000    20679699.498   108672554.413 7      1349.099          45.750    20679701.468    84679913.935 8      1051.239          51.750    20679701.708    84679913.937 7      1051.248          45.750    20679700.238    81151584.127 9      1007.431          57.750
G12  20424642.760   107332219.359 8     -1379.124          51.750    20424642.380   107332219.349 7     -1379.124          45.000    20424641.350    83635498.322 8     -1074.639          50.500    20424641.260    83635497.325 7     -1074.636          45.000
G29  22456842.669   118011508.366 8      2920.816          49.000    22456843.169   118011508.362 6      2920.816          41.250    22456843.349    91957020.756 7      2275.959          46.750    22456842.939    91957020.769 6      2275.953          41.250
> 2015 09 03 07 47 23.0000000  0  8       0.000052783768
G02  20790922.524   109257032.894 8      -133.398          50.750    20790921.704   109257032.892 7      -133.398          45.000                                                                    20790918.834    85135352.000 7      -103.931          45.000
G05  24331503.731   127862922.436 7      3491.868          42.500    24331504.101   127862919.435 5      3491.868          30.000    24331508.011    99633446.631 6      2720.827          41.250    24331507.601    99633444.606 5      2720.880          30.000
G06  22076965.357   116015235.126 8     -2451.634          49.250    22076965.627   116015234.110 7     -2451.634          43.000    22076968.787    90401483.042 8     -1910.377          51.500    22076968.587    90401483.042 7     -1910.390          43.000    22076967.907    86634754.024 9     -1830.784          56.000
G31  23653612.072   124300571.352 7      1997.436          46.250    23653611.972   124300571.342 6      1997.436          37.250    23653612.282    96857590.809 7      1556.442          45.750    23653612.192    96857590.798 6      1556.443          37.250
G24  24723748.379   129924172.574 7     -3666.090          42.000    24723747.919   129924168.560 4     -3666.090          28.000    24723753.349   101239613.113 6     -2856.757          40.750    24723753.379   101239613.098 4     -2856.744          28.000    24723752.829    97021294.523 7     -2737.733          47.500
G25  20679443.088   108671207.821 9      1348.413          54.000    20679442.728   108671205.815 7      1348.413          45.750    20679445.108    84678863.082 8      1050.735          51.750    20679445.078    84678863.083 7      1050.735          45.750    20679443.588    81150577.057 9      1006.958          57.750
G12  20424905.267   107333598.925 8     -1379.762          51.750    20424905.027   107333598.917 7     -1379.762          45.000    20424904.017    83636573.309 8     -1075.172          50.500    20424903.797    83636572.315 7     -1075.173          45.000
G29  22456286.941   118008587.905 8      2920.435          49.000    22456287.591   118008587.896 6      2920.435          41.000    22456287.251    91954745.078 7      2275.599          46.750    22456287.141    91954745.091 6      2275.591          41.000
> 2015 09 03 07 47 24.0000000  0  8       0.000052761355
G02  20790947.667   109257166.764 8      -134.179          50.750    20790947.237   109257166.758 7      -134.179          45.000                                                                    20790944.357    85135456.312 7      -104.563          45.000
G05  24330839.080   127859430.926 7      3491.422          42.750    24330839.420   127859427.921 5      3491.422          30.000    24330843.330    99630725.985 6      2720.613          41.000    24330843.240    99630723.980 5      2720.545          30.000
G06  22077431.954   116017687.223 8     -2452.381          49.250    22077432.374   116017686.212 7     -2452.381          43.250    22077435.284    90403393.762 8     -1910.918          51.500    22077435.084    90403393.764 7     -1910.900          43.250    22077434.534    86636585.134 9     -1831.298          56.250
G31  23653232.130   124298574.372 7      1996.709          46.500    23653232.050   124298574.360 6      1996.709          37.500    23653231.920    96856034.727 7      1555.865          45.500    23653232.030    96856034.715 6      1555.888          37.500
G24  24724445.864   129927838.922 7     -3666.408          42.000    24724446.124   129927834.900 4     -3666.408          27.250    24724451.674   101242469.994 6     -2856.898          40.750    24724451.434   101242469.980 4     -2856.902          27.250    24724450.564    97024032.370 7     -2737.896          47.500
G25  20679186.766   108669859.946 9      1347.552          54.000    20679186.366   108669857.944 7      1347.552          45.750    20679188.576    84677812.787 8      1050.039          51.750    20679188.556    84677812.790 7      1050.031          45.750    20679187.136    81149570.528 9      1006.289          57.750
G12  20425167.754   107334979.208 8     -1380.608          52.000    20425167.714   107334979.201 7     -1380.608          45.000    20425166.444    83637648.854 8     -1075.797          50.500    20425166.404    83637647.855 7     -1075.789          45.000
G29  22455731.411   118005667.820 8      2919.920          49.000    22455731.791   118005667.800 6      2919.920          40.750    22455731.711    91952469.687 7      2275.300          46.500    22455731.471    91952469.695 6      2275.298          40.750
> 2015 09 03 07 47 25.0000000  0  8       0.000052738970
G02  20790973.369   109257301.197 8      -134.724          50.750    20790972.799   109257301.195 7      -134.724          45.000                                                                    20790969.939    85135561.066 7      -105.006          45.000
G05  24330175.726   127855939.584 7      3491.283          42.750    24330175.446   127855936.571 5      3491.283          30.000    24330178.416    99628005.464 6      2720.484          41.000    24330178.276    99628003.455 5      2720.501          30.000
G06  22077898.731   116020139.781 8     -2452.826          49.500    22077898.971   116020138.772 7     -2452.826          43.250    22077901.991    90405304.849 8     -1911.329          51.500    22077901.841    90405304.849 7     -1911.333          43.250    22077901.191    86638416.589 9     -1831.690          56.000
G31  23652852.209   124296577.955 7      1996.210          46.500    23652852.219   124296577.945 6      1996.210          37.500    23652851.689    96854479.072 7      1555.500          45.250    23652852.209    96854479.069 6      1555.476          37.500
G24  24725143.652   129931505.298 7     -3666.354          42.000    24725143.202   129931501.282 4     -3666.354          27.000    24725148.292   101245326.911 6     -2856.884          41.000    24725149.672   101245326.887 4     -2856.861          27.000    24725148.222    97026770.237 7     -2737.821          47.500
G25  20678930.581   108668512.622 9      1347.030          54.250    20678930.011   108668510.617 7      1347.030          45.750    20678932.261    84676762.927 8      1049.618          51.750    20678932.181    84676762.931 7      1049.609          45.750    20678930.791    81148564.411 9      1005.886          57.750
G12  20425430.561   107336360.058 8     -1381.119          52.000    20425430.581   107336360.046 7     -1381.119          45.000    20425429.221    83638724.836 8     -1076.188          50.500    20425429.261    83638723.842 7     -1076.193          45.000
G29  22455175.823   118002747.986 8      2919.777          49.000    22455176.153   118002747.983 6      2919.777          40.750    22455176.083    91950194.496 7      2275.134          46.500    22455175.803    91950194.500 6      2275.133          40.750
> 2015 09 03 07 47 26.0000000  0  8       0.000052716620
G02  20790999.199   109257436.233 8      -135.387          51.000    20790998.299   109257436.227 7      -135.387          45.000                                                                    20790995.619    85135666.291 7      -105.531          45.000
G05  24329510.804   127852448.434 7      3491.010          42.500    24329511.784   127852445.433 4      3491.010          29.750    24329514.524    99625285.099 6      2720.223          40.750    24329514.094    99625283.086 4      2720.220          29.750
G06  22078365.457   116022592.812 8     -2453.263          49.500    22078365.817   116022591.805 7     -2453.263          43.250    22078368.777    90407216.301 8     -1911.630          51.500    22078368.717    90407216.301 7     -1911.635          43.250    22078368.007    86640248.397 9     -1831.982          56.250
G31  23652472.381   124294582.136 7      1995.561          46.500    23652472.481   124294582.134 6      1995.561          37.250    23652472.161    96852923.890 7      1554.939          45.250    23652472.161    96852923.884 6      1554.956          37.250
G24  24725841.224   129935171.750 6     -3666.433          41.750    24725841.344   129935167.730 4     -3666.433          26.750    24725846.544   101248183.883 6     -2857.010          40.750    24725846.904   101248183.867 4     -2857.018          26.750    24725846.094    97029508.169 7     -2737.929          47.500
G25  20678673.986   108667165.911 9      1346.372          54.250    20678673.676   108667163.913 7      1346.372          45.750    20678676.046    84675713.541 8      1049.110          52.000    20678675.946    84675713.547 7      1049.095          45.750    20678674.496    81147558.752 9      1005.392          57.750
G12  20425693.230   107337741.523 8     -1381.829          51.750    20425693.460   107337741.511 7     -1381.829          45.000    20425692.210    83639801.305 8     -1076.740          50.500    20425692.160    83639800.307 7     -1076.740          45.000
G29  22454620.311   117999828.442 8      2919.382          49.250    22454620.361   117999828.440 6      2919.382          40.750    22454620.521    91947919.531 7      2274.828          46.500    22454620.271    91947919.535 6      2274.828          40.750
> 2015 09 03 07 47 27.0000000  0  8       0.000052694312
G02  20791024.705   109257571.878 8      -135.818          51.000    20791024.275   109257571.870 7      -135.818          45.000                                                                    20791021.365    85135771.986 7      -105.838          45.000
G05  24328846.062   127848957.467 7      3491.043          42.500    24328847.212   127848954.458 4      3491.043          29.500    24328849.802    99622564.871 6      2720.301          40.500    24328849.772    99622562.857 4      2720.303          29.500
G06  22078832.506   116025046.374 8     -2453.719          49.500    22078832.816   116025045.366 7     -2453.719          43.250    22078835.496    90409128.169 8     -1911.984          51.500    22078835.736    90409128.173 7     -1911.990          43.250    22078834.886    86642080.601 9     -1832.310          56.250
G31  23652092.280   124292586.923 7      1995.085          46.500    23652092.750   124292586.916 6      1995.085          37.250    23652092.430    96851369.175 7      1554.603          45.000    23652092.790    96851369.168 6      1554.628          37.250
G24  24726539.261   129938838.317 6     -3666.585          41.500    24726538.911   129938834.293 4     -3666.585          27.250    24726544.381   101251040.935 6     -2857.052          41.000    24726544.501   101251040.923 4     -2857.001          27.250    24726543.881    97032246.187 7     -2738.011          47.500
G25  20678417.777   108665819.699 9      1346.471          54.250    20678417.527   108665817.698 7      1346.471          45.750    20678419.867    84674664.547 8      1049.158          52.000    20678419.747    84674664.550 7      1049.173          45.750    20678418.317    81146553.465 9      1005.445          57.500
G12  20425956.247   107339123.609 8     -1382.254          51.750    20425956.367   107339123.600 7     -1382.254          45.000    20425955.217    83640878.251 8     -1077.087          50.500    20425955.057    83640877.256 7     -1077.095          45.000
G29  22454065.107   117996909.192 8      2919.274          49.250    22454064.827   117996909.189 6      2919.274          40.750    22454064.877    91945644.795 7      2274.754          46.500    22454064.757    91945644.798 6      2274.768          40.750
> 2015 09 03 07 47 28.0000000  0  8       0.000052671949
G02  20791050.817   109257707.994 8      -136.232          51.000    20791050.177   109257707.984 7      -136.232          45.000                                                                    20791047.197    85135878.050 7      -106.180          45.000
G05  24328182.142   127845466.574 7      3491.016          42.750    24328182.842   127845463.569 4      3491.016          29.500    24328185.512    99619844.697 6      2720.230          40.500    24328185.482    99619842.695 4      2720.240          29.500
G06  22079299.220   116027500.281 8     -2453.952          50.000    22079299.720   116027499.270 7     -2453.952          43.250    22079302.510    90411040.300 8     -1912.155          51.750    22079302.600    90411040.298 7     -1912.152          43.250    22079301.890    86643913.060 9     -1832.480          56.250
G31  23651713.019   124290592.182 7      1994.545          46.750    23651713.379   124290592.184 6      1994.545          37.500    23651712.869    96849814.833 7      1554.193          45.000    23651713.029    96849814.840 6      1554.150          37.500
G24  24727237.016   129942504.786 6     -3666.246          41.500    24727236.476   129942500.771 4     -3666.246          26.750    24727241.816   101253897.913 6     -2856.857          40.750    24727241.706   101253897.899 4     -2856.861          26.750    24727241.556    97034984.127 7     -2737.822          47.500
G25  20678161.835   108664474.082 9      1345.528          54.250    20678161.375   108664472.077 7      1345.528          45.500    20678163.745    84673616.015 8      1048.436          52.000    20678163.695    84673616.018 7      1048.418          45.500    20678162.245    81145548.621 9      1004.750          57.500
G12  20426219.360   107340506.172 8     -1382.719          52.000    20426219.450   107340506.161 7     -1382.719          45.000    20426218.300    83641955.572 8     -1077.451          50.500    20426218.150    83641954.577 7     -1077.452          45.000
G29  22453509.550   117993990.097 8      2919.157          49.500    22453509.290   117993990.090 6      2919.157          40.750    22453509.390    91943370.177 7      2274.672          46.250    22453509.310    91943370.176 6      2274.688          40.750
> 2015 09 03 07 47 29.0000000  0  8       0.000052649645
G02  20791076.869   109257844.740 8      -136.967          51.000    20791076.119   109257844.732 7      -136.967          45.000                                                                    20791073.249    85135984.606 7      -106.752          45.000
G05  24327517.865   127841975.903 7      3490.614          43.000    24327518.595   127841972.898 5      3490.614          30.000    24327520.315    99617124.704 6      2719.945          40.000    24327521.355    99617122.699 5      2719.933          30.000
G06  22079766.240   116029954.738 8     -2454.670          49.750    22079766.970   116029953.732 7     -2454.670          43.250    22079769.780    90412952.864 8     -1912.771          51.750    22079769.580    90412952.865 7     -1912.766          43.250    22079768.910    86645745.934 9     -1833.077          56.250
G31  23651333.455   124288598.058 7      1993.901          46.750    23651333.725   124288598.049 6      1993.901          37.500    23651333.525    96848260.966 7      1553.656          45.000    23651333.455    96848260.969 6      1553.635          37.500
G24  24727934.324   129946171.424 6     -3666.643          41.500    24727934.824   129946167.409 4     -3666.643          27.000    24727940.114   101256755.023 6     -2857.173          40.750    24727940.324   101256755.024 4     -2857.214          27.000    24727939.384    97037722.185 7     -2738.108          47.750
G25  20677905.894   108663129.100 9      1344.779          54.000    20677905.614   108663127.098 7      1344.779          45.750    20677907.644    84672567.977 8      1047.891          52.000    20677907.814    84672567.979 7      1047.880          45.750    20677906.294    81144544.251 9      1004.223          57.500
G12  20426482.664   107341889.380 8     -1383.475          52.000    20426482.704   107341889.365 7     -1383.475          45.000    20426481.654    83643033.397 8     -1078.041          50.250    20426481.344    83643032.396 7     -1078.027          45.000
G29  22452953.834   117991071.331 8      2918.676          49.250    22452954.034   117991071.326 6      2918.676          40.750    22452953.794    91941095.815 7      2274.314          46.250    22452953.714    91941095.823 6      2274.312          40.750
> 2015 09 03 07 47 30.0000000  0  8       0.000052627454
G02  20791102.888   109257982.201 8      -137.850          51.000    20791102.308   109257982.194 7      -137.850          45.000                                                                    20791099.508    85136091.716 7      -107.449          45.000
G05  24326853.642   127838485.540 7      3490.165          43.000    24326854.322   127838482.542 5      3490.165          30.000    24326856.812    99614404.943 6      2719.574          40.000    24326857.252    99614402.942 5      2719.510          30.000
G06  22080233.421   116032409.784 8     -2455.405          49.500    22080234.101   116032408.781 7     -2455.405          43.250    22080236.941    90414865.890 8     -1913.317          51.750    22080236.861    90414865.890 7     -1913.317          43.250    22080236.091    86647579.249 9     -1833.590          56.250
G31  23650954.088   124286604.649 7      1993.052          46.750    23650954.448   124286604.646 6      1993.052          37.500    23650953.978    96846707.665 7      1552.967          45.250    23650954.328    96846707.665 6      1552.960          37.500
G24  24728632.919   129949838.238 6     -3667.074          41.500    24728632.219   129949834.226 4     -3667.074          27.000    24728637.319   101259612.296 6     -2857.480          40.750    24728637.769   101259612.273 4     -2857.492          27.000    24728637.069    97040460.401 7     -2738.411          47.500
G25  20677649.856   108661784.846 9      1343.863          54.000    20677649.636   108661782.843 7      1343.863          45.750    20677651.906    84671520.507 8      1047.174          52.000    20677652.046    84671520.508 7      1047.179          45.750    20677650.536    81143540.422 9      1003.543          57.500
G12  20426746.080   107343273.311 8     -1384.322          52.000    20426746.070   107343273.294 7     -1384.322          45.000    20426744.880    83644111.782 8     -1078.701          50.500    20426744.750    83644110.785 7     -1078.703          45.000
G29  22452398.600   117988152.960 8      2918.169          49.500    22452398.620   117988152.955 6      2918.169          40.500    22452398.540    91938821.763 7      2273.938          46.250    22452398.390    91938821.768 6      2273.939          40.500
> 2015 09 03 07 47 31.0000000  0  8       0.000052605111
G02  20791129.126   109258119.955 8      -137.917          51.000    20791128.586   109258119.944 7      -137.917          45.000                                                                    20791125.766    85136199.060 7      -107.464          45.000
G05  24326190.255   127834995.054 7      3490.587          43.500    24326190.215   127834992.052 4      3490.587          29.750    24326192.105    99611685.086 6      2719.904          39.750    24326192.635    99611683.082 4      2719.911          29.750
G06  22080700.864   116034865.026 8     -2455.338          49.500    22080701.024   116034864.015 7     -2455.338          43.250    22080704.234    90416779.058 8     -1913.243          51.750    22080704.204    90416779.059 7     -1913.244          43.250    22080703.314    86649412.706 9     -1833.527          56.250
G31  23650574.998   124284611.526 7      1993.017          46.750    23650575.338   124284611.523 6      1993.017          37.500    23650574.848    96845154.580 7      1553.015          45.250    23650574.958    96845154.580 6      1553.049          37.500
G24  24729330.674   129953504.812 6     -3666.352          41.500    24729330.204   129953500.789 4     -3666.352          27.250    24729335.174   101262469.338 6     -2856.791          41.000    24729335.484   101262469.328 4     -2856.809          27.250    24729334.824    97043198.411 7     -2737.767          47.750
G25  20677394.463   108660440.894 9      1343.801          54.000    20677393.913   108660438.888 7      1343.801          45.750    20677396.093    84670473.273 8      1047.094          52.000    20677396.183    84670473.274 7      1047.089          45.750    20677394.773    81142536.823 9      1003.466          57.500
G12  20427009.364   107344657.551 8     -1384.401          52.000    20427009.494   107344657.539 7     -1384.401          45.000    20427008.154    83645190.412 8     -1078.733          50.500    20427008.154    83645189.414 7     -1078.734          45.000
G29  22451843.348   117985234.583 8      2918.458          49.250    22451843.228   117985234.578 6      2918.458          40.500    22451842.878    91936547.702 7      2274.091          46.000    22451842.948    91936547.708 6      2274.100          40.500
> 2015 09 03 07 47 32.0000000  0  8       0.000052582750
G02  20791155.466   109258258.224 8      -138.643          51.000    20791154.866   109258258.211 7      -138.643          45.250                                                                    20791152.026    85136306.799 7      -108.075          45.250
G05  24325526.188   127831504.676 7      3490.229          43.750    24325526.358   127831501.670 5      3490.229          30.000    24325528.458    99608965.306 6      2719.707          39.750    24325527.978    99608963.306 5      2719.668          30.000
G06  22081168.015   116037320.679 8     -2456.031          49.500    22081168.435   116037319.672 7     -2456.031          43.250    22081171.375    90418692.555 8     -1913.814          51.750    22081171.405    90418692.554 7     -1913.799          43.250    22081170.585    86651246.469 9     -1834.068          56.250
G31  23650195.790   124282618.911 7      1992.226          47.000    23650196.010   124282618.902 6      1992.226          37.250    23650195.780    96843601.896 7      1552.380          45.500    23650195.970    96843601.896 6      1552.346          37.250
G24  24730027.808   129957171.441 6     -3666.756          41.500    24730027.988   129957167.419 4     -3666.756          28.000    24730032.698   101265326.460 6     -2857.182          41.000    24730033.248   101265326.451 4     -2857.155          28.000    24730032.798    97045936.479 7     -2738.136          47.750
G25  20677138.593   108659097.447 9      1343.032          54.000    20677138.273   108659095.444 7      1343.032          45.750    20677140.623    84669426.431 8      1046.521          52.000    20677140.603    84669426.431 7      1046.535          45.750    20677139.133    81141533.601 9      1002.919          57.500
G12  20427273.037   107346042.309 8     -1385.184          52.000    20427272.877   107346042.301 7     -1385.184          45.000    20427271.927    83646269.444 8     -1079.373          50.500    20427271.687    83646268.448 7     -1079.393          45.000
G29  22451287.770   117982316.393 8      2917.934          49.500    22451288.040   117982316.394 6      2917.934          40.500    22451287.680    91934273.790 7      2273.713          46.250    22451287.600    91934273.797 6      2273.715          40.500
> 2015 09 03 07 47 33.0000000  0  8       0.000052560507
G02  20791181.892   109258397.213 8      -139.410          51.000    20791181.332   109258397.202 7      -139.410          45.250                                                                    20791178.482    85136415.102 7      -108.617          45.250
G05  24324861.659   127828014.613 7      3489.900          43.750    24324862.269   127828011.608 5      3489.900          30.250    24324864.149    99606245.780 6      2719.454          40.000    24324864.659    99606243.776 5      2719.446          30.250
G06  22081635.431   116039776.945 8     -2456.618          49.500    22081635.991   116039775.931 7     -2456.618          43.250    22081638.831    90420606.524 8     -1914.252          51.750    22081638.721    90420606.527 7     -1914.248          43.250    22081637.991    86653080.690 9     -1834.490          56.000
G31  23649816.861   124280627.023 7      1991.534          47.000    23649817.041   124280627.020 6      1991.534          37.750    23649817.181    96842049.776 7      1551.804          45.750    23649816.931    96842049.776 6      1551.804          37.750
G24  24730726.088   129960838.248 6     -3666.831          41.750    24730725.898   129960834.231 4     -3666.831          28.000    24730730.838   101268183.698 6     -2857.333          41.000    24730730.758   101268183.704 4     -2857.388          28.000    24730730.618    97048674.671 7     -2738.264          47.750
G25  20676883.014   108657754.729 9      1342.335          54.000    20676882.724   108657752.723 7      1342.335          46.000    20676885.064    84668380.157 8      1046.007          52.000    20676885.094    84668380.158 7      1045.998          46.000    20676883.604    81140530.921 9      1002.415          57.500
G12  20427536.459   107347427.807 8     -1385.941          52.000    20427536.589   107347427.796 7     -1385.941          45.000    20427535.409    83647349.054 8     -1079.960          50.500    20427535.329    83647348.057 7     -1079.972          45.000
G29  22450732.875   117979398.611 8      2917.572          49.250    22450732.885   117979398.606 6      2917.572          40.750    22450732.175    91932000.196 7      2273.417          46.250    22450732.465    91932000.193 6      2273.433          40.750
> 2015 09 03 07 47 34.0000000  0  8       0.000052538361
G02  20791208.451   109258536.910 8      -139.836          51.000    20791207.961   109258536.898 7      -139.836          45.000                                                                    20791205.021    85136523.951 7      -108.953          45.000
G05  24324197.867   127824524.844 7      3489.936          43.500    24324198.267   127824521.828 4      3489.936          29.750    24324200.687    99603526.485 6      2719.465          40.000    24324200.347    99603524.492 4      2719.433          29.750
G06  22082103.089   116042233.822 8     -2456.990          49.500    22082103.499   116042232.807 7     -2456.990          43.250    22082106.199    90422520.973 8     -1914.564          51.500    22082106.299    90422520.971 7     -1914.567          43.250    22082105.509    86654915.371 9     -1834.792          56.250
G31  23649437.921   124278635.819 7      1991.129          47.000    23649438.001   124278635.827 6      1991.129          37.500    23649438.201    96840498.193 7      1551.539          45.750    23649437.851    96840498.193 6      1551.537          37.500
G24  24731423.852   129964505.258 6     -3667.016          41.500    24731423.632   129964501.254 4     -3667.016          27.750    24731428.542   101271041.109 6     -2857.395          41.000    24731428.412   101271041.102 4     -2857.416          27.750    24731428.362    97051413.025 7     -2738.336          47.750
G25  20676627.791   108656412.733 9      1341.925          54.000    20676627.421   108656410.729 7      1341.925          45.750    20676629.571    84667334.449 8      1045.640          52.000    20676629.651    84667334.445 7      1045.639          45.750    20676628.221    81139528.782 9      1002.067          57.750
G12  20427800.303   107348814.019 8     -1386.354          52.000    20427800.463   107348814.007 7     -1386.354          45.000    20427799.033    83648429.218 8     -1080.283          50.500    20427799.123    83648428.220 7     -1080.288          45.000
G29  22450177.519   117976481.235 8      2917.451          49.250    22450177.779   117976481.227 6      2917.451          40.500    22450177.419    91929726.917 7      2273.274          46.250    22450177.199    91929726.919 6      2273.287          40.500
